$GPGSA,A,3,,,,,,,,,,,,,22.3,9.8,,*02
$GPGGA,163206.334,4837.0930,N,00850.1453,E,1,03,9.8,0.0,M,,M,,*48
$GPRMC,163206.334,A,4837.0930,N,00850.1453,E,0.000000,0.000000,090506,,*01
$GPGLL,4837.0930,N,00850.1453,E,163206.334,A*3C
$GPVTG,0.000000,T,,M,0.000000,N,0.000000,K*50
$GPGSA,A,3,,,,,,,,,,,,,2.0,1.4,,*37
$GPGGA,163236.332,4837.2208,N,00850.1394,E,1,07,1.4,573.0,M,,M,,*42
$GPRMC,163236.332,A,4837.2208,N,00850.1394,E,0.108584,0.000000,090506,,*0A
$GPGLL,4837.2208,N,00850.1394,E,163236.332,A*37
$GPVTG,0.000000,T,,M,0.108584,N,0.201093,K*59
$GPGSA,A,3,,,,,,,,,,,,,2.0,1.4,,*37
$GPGGA,163427.325,4837.2141,N,00850.1812,E,1,07,1.4,579.4,M,,M,,*47
$GPRMC,163427.325,A,4837.2141,N,00850.1812,E,8.502028,48.117504,090506,,*3E
$GPGLL,4837.2141,N,00850.1812,E,163427.325,A*3C
$GPVTG,48.117504,T,,M,8.502028,N,15.745457,K*5B
$GPGSA,A,3,,,,,,,,,,,,,2.2,1.5,,*34
$GPGGA,163448.324,4837.2384,N,00850.2008,E,1,06,1.5,575.1,M,,M,,*4D
$GPRMC,163448.324,A,4837.2384,N,00850.2008,E,5.466081,22.158188,090506,,*37
$GPGLL,4837.2384,N,00850.2008,E,163448.324,A*3F
$GPVTG,22.158188,T,,M,5.466081,N,10.122990,K*55
$GPGSA,A,3,,,,,,,,,,,,,2.2,1.5,,*34
$GPGGA,163504.323,4837.2654,N,00850.2145,E,1,06,1.5,579.1,M,,M,,*4F
$GPRMC,163504.323,A,4837.2654,N,00850.2145,E,5.851746,16.875294,090506,,*32
$GPGLL,4837.2654,N,00850.2145,E,163504.323,A*31
$GPVTG,16.875294,T,,M,5.851746,N,10.837228,K*5B
$GPGSA,A,3,,,,,,,,,,,,,2.2,1.5,,*34
$GPGGA,163520.322,4837.2931,N,00850.2201,E,1,06,1.5,581.1,M,,M,,*40
$GPRMC,163520.322,A,4837.2931,N,00850.2201,E,7.098648,358.986694,090506,,*0A
$GPGLL,4837.2931,N,00850.2201,E,163520.322,A*39
$GPVTG,358.986694,T,,M,7.098648,N,13.146445,K*6A
$GPGSA,A,3,,,,,,,,,,,,,6.8,3.3,,*3E
$GPGGA,163533.321,4837.3210,N,00850.2114,E,1,04,3.3,581.8,M,,M,,*40
$GPRMC,163533.321,A,4837.3210,N,00850.2114,E,8.549057,349.492706,090506,,*09
$GPGLL,4837.3210,N,00850.2114,E,163533.321,A*36
$GPVTG,349.492706,T,,M,8.549057,N,15.832552,K*6D
$GPGSA,A,3,,,,,,,,,,,,,2.0,1.4,,*37
$GPGGA,163547.320,4837.3476,N,00850.2024,E,1,07,1.4,586.8,M,,M,,*47
$GPRMC,163547.320,A,4837.3476,N,00850.2024,E,7.428302,352.259796,090506,,*07
$GPGLL,4837.3476,N,00850.2024,E,163547.320,A*30
$GPVTG,352.259796,T,,M,7.428302,N,13.756953,K*63
$GPGSA,A,3,,,,,,,,,,,,,2.8,1.9,,*32
$GPGGA,163559.320,4837.3750,N,00850.1944,E,1,06,1.9,587.9,M,,M,,*4F
$GPRMC,163559.320,A,4837.3750,N,00850.1944,E,7.705071,351.307465,090506,,*0E
$GPGLL,4837.3750,N,00850.1944,E,163559.320,A*34
$GPVTG,351.307465,T,,M,7.705071,N,14.269521,K*69
$GPGSA,A,3,,,,,,,,,,,,,3.6,3.3,,*35
$GPGGA,163611.319,4837.4032,N,00850.1869,E,1,06,3.3,586.3,M,,M,,*43
$GPRMC,163611.319,A,4837.4032,N,00850.1869,E,11.948129,355.252228,090506,,*37
$GPGLL,4837.4032,N,00850.1869,E,163611.319,A*3B
$GPVTG,355.252228,T,,M,11.948129,N,22.127514,K*55
$GPGSA,A,3,,,,,,,,,,,,,3.1,1.9,,*3A
$GPGGA,163619.318,4837.4309,N,00850.1838,E,1,05,1.9,582.6,M,,M,,*4F
$GPRMC,163619.318,A,4837.4309,N,00850.1838,E,12.421580,1.074594,090506,,*33
$GPGLL,4837.4309,N,00850.1838,E,163619.318,A*3D
$GPVTG,1.074594,T,,M,12.421580,N,23.004328,K*5F
$GPGSA,A,3,,,,,,,,,,,,,3.1,1.9,,*3A
$GPGGA,163628.318,4837.4604,N,00850.1889,E,1,05,1.9,583.0,M,,M,,*48
$GPRMC,163628.318,A,4837.4604,N,00850.1889,E,11.394631,4.502198,090506,,*39
$GPGLL,4837.4604,N,00850.1889,E,163628.318,A*3D
$GPVTG,4.502198,T,,M,11.394631,N,21.102455,K*5D
$GPGSA,A,3,,,,,,,,,,,,,6.0,4.8,,*3A
$GPGGA,163637.317,4837.4874,N,00850.1918,E,1,04,4.8,583.1,M,,M,,*4D
$GPRMC,163637.317,A,4837.4874,N,00850.1918,E,10.394578,7.201430,090506,,*37
$GPGLL,4837.4874,N,00850.1918,E,163637.317,A*3C
$GPVTG,7.201430,T,,M,10.394578,N,19.250393,K*50
$GPGSA,A,3,,,,,,,,,,,,,2.0,1.4,,*37
$GPGGA,163648.317,4837.5153,N,00850.1998,E,1,07,1.4,589.2,M,,M,,*43
$GPRMC,163648.317,A,4837.5153,N,00850.1998,E,7.678464,43.627316,090506,,*34
$GPGLL,4837.5153,N,00850.1998,E,163648.317,A*31
$GPVTG,43.627316,T,,M,7.678464,N,14.220245,K*5E
$GPGSA,A,3,,,,,,,,,,,,,3.5,3.3,,*36
$GPGGA,163700.316,4837.5217,N,00850.2411,E,1,06,3.3,591.0,M,,M,,*4C
$GPRMC,163700.316,A,4837.5217,N,00850.2411,E,9.104803,78.929611,090506,,*30
$GPGLL,4837.5217,N,00850.2411,E,163700.316,A*31
$GPVTG,78.929611,T,,M,9.104803,N,16.861776,K*52
$GPGSA,A,3,,,,,,,,,,,,,2.0,1.4,,*37
$GPGGA,163710.315,4837.5256,N,00850.2853,E,1,07,1.4,585.6,M,,M,,*46
$GPRMC,163710.315,A,4837.5256,N,00850.2853,E,11.912667,88.851654,090506,,*07
$GPGLL,4837.5256,N,00850.2853,E,163710.315,A*3C
$GPVTG,88.851654,T,,M,11.912667,N,22.061840,K*6D
$GPGSA,A,3,,,,,,,,,,,,,2.2,1.5,,*34
$GPGGA,163718.315,4837.5213,N,00850.3275,E,1,06,1.5,580.4,M,,M,,*47
$GPRMC,163718.315,A,4837.5213,N,00850.3275,E,13.342285,111.308174,090506,,*37
$GPGLL,4837.5213,N,00850.3275,E,163718.315,A*3A
$GPVTG,111.308174,T,,M,13.342285,N,24.709442,K*5A
$GPGSA,A,3,,,,,,,,,,,,,2.2,1.5,,*34
$GPGGA,163725.314,4837.5098,N,00850.3661,E,1,06,1.5,577.6,M,,M,,*42
$GPRMC,163725.314,A,4837.5098,N,00850.3661,E,14.007779,110.910324,090506,,*3E
$GPGLL,4837.5098,N,00850.3661,E,163725.314,A*35
$GPVTG,110.910324,T,,M,14.007779,N,25.941914,K*51
$GPGSA,A,3,,,,,,,,,,,,,2.2,1.5,,*34
$GPGGA,163732.314,4837.5016,N,00850.4063,E,1,06,1.5,577.4,M,,M,,*43
$GPRMC,163732.314,A,4837.5016,N,00850.4063,E,14.181495,101.265671,090506,,*3F
$GPGLL,4837.5016,N,00850.4063,E,163732.314,A*36
$GPVTG,101.265671,T,,M,14.181495,N,26.263628,K*5B
$GPGSA,A,3,,,,,,,,,,,,,2.2,1.5,,*34
$GPGGA,163739.313,4837.4989,N,00850.4478,E,1,06,1.5,576.3,M,,M,,*49
$GPRMC,163739.313,A,4837.4989,N,00850.4478,E,14.398968,90.944466,090506,,*03
$GPGLL,4837.4989,N,00850.4478,E,163739.313,A*3A
$GPVTG,90.944466,T,,M,14.398968,N,26.666384,K*69
$GPGSA,A,3,,,,,,,,,,,,,2.2,1.5,,*34
$GPGGA,163746.313,4837.5005,N,00850.4910,E,1,06,1.5,575.7,M,,M,,*49
$GPRMC,163746.313,A,4837.5005,N,00850.4910,E,14.766799,81.799103,090506,,*09
$GPGLL,4837.5005,N,00850.4910,E,163746.313,A*3D
$GPVTG,81.799103,T,,M,14.766799,N,27.347591,K*61
$GPGSA,A,3,,,,,,,,,,,,,2.0,1.4,,*37
$GPGGA,163753.313,4837.5078,N,00850.5321,E,1,07,1.4,574.4,M,,M,,*4C
$GPRMC,163753.313,A,4837.5078,N,00850.5321,E,14.723815,73.828468,090506,,*04
$GPGLL,4837.5078,N,00850.5321,E,163753.313,A*3A
$GPVTG,73.828468,T,,M,14.723815,N,27.267986,K*62
$GPGSA,A,3,,,,,,,,,,,,,2.0,1.4,,*37
$GPGGA,163800.312,4837.5121,N,00850.5729,E,1,07,1.4,573.5,M,,M,,*43
$GPRMC,163800.312,A,4837.5121,N,00850.5729,E,13.968083,86.912117,090506,,*03
$GPGLL,4837.5121,N,00850.5729,E,163800.312,A*33
$GPVTG,86.912117,T,,M,13.968083,N,25.868399,K*6F
$GPGSA,A,3,,,,,,,,,,,,,1.9,1.3,,*3A
$GPGGA,163808.312,4837.5105,N,00850.6190,E,1,07,1.3,571.5,M,,M,,*4F
$GPRMC,163808.312,A,4837.5105,N,00850.6190,E,13.824662,98.934891,090506,,*06
$GPGLL,4837.5105,N,00850.6190,E,163808.312,A*3A
$GPVTG,98.934891,T,,M,13.824662,N,25.602787,K*6A
$GPGSA,A,3,,,,,,,,,,,,,1.7,1.1,,*36
$GPGGA,163815.311,4837.5032,N,00850.6584,E,1,08,1.1,571.2,M,,M,,*4E
$GPRMC,163815.311,A,4837.5032,N,00850.6584,E,13.944522,106.819687,090506,,*3C
$GPGLL,4837.5032,N,00850.6584,E,163815.311,A*31
$GPVTG,106.819687,T,,M,13.944522,N,25.824764,K*5C
$GPGSA,A,3,,,,,,,,,,,,,1.7,1.1,,*36
$GPGGA,163822.311,4837.4947,N,00850.6982,E,1,08,1.1,572.6,M,,M,,*4D
$GPRMC,163822.311,A,4837.4947,N,00850.6982,E,13.962743,107.006302,090506,,*36
$GPGLL,4837.4947,N,00850.6982,E,163822.311,A*35
$GPVTG,107.006302,T,,M,13.962743,N,25.858507,K*5E
$GPGSA,A,3,,,,,,,,,,,,,1.9,1.3,,*3A
$GPGGA,163830.310,4837.4863,N,00850.7417,E,1,07,1.3,573.1,M,,M,,*43
$GPRMC,163830.310,A,4837.4863,N,00850.7417,E,12.761364,103.231155,090506,,*3C
$GPGLL,4837.4863,N,00850.7417,E,163830.310,A*30
$GPVTG,103.231155,T,,M,12.761364,N,23.633598,K*52
$GPGSA,A,3,,,,,,,,,,,,,1.9,1.3,,*3A
$GPGGA,163838.310,4837.4812,N,00850.7820,E,1,07,1.3,573.8,M,,M,,*4C
$GPRMC,163838.310,A,4837.4812,N,00850.7820,E,11.977300,93.956009,090506,,*08
$GPGLL,4837.4812,N,00850.7820,E,163838.310,A*36
$GPVTG,93.956009,T,,M,11.977300,N,22.181538,K*65
$GPGSA,A,3,,,,,,,,,,,,,1.8,1.2,,*3A
$GPGGA,163847.309,4837.4805,N,00850.8270,E,1,07,1.2,574.6,M,,M,,*42
$GPRMC,163847.309,A,4837.4805,N,00850.8270,E,11.511576,91.056114,090506,,*03
$GPGLL,4837.4805,N,00850.8270,E,163847.309,A*30
$GPVTG,91.056114,T,,M,11.511576,N,21.319033,K*66
$GPGSA,A,3,,,,,,,,,,,,,1.7,1.1,,*36
$GPGGA,163856.309,4837.4805,N,00850.8710,E,1,08,1.1,575.6,M,,M,,*4C
$GPRMC,163856.309,A,4837.4805,N,00850.8710,E,11.577663,87.998207,090506,,*0A
$GPGLL,4837.4805,N,00850.8710,E,163856.309,A*33
$GPVTG,87.998207,T,,M,11.577663,N,21.441423,K*63
$GPGSA,A,3,,,,,,,,,,,,,1.7,1.1,,*36
$GPGGA,163905.308,4837.4819,N,00850.9148,E,1,08,1.1,576.9,M,,M,,*41
$GPRMC,163905.308,A,4837.4819,N,00850.9148,E,11.763551,85.855652,090506,,*08
$GPGLL,4837.4819,N,00850.9148,E,163905.308,A*32
$GPVTG,85.855652,T,,M,11.763551,N,21.785681,K*61
$GPGSA,A,3,,,,,,,,,,,,,1.8,1.2,,*3A
$GPGGA,163914.308,4837.4831,N,00850.9591,E,1,07,1.2,577.7,M,,M,,*48
$GPRMC,163914.308,A,4837.4831,N,00850.9591,E,11.834049,86.732109,090506,,*07
$GPGLL,4837.4831,N,00850.9591,E,163914.308,A*38
$GPVTG,86.732109,T,,M,11.834049,N,21.916243,K*6A
$GPGSA,A,3,,,,,,,,,,,,,1.9,1.3,,*3A
$GPGGA,163923.307,4837.4847,N,00851.0033,E,1,07,1.3,577.3,M,,M,,*42
$GPRMC,163923.307,A,4837.4847,N,00851.0033,E,12.402389,86.072533,090506,,*03
$GPGLL,4837.4847,N,00851.0033,E,163923.307,A*37
$GPVTG,86.072533,T,,M,12.402389,N,22.968786,K*67
$GPGSA,A,3,,,,,,,,,,,,,2.6,1.8,,*3D
$GPGGA,163931.307,4837.4858,N,00851.0457,E,1,06,1.8,576.9,M,,M,,*48
$GPRMC,163931.307,A,4837.4858,N,00851.0457,E,12.504579,86.977295,090506,,*01
$GPGLL,4837.4858,N,00851.0457,E,163931.307,A*3C
$GPVTG,86.977295,T,,M,12.504579,N,23.158041,K*68
$GPGSA,A,3,,,,,,,,,,,,,1.9,1.3,,*3A
$GPGGA,163939.306,4837.4881,N,00851.0885,E,1,07,1.3,576.9,M,,M,,*4C
$GPRMC,163939.306,A,4837.4881,N,00851.0885,E,12.903684,83.143333,090506,,*02
$GPGLL,4837.4881,N,00851.0885,E,163939.306,A*32
$GPVTG,83.143333,T,,M,12.903684,N,23.897167,K*6A
$GPGSA,A,3,,,,,,,,,,,,,1.7,1.1,,*36
$GPGGA,163947.306,4837.4918,N,00851.1305,E,1,08,1.1,577.0,M,,M,,*43
$GPRMC,163947.306,A,4837.4918,N,00851.1305,E,12.799194,78.543816,090506,,*0F
$GPGLL,4837.4918,N,00851.1305,E,163947.306,A*38
$GPVTG,78.543816,T,,M,12.799194,N,23.703657,K*6B
$GPGSA,A,3,,,,,,,,,,,,,1.7,1.1,,*36
$GPGGA,163955.305,4837.4986,N,00851.1714,E,1,08,1.1,577.1,M,,M,,*41
$GPRMC,163955.305,A,4837.4986,N,00851.1714,E,12.238046,72.681900,090506,,*0D
$GPGLL,4837.4986,N,00851.1714,E,163955.305,A*3B
$GPVTG,72.681900,T,,M,12.238046,N,22.664431,K*69
$GPGSA,A,3,,,,,,,,,,,,,1.7,1.1,,*36
$GPGGA,164003.305,4837.5060,N,00851.2109,E,1,08,1.1,576.8,M,,M,,*4D
$GPRMC,164003.305,A,4837.5060,N,00851.2109,E,12.629573,74.085724,090506,,*02
$GPGLL,4837.5060,N,00851.2109,E,164003.305,A*3F
$GPVTG,74.085724,T,,M,12.629573,N,23.389524,K*60
$GPGSA,A,3,,,,,,,,,,,,,1.7,1.1,,*36
$GPGGA,164011.304,4837.5128,N,00851.2512,E,1,08,1.1,576.0,M,,M,,*44
$GPRMC,164011.304,A,4837.5128,N,00851.2512,E,12.566856,77.747604,090506,,*08
$GPGLL,4837.5128,N,00851.2512,E,164011.304,A*3E
$GPVTG,77.747604,T,,M,12.566856,N,23.273375,K*6D
$GPGSA,A,3,,,,,,,,,,,,,1.7,1.1,,*36
$GPGGA,164019.304,4837.5188,N,00851.2957,E,1,08,1.1,576.9,M,,M,,*42
$GPRMC,164019.304,A,4837.5188,N,00851.2957,E,14.425040,78.410515,090506,,*05
$GPGLL,4837.5188,N,00851.2957,E,164019.304,A*31
$GPVTG,78.410515,T,,M,14.425040,N,26.714666,K*69
$GPGSA,A,3,,,,,,,,,,,,,1.7,1.1,,*36
$GPGGA,164026.303,4837.5229,N,00851.3392,E,1,08,1.1,575.9,M,,M,,*40
$GPRMC,164026.303,A,4837.5229,N,00851.3392,E,15.693536,85.417229,090506,,*03
$GPGLL,4837.5229,N,00851.3392,E,164026.303,A*30
$GPVTG,85.417229,T,,M,15.693536,N,29.063877,K*68
$GPGSA,A,3,,,,,,,,,,,,,1.7,1.1,,*36
$GPGGA,164032.303,4837.5238,N,00851.3808,E,1,08,1.1,573.6,M,,M,,*44
$GPRMC,164032.303,A,4837.5238,N,00851.3808,E,17.522206,88.636421,090506,,*03
$GPGLL,4837.5238,N,00851.3808,E,164032.303,A*3D
$GPVTG,88.636421,T,,M,17.522206,N,32.450508,K*6E
$GPGSA,A,3,,,,,,,,,,,,,1.7,1.1,,*36
$GPGGA,164038.302,4837.5231,N,00851.4269,E,1,08,1.1,571.9,M,,M,,*41
$GPRMC,164038.302,A,4837.5231,N,00851.4269,E,18.841891,94.054893,090506,,*02
$GPGLL,4837.5231,N,00851.4269,E,164038.302,A*35
$GPVTG,94.054893,T,,M,18.841891,N,34.894520,K*6F
$GPGSA,A,3,,,,,,,,,,,,,1.9,1.3,,*3A
$GPGGA,164043.302,4837.5185,N,00851.4674,E,1,07,1.3,569.6,M,,M,,*42
$GPRMC,164043.302,A,4837.5185,N,00851.4674,E,19.829116,104.003891,090506,,*3B
$GPGLL,4837.5185,N,00851.4674,E,164043.302,A*3D
$GPVTG,104.003891,T,,M,19.829116,N,36.722824,K*57
$GPGSA,A,3,,,,,,,,,,,,,2.3,1.5,,*35
$GPGGA,164048.302,4837.5108,N,00851.5077,E,1,06,1.5,564.8,M,,M,,*4C
$GPRMC,164048.302,A,4837.5108,N,00851.5077,E,20.725701,105.086426,090506,,*34
$GPGLL,4837.5108,N,00851.5077,E,164048.302,A*37
$GPVTG,105.086426,T,,M,20.725701,N,38.383270,K*58
$GPGSA,A,3,,,,,,,,,,,,,1.9,1.3,,*3A
$GPGGA,164053.301,4837.5055,N,00851.5513,E,1,07,1.3,562.5,M,,M,,*47
$GPRMC,164053.301,A,4837.5055,N,00851.5513,E,20.866255,96.526619,090506,,*05
$GPGLL,4837.5055,N,00851.5513,E,164053.301,A*30
$GPVTG,96.526619,T,,M,20.866255,N,38.643570,K*60
$GPGSA,A,3,,,,,,,,,,,,,1.9,1.3,,*3A
$GPGGA,164058.301,4837.5021,N,00851.5952,E,1,07,1.3,560.8,M,,M,,*49
$GPRMC,164058.301,A,4837.5021,N,00851.5952,E,20.625491,95.305336,090506,,*0F
$GPGLL,4837.5021,N,00851.5952,E,164058.301,A*31
$GPVTG,95.305336,T,,M,20.625491,N,38.197685,K*6C
$GPGSA,A,3,,,,,,,,,,,,,2.6,1.8,,*3D
$GPGGA,164103.301,4837.5002,N,00851.6379,E,1,06,1.8,560.8,M,,M,,*4D
$GPRMC,164103.301,A,4837.5002,N,00851.6379,E,19.623405,92.713356,090506,,*02
$GPGLL,4837.5002,N,00851.6379,E,164103.301,A*3F
$GPVTG,92.713356,T,,M,19.623405,N,36.341854,K*6A
$GPGSA,A,3,,,,,,,,,,,,,1.9,1.3,,*3A
$GPGGA,164109.301,4837.4991,N,00851.6859,E,1,07,1.3,561.3,M,,M,,*4C
$GPRMC,164109.301,A,4837.4991,N,00851.6859,E,18.551583,89.662819,090506,,*06
$GPGLL,4837.4991,N,00851.6859,E,164109.301,A*3E
$GPVTG,89.662819,T,,M,18.551583,N,34.356880,K*62
$GPGSA,A,3,,,,,,,,,,,,,2.6,1.8,,*3D
$GPGGA,164115.300,4837.4984,N,00851.7322,E,1,06,1.8,561.6,M,,M,,*4D
$GPRMC,164115.300,A,4837.4984,N,00851.7322,E,17.975841,90.106827,090506,,*0E
$GPGLL,4837.4984,N,00851.7322,E,164115.300,A*30
$GPVTG,90.106827,T,,M,17.975841,N,33.290627,K*6B
$GPGSA,A,3,,,,,,,,,,,,,1.7,1.1,,*36
$GPGGA,164121.300,4837.4979,N,00851.7771,E,1,08,1.1,561.6,M,,M,,*4D
$GPRMC,164121.300,A,4837.4979,N,00851.7771,E,17.517490,89.289948,090506,,*05
$GPGLL,4837.4979,N,00851.7771,E,164121.300,A*37
$GPVTG,89.289948,T,,M,17.517490,N,32.441776,K*69
$GPGSA,A,3,,,,,,,,,,,,,2.6,1.8,,*3D
$GPGGA,164127.299,4837.4963,N,00851.8218,E,1,06,1.8,562.8,M,,M,,*4E
$GPRMC,164127.299,A,4837.4963,N,00851.8218,E,17.669284,93.976082,090506,,*0A
$GPGLL,4837.4963,N,00851.8218,E,164127.299,A*3E
$GPVTG,93.976082,T,,M,17.669284,N,32.722893,K*6D
$GPGSA,A,3,,,,,,,,,,,,,1.9,1.3,,*3A
$GPGGA,164133.299,4837.4947,N,00851.8662,E,1,07,1.3,560.1,M,,M,,*45
$GPRMC,164133.299,A,4837.4947,N,00851.8662,E,17.869278,86.830475,090506,,*06
$GPGLL,4837.4947,N,00851.8662,E,164133.299,A*34
$GPVTG,86.830475,T,,M,17.869278,N,33.093273,K*63
$GPGSA,A,3,,,,,,,,,,,,,1.9,1.3,,*3A
$GPGGA,164139.299,4837.5007,N,00851.9095,E,1,07,1.3,557.5,M,,M,,*4C
$GPRMC,164139.299,A,4837.5007,N,00851.9095,E,18.201168,81.626511,090506,,*0B
$GPGLL,4837.5007,N,00851.9095,E,164139.299,A*3D
$GPVTG,81.626511,T,,M,18.201168,N,33.707920,K*60
$GPGSA,A,3,,,,,,,,,,,,,1.7,1.1,,*36
$GPGGA,164145.298,4837.5057,N,00851.9537,E,1,08,1.1,555.2,M,,M,,*46
$GPRMC,164145.298,A,4837.5057,N,00851.9537,E,18.202271,81.463051,090506,,*03
$GPGLL,4837.5057,N,00851.9537,E,164145.298,A*3F
$GPVTG,81.463051,T,,M,18.202271,N,33.709965,K*65
$GPGSA,A,3,,,,,,,,,,,,,1.9,1.3,,*3A
$GPGGA,164151.298,4837.5066,N,00851.9993,E,1,07,1.3,552.3,M,,M,,*48
$GPRMC,164151.298,A,4837.5066,N,00851.9993,E,18.012650,93.389191,090506,,*0F
$GPGLL,4837.5066,N,00851.9993,E,164151.298,A*3A
$GPVTG,93.389191,T,,M,18.012650,N,33.358791,K*69
$GPGSA,A,3,,,,,,,,,,,,,2.6,1.8,,*3D
$GPGGA,164157.298,4837.5048,N,00852.0445,E,1,06,1.8,550.3,M,,M,,*46
$GPRMC,164157.298,A,4837.5048,N,00852.0445,E,18.217192,93.367874,090506,,*05
$GPGLL,4837.5048,N,00852.0445,E,164157.298,A*3C
$GPVTG,93.367874,T,,M,18.217192,N,33.737598,K*63
$GPGSA,A,3,,,,,,,,,,,,,1.8,1.2,,*3A
$GPGGA,164203.297,4837.5032,N,00852.0908,E,1,07,1.2,550.3,M,,M,,*49
$GPRMC,164203.297,A,4837.5032,N,00852.0908,E,18.066030,91.546906,090506,,*0F
$GPGLL,4837.5032,N,00852.0908,E,164203.297,A*38
$GPVTG,91.546906,T,,M,18.066030,N,33.457653,K*6C
$GPGSA,A,3,,,,,,,,,,,,,1.9,1.3,,*3A
$GPGGA,164209.297,4837.5018,N,00852.1377,E,1,07,1.3,550.6,M,,M,,*4C
$GPRMC,164209.297,A,4837.5018,N,00852.1377,E,18.840700,93.087624,090506,,*03
$GPGLL,4837.5018,N,00852.1377,E,164209.297,A*39
$GPVTG,93.087624,T,,M,18.840700,N,34.892311,K*60
$GPGSA,A,3,,,,,,,,,,,,,1.9,1.3,,*3A
$GPGGA,164215.296,4837.4979,N,00852.1856,E,1,07,1.3,549.0,M,,M,,*49
$GPRMC,164215.296,A,4837.4979,N,00852.1856,E,18.536221,96.759880,090506,,*03
$GPGLL,4837.4979,N,00852.1856,E,164215.296,A*32
$GPVTG,96.759880,T,,M,18.536221,N,34.328430,K*65
$GPGSA,A,3,,,,,,,,,,,,,1.9,1.3,,*3A
$GPGGA,164221.296,4837.4938,N,00852.2315,E,1,07,1.3,547.0,M,,M,,*4A
$GPRMC,164221.296,A,4837.4938,N,00852.2315,E,18.114946,98.419861,090506,,*06
$GPGLL,4837.4938,N,00852.2315,E,164221.296,A*3F
$GPVTG,98.419861,T,,M,18.114946,N,33.548241,K*6A
$GPGSA,A,3,,,,,,,,,,,,,2.6,1.8,,*3D
$GPGGA,164227.296,4837.4902,N,00852.2760,E,1,06,1.8,546.7,M,,M,,*4F
$GPRMC,164227.296,A,4837.4902,N,00852.2760,E,17.288310,93.821243,090506,,*09
$GPGLL,4837.4902,N,00852.2760,E,164227.296,A*36
$GPVTG,93.821243,T,,M,17.288310,N,32.017342,K*60
$GPGSA,A,3,,,,,,,,,,,,,2.6,1.8,,*3D
$GPGGA,164233.295,4837.4883,N,00852.3183,E,1,06,1.8,545.5,M,,M,,*4A
$GPRMC,164233.295,A,4837.4883,N,00852.3183,E,16.574756,91.566185,090506,,*0B
$GPGLL,4837.4883,N,00852.3183,E,164233.295,A*32
$GPVTG,91.566185,T,,M,16.574756,N,30.695866,K*65
$GPGSA,A,3,,,,,,,,,,,,,1.8,1.2,,*3A
$GPGGA,164240.295,4837.4874,N,00852.3629,E,1,07,1.2,543.2,M,,M,,*4B
$GPRMC,164240.295,A,4837.4874,N,00852.3629,E,14.741130,93.073639,090506,,*03
$GPGLL,4837.4874,N,00852.3629,E,164240.295,A*39
$GPVTG,93.073639,T,,M,14.741130,N,27.300055,K*61
$GPGSA,A,3,,,,,,,,,,,,,1.7,1.1,,*36
$GPGGA,164247.295,4837.4870,N,00852.4086,E,1,08,1.1,541.4,M,,M,,*44
$GPRMC,164247.295,A,4837.4870,N,00852.4086,E,15.883294,87.745071,090506,,*04
$GPGLL,4837.4870,N,00852.4086,E,164247.295,A*3E
$GPVTG,87.745071,T,,M,15.883294,N,29.415300,K*6F
$GPGSA,A,3,,,,,,,,,,,,,1.7,1.1,,*36
$GPGGA,164254.294,4837.4874,N,00852.4519,E,1,08,1.1,540.2,M,,M,,*47
$GPRMC,164254.294,A,4837.4874,N,00852.4519,E,14.216520,89.093483,090506,,*04
$GPGLL,4837.4874,N,00852.4519,E,164254.294,A*3A
$GPVTG,89.093483,T,,M,14.216520,N,26.328495,K*66
$GPGSA,A,3,,,,,,,,,,,,,1.7,1.1,,*36
$GPGGA,164301.294,4837.4881,N,00852.4940,E,1,08,1.1,540.4,M,,M,,*4A
$GPRMC,164301.294,A,4837.4881,N,00852.4940,E,14.925271,88.742828,090506,,*00
$GPGLL,4837.4881,N,00852.4940,E,164301.294,A*31
$GPVTG,88.742828,T,,M,14.925271,N,27.641077,K*6A
$GPGSA,A,3,,,,,,,,,,,,,1.7,1.1,,*36
$GPGGA,164308.293,4837.4886,N,00852.5370,E,1,08,1.1,539.5,M,,M,,*44
$GPRMC,164308.293,A,4837.4886,N,00852.5370,E,14.475067,87.931236,090506,,*0C
$GPGLL,4837.4886,N,00852.5370,E,164308.293,A*30
$GPVTG,87.931236,T,,M,14.475067,N,26.807314,K*6C
$GPGSA,A,3,,,,,,,,,,,,,1.7,1.1,,*36
$GPGGA,164315.293,4837.4892,N,00852.5798,E,1,08,1.1,538.6,M,,M,,*4D
$GPRMC,164315.293,A,4837.4892,N,00852.5798,E,14.934337,88.262115,090506,,*09
$GPGLL,4837.4892,N,00852.5798,E,164315.293,A*3B
$GPVTG,88.262115,T,,M,14.934337,N,27.657867,K*67
$GPGSA,A,3,,,,,,,,,,,,,1.7,1.1,,*36
$GPGGA,164322.292,4837.4897,N,00852.6223,E,1,08,1.1,537.2,M,,M,,*40
$GPRMC,164322.292,A,4837.4897,N,00852.6223,E,14.696595,88.084213,090506,,*09
$GPGLL,4837.4897,N,00852.6223,E,164322.292,A*3D
$GPVTG,88.084213,T,,M,14.696595,N,27.217577,K*6D
$GPGSA,A,3,,,,,,,,,,,,,1.7,1.1,,*36
$GPGGA,164329.292,4837.4904,N,00852.6672,E,1,08,1.1,537.6,M,,M,,*44
$GPRMC,164329.292,A,4837.4904,N,00852.6672,E,15.540657,89.436874,090506,,*0A
$GPGLL,4837.4904,N,00852.6672,E,164329.292,A*3D
$GPVTG,89.436874,T,,M,15.540657,N,28.780750,K*6D
$GPGSA,A,3,,,,,,,,,,,,,1.7,1.1,,*36
$GPGGA,164336.292,4837.4906,N,00852.7118,E,1,08,1.1,536.5,M,,M,,*40
$GPRMC,164336.292,A,4837.4906,N,00852.7118,E,14.797284,89.111992,090506,,*06
$GPGLL,4837.4906,N,00852.7118,E,164336.292,A*3B
$GPVTG,89.111992,T,,M,14.797284,N,27.404049,K*68
$GPGSA,A,3,,,,,,,,,,,,,1.7,1.1,,*36
$GPGGA,164342.291,4837.4911,N,00852.7564,E,1,08,1.1,536.4,M,,M,,*48
$GPRMC,164342.291,A,4837.4911,N,00852.7564,E,15.903253,89.244354,090506,,*04
$GPGLL,4837.4911,N,00852.7564,E,164342.291,A*32
$GPVTG,89.244354,T,,M,15.903253,N,29.452265,K*62
$GPGSA,A,3,,,,,,,,,,,,,2.0,1.5,,*36
$GPGGA,164349.291,4837.4915,N,00852.8035,E,1,07,1.5,533.4,M,,M,,*47
$GPRMC,164349.291,A,4837.4915,N,00852.8035,E,16.108864,88.306747,090506,,*0B
$GPGLL,4837.4915,N,00852.8035,E,164349.291,A*33
$GPVTG,88.306747,T,,M,16.108864,N,29.833050,K*63
$GPGSA,A,3,,,,,,,,,,,,,2.0,1.5,,*36
$GPGGA,164356.290,4837.4920,N,00852.8502,E,1,07,1.5,529.2,M,,M,,*42
$GPRMC,164356.290,A,4837.4920,N,00852.8502,E,15.973775,90.478218,090506,,*03
$GPGLL,4837.4920,N,00852.8502,E,164356.290,A*3B
$GPVTG,90.478218,T,,M,15.973775,N,29.582869,K*66
$GPGSA,A,3,,,,,,,,,,,,,2.0,1.5,,*36
$GPGGA,164403.290,4837.4922,N,00852.8963,E,1,07,1.5,526.0,M,,M,,*41
$GPRMC,164403.290,A,4837.4922,N,00852.8963,E,15.055405,89.844574,090506,,*02
$GPGLL,4837.4922,N,00852.8963,E,164403.290,A*35
$GPVTG,89.844574,T,,M,15.055405,N,27.882080,K*65
$GPGSA,A,3,,,,,,,,,,,,,1.7,1.1,,*36
$GPGGA,164410.289,4837.4924,N,00852.9400,E,1,08,1.1,524.7,M,,M,,*4A
$GPRMC,164410.289,A,4837.4924,N,00852.9400,E,14.894061,87.672249,090506,,*09
$GPGLL,4837.4924,N,00852.9400,E,164410.289,A*30
$GPVTG,87.672249,T,,M,14.894061,N,27.583277,K*6D
$GPGSA,A,3,,,,,,,,,,,,,2.0,1.5,,*36
$GPGGA,164417.289,4837.4931,N,00852.9851,E,1,07,1.5,524.2,M,,M,,*4F
$GPRMC,164417.289,A,4837.4931,N,00852.9851,E,15.348145,89.533455,090506,,*0D
$GPGLL,4837.4931,N,00852.9851,E,164417.289,A*3B
$GPVTG,89.533455,T,,M,15.348145,N,28.424225,K*66
$GPGSA,A,3,,,,,,,,,,,,,2.0,1.5,,*36
$GPGGA,164424.289,4837.4936,N,00853.0284,E,1,07,1.5,522.5,M,,M,,*43
$GPRMC,164424.289,A,4837.4936,N,00853.0284,E,14.597188,88.225235,090506,,*05
$GPGLL,4837.4936,N,00853.0284,E,164424.289,A*36
$GPVTG,88.225235,T,,M,14.597188,N,27.033478,K*60
$GPGSA,A,3,,,,,,,,,,,,,2.3,1.5,,*35
$GPGGA,164431.288,4837.4936,N,00853.0722,E,1,06,1.5,522.7,M,,M,,*4C
$GPRMC,164431.288,A,4837.4936,N,00853.0722,E,15.144631,91.726402,090506,,*0B
$GPGLL,4837.4936,N,00853.0722,E,164431.288,A*3A
$GPVTG,91.726402,T,,M,15.144631,N,28.047325,K*61
$GPGSA,A,3,,,,,,,,,,,,,1.7,1.1,,*36
$GPGGA,164438.288,4837.4943,N,00853.1172,E,1,08,1.1,522.0,M,,M,,*48
$GPRMC,164438.288,A,4837.4943,N,00853.1172,E,15.555184,87.362892,090506,,*09
$GPGLL,4837.4943,N,00853.1172,E,164438.288,A*33
$GPVTG,87.362892,T,,M,15.555184,N,28.807652,K*63
$GPGSA,A,3,,,,,,,,,,,,,2.0,1.5,,*36
$GPGGA,164445.287,4837.4952,N,00853.1640,E,1,07,1.5,521.7,M,,M,,*44
$GPRMC,164445.287,A,4837.4952,N,00853.1640,E,15.718188,89.588356,090506,,*02
$GPGLL,4837.4952,N,00853.1640,E,164445.287,A*30
$GPVTG,89.588356,T,,M,15.718188,N,29.109531,K*6B
$GPGSA,A,3,,,,,,,,,,,,,2.0,1.5,,*36
$GPGGA,164452.287,4837.4959,N,00853.2103,E,1,07,1.5,519.9,M,,M,,*4F
$GPRMC,164452.287,A,4837.4959,N,00853.2103,E,15.164154,89.117188,090506,,*03
$GPGLL,4837.4959,N,00853.2103,E,164452.287,A*3E
$GPVTG,89.117188,T,,M,15.164154,N,28.083479,K*6B
$GPGSA,A,3,,,,,,,,,,,,,1.7,1.1,,*36
$GPGGA,164502.286,4837.4966,N,00853.2512,E,1,08,1.1,517.2,M,,M,,*4C
$GPRMC,164502.286,A,4837.4966,N,00853.2512,E,9.368608,84.679710,090506,,*36
$GPGLL,4837.4966,N,00853.2512,E,164502.286,A*33
$GPVTG,84.679710,T,,M,9.368608,N,17.350332,K*5A
$GPGSA,A,3,,,,,,,,,,,,,2.0,1.5,,*36
$GPGGA,164512.286,4837.4970,N,00853.2962,E,1,07,1.5,519.3,M,,M,,*45
$GPRMC,164512.286,A,4837.4970,N,00853.2962,E,12.745639,89.713730,090506,,*0A
$GPGLL,4837.4970,N,00853.2962,E,164512.286,A*3E
$GPVTG,89.713730,T,,M,12.745639,N,23.604475,K*6C
$GPGSA,A,3,,,,,,,,,,,,,2.0,1.5,,*36
$GPGGA,164520.285,4837.4975,N,00853.3409,E,1,07,1.5,517.8,M,,M,,*46
$GPRMC,164520.285,A,4837.4975,N,00853.3409,E,11.612215,87.903770,090506,,*03
$GPGLL,4837.4975,N,00853.3409,E,164520.285,A*38
$GPVTG,87.903770,T,,M,11.612215,N,21.505415,K*65
$GPGSA,A,3,,,,,,,,,,,,,2.0,1.5,,*36
$GPGGA,164530.284,4837.4979,N,00853.3870,E,1,07,1.5,516.3,M,,M,,*42
$GPRMC,164530.284,A,4837.4979,N,00853.3870,E,13.415974,88.058487,090506,,*05
$GPGLL,4837.4979,N,00853.3870,E,164530.284,A*36
$GPVTG,88.058487,T,,M,13.415974,N,24.845913,K*6A
$GPGSA,A,3,,,,,,,,,,,,,2.0,1.5,,*36
$GPGGA,164538.284,4837.4984,N,00853.4328,E,1,07,1.5,514.5,M,,M,,*4D
$GPRMC,164538.284,A,4837.4984,N,00853.4328,E,13.964697,92.796272,090506,,*05
$GPGLL,4837.4984,N,00853.4328,E,164538.284,A*3D
$GPVTG,92.796272,T,,M,13.964697,N,25.862127,K*6A
$GPGSA,A,3,,,,,,,,,,,,,2.0,1.5,,*36
$GPGGA,164546.283,4837.4982,N,00853.4790,E,1,07,1.5,513.3,M,,M,,*43
$GPRMC,164546.283,A,4837.4982,N,00853.4790,E,13.073821,85.903206,090506,,*01
$GPGLL,4837.4982,N,00853.4790,E,164546.283,A*32
$GPVTG,85.903206,T,,M,13.073821,N,24.212255,K*6B
$GPGSA,A,3,,,,,,,,,,,,,2.0,1.5,,*36
$GPGGA,164554.283,4837.4993,N,00853.5251,E,1,07,1.5,511.5,M,,M,,*4D
$GPRMC,164554.283,A,4837.4993,N,00853.5251,E,14.202666,90.467827,090506,,*07
$GPGLL,4837.4993,N,00853.5251,E,164554.283,A*38
$GPVTG,90.467827,T,,M,14.202666,N,26.302837,K*6B
$GPGSA,A,3,,,,,,,,,,,,,2.0,1.5,,*36
$GPGGA,164601.283,4837.4998,N,00853.5670,E,1,07,1.5,511.2,M,,M,,*45
$GPRMC,164601.283,A,4837.4998,N,00853.5670,E,14.533184,88.981941,090506,,*0B
$GPGLL,4837.4998,N,00853.5670,E,164601.283,A*37
$GPVTG,88.981941,T,,M,14.533184,N,26.914946,K*62
$GPGSA,A,3,,,,,,,,,,,,,2.0,1.5,,*36
$GPGGA,164608.282,4837.4993,N,00853.6104,E,1,07,1.5,509.4,M,,M,,*4E
$GPRMC,164608.282,A,4837.4993,N,00853.6104,E,15.175688,91.614380,090506,,*0F
$GPGLL,4837.4993,N,00853.6104,E,164608.282,A*33
$GPVTG,91.614380,T,,M,15.175688,N,28.104839,K*6C
$GPGSA,A,3,,,,,,,,,,,,,2.0,1.5,,*36
$GPGGA,164615.282,4837.5007,N,00853.6513,E,1,07,1.5,508.6,M,,M,,*46
$GPRMC,164615.282,A,4837.5007,N,00853.6513,E,9.883226,94.568825,090506,,*30
$GPGLL,4837.5007,N,00853.6513,E,164615.282,A*38
$GPVTG,94.568825,T,,M,9.883226,N,18.303387,K*50
$GPGSA,A,3,,,,,,,,,,,,,2.0,1.5,,*36
$GPGGA,164627.281,4837.4725,N,00853.6452,E,1,07,1.5,506.9,M,,M,,*47
$GPRMC,164627.281,A,4837.4725,N,00853.6452,E,7.439482,199.133987,090506,,*04
$GPGLL,4837.4725,N,00853.6452,E,164627.281,A*38
$GPVTG,199.133987,T,,M,7.439482,N,13.777658,K*6F
$GPGSA,A,3,,,,,,,,,,,,,2.8,1.7,,*3C
$GPGGA,164653.279,4837.4483,N,00853.6644,E,1,06,1.7,507.2,M,,M,,*40
$GPRMC,164653.279,A,4837.4483,N,00853.6644,E,5.529799,167.728928,090506,,*09
$GPGLL,4837.4483,N,00853.6644,E,164653.279,A*36
$GPVTG,167.728928,T,,M,5.529799,N,10.240993,K*66
$GPGSA,A,3,,,,,,,,,,,,,2.0,1.5,,*36
$GPGGA,164711.278,4837.4277,N,00853.6941,E,1,07,1.5,502.8,M,,M,,*4D
$GPRMC,164711.278,A,4837.4277,N,00853.6941,E,11.392970,100.898537,090506,,*35
$GPGLL,4837.4277,N,00853.6941,E,164711.278,A*37
$GPVTG,100.898537,T,,M,11.392970,N,21.099379,K*51
$GPGSA,A,3,,,,,,,,,,,,,2.0,1.5,,*36
$GPGGA,164720.278,4837.4215,N,00853.7376,E,1,07,1.5,501.6,M,,M,,*49
$GPRMC,164720.278,A,4837.4215,N,00853.7376,E,11.576480,96.438065,090506,,*08
$GPGLL,4837.4215,N,00853.7376,E,164720.278,A*3E
$GPVTG,96.438065,T,,M,11.576480,N,21.439234,K*63
$GPGSA,A,3,,,,,,,,,,,,,2.0,1.5,,*36
$GPGGA,164729.277,4837.4222,N,00853.7793,E,1,07,1.5,501.8,M,,M,,*4A
$GPRMC,164729.277,A,4837.4222,N,00853.7793,E,10.170184,82.134483,090506,,*07
$GPGLL,4837.4222,N,00853.7793,E,164729.277,A*33
$GPVTG,82.134483,T,,M,10.170184,N,18.834822,K*67
$GPGSA,A,3,,,,,,,,,,,,,2.3,1.5,,*35
$GPGGA,164909.271,4837.4233,N,00853.8212,E,1,06,1.5,504.5,M,,M,,*4A
$GPRMC,164909.271,A,4837.4233,N,00853.8212,E,8.713761,97.069107,090506,,*3D
$GPGLL,4837.4233,N,00853.8212,E,164909.271,A*3A
$GPVTG,97.069107,T,,M,8.713761,N,16.137579,K*53
$GPGSA,A,3,,,,,,,,,,,,,2.0,1.5,,*36
$GPGGA,164918.270,4837.4286,N,00853.8620,E,1,07,1.5,501.0,M,,M,,*41
$GPRMC,164918.270,A,4837.4286,N,00853.8620,E,12.310067,80.035255,090506,,*01
$GPGLL,4837.4286,N,00853.8620,E,164918.270,A*30
$GPVTG,80.035255,T,,M,12.310067,N,22.797810,K*6C
$GPGSA,A,3,,,,,,,,,,,,,2.0,1.5,,*36
$GPGGA,164926.270,4837.4339,N,00853.9045,E,1,07,1.5,500.2,M,,M,,*4E
$GPRMC,164926.270,A,4837.4339,N,00853.9045,E,13.415833,80.889191,090506,,*03
$GPGLL,4837.4339,N,00853.9045,E,164926.270,A*3C
$GPVTG,80.889191,T,,M,13.415833,N,24.845650,K*6E
$GPGSA,A,3,,,,,,,,,,,,,2.0,1.5,,*36
$GPGGA,164934.270,4837.4396,N,00853.9505,E,1,07,1.5,499.6,M,,M,,*4C
$GPRMC,164934.270,A,4837.4396,N,00853.9505,E,14.119702,80.893227,090506,,*02
$GPGLL,4837.4396,N,00853.9505,E,164934.270,A*3B
$GPVTG,80.893227,T,,M,14.119702,N,26.149191,K*65
$GPGSA,A,3,,,,,,,,,,,,,2.0,1.5,,*36
$GPGGA,164941.269,4837.4448,N,00853.9917,E,1,07,1.5,499.2,M,,M,,*49
$GPRMC,164941.269,A,4837.4448,N,00853.9917,E,14.440630,80.133362,090506,,*09
$GPGLL,4837.4448,N,00853.9917,E,164941.269,A*3A
$GPVTG,80.133362,T,,M,14.440630,N,26.743540,K*6B
$GPGSA,A,3,,,,,,,,,,,,,2.0,1.5,,*36
$GPGGA,164948.269,4837.4501,N,00854.0332,E,1,07,1.5,499.1,M,,M,,*4C
$GPRMC,164948.269,A,4837.4501,N,00854.0332,E,14.519737,79.757805,090506,,*0C
$GPGLL,4837.4501,N,00854.0332,E,164948.269,A*3C
$GPVTG,79.757805,T,,M,14.519737,N,26.890041,K*6D
$GPGSA,A,3,,,,,,,,,,,,,2.0,1.5,,*36
$GPGGA,164955.268,4837.4551,N,00854.0735,E,1,07,1.5,498.2,M,,M,,*45
$GPRMC,164955.268,A,4837.4551,N,00854.0735,E,13.702729,80.940231,090506,,*04
$GPGLL,4837.4551,N,00854.0735,E,164955.268,A*37
$GPVTG,80.940231,T,,M,13.702729,N,25.376972,K*67
$GPGSA,A,3,,,,,,,,,,,,,2.0,1.5,,*36
$GPGGA,165003.268,4837.4615,N,00854.1183,E,1,07,1.5,498.6,M,,M,,*43
$GPRMC,165003.268,A,4837.4615,N,00854.1183,E,13.862543,74.559662,090506,,*0C
$GPGLL,4837.4615,N,00854.1183,E,165003.268,A*35
$GPVTG,74.559662,T,,M,13.862543,N,25.672941,K*6C
$GPGSA,A,3,,,,,,,,,,,,,2.0,1.5,,*36
$GPGGA,165011.267,4837.4700,N,00854.1629,E,1,07,1.5,498.7,M,,M,,*4C
$GPRMC,165011.267,A,4837.4700,N,00854.1629,E,13.895861,74.720680,090506,,*07
$GPGLL,4837.4700,N,00854.1629,E,165011.267,A*3B
$GPVTG,74.720680,T,,M,13.895861,N,25.734644,K*60
$GPGSA,A,3,,,,,,,,,,,,,2.0,1.5,,*36
$GPGGA,165018.267,4837.4773,N,00854.2037,E,1,07,1.5,499.1,M,,M,,*4C
$GPRMC,165018.267,A,4837.4773,N,00854.2037,E,14.590094,74.556396,090506,,*0C
$GPGLL,4837.4773,N,00854.2037,E,165018.267,A*3C
$GPVTG,74.556396,T,,M,14.590094,N,27.020340,K*6D
$GPGSA,A,3,,,,,,,,,,,,,2.0,1.5,,*36
$GPGGA,165025.266,4837.4854,N,00854.2452,E,1,07,1.5,498.8,M,,M,,*46
$GPRMC,165025.266,A,4837.4854,N,00854.2452,E,14.734103,69.956566,090506,,*04
$GPGLL,4837.4854,N,00854.2452,E,165025.266,A*3E
$GPVTG,69.956566,T,,M,14.734103,N,27.287041,K*6A
$GPGSA,A,3,,,,,,,,,,,,,2.0,1.5,,*36
$GPGGA,165032.266,4837.4973,N,00854.2844,E,1,07,1.5,497.9,M,,M,,*41
$GPRMC,165032.266,A,4837.4973,N,00854.2844,E,14.737857,66.618347,090506,,*09
$GPGLL,4837.4973,N,00854.2844,E,165032.266,A*37
$GPVTG,66.618347,T,,M,14.737857,N,27.293993,K*6D
$GPGSA,A,3,,,,,,,,,,,,,2.0,1.5,,*36
$GPGGA,165039.266,4837.5089,N,00854.3239,E,1,07,1.5,498.4,M,,M,,*44
$GPRMC,165039.266,A,4837.5089,N,00854.3239,E,14.832462,66.776688,090506,,*01
$GPGLL,4837.5089,N,00854.3239,E,165039.266,A*30
$GPVTG,66.776688,T,,M,14.832462,N,27.469196,K*6C
$GPGSA,A,3,,,,,,,,,,,,,2.0,1.5,,*36
$GPGGA,165046.265,4837.5220,N,00854.3619,E,1,07,1.5,498.1,M,,M,,*4D
$GPRMC,165046.265,A,4837.5220,N,00854.3619,E,14.778339,60.669846,090506,,*00
$GPGLL,4837.5220,N,00854.3619,E,165046.265,A*3C
$GPVTG,60.669846,T,,M,14.778339,N,27.368963,K*65
$GPGSA,A,3,,,,,,,,,,,,,2.0,1.5,,*36
$GPGGA,165053.265,4837.5368,N,00854.3988,E,1,07,1.5,498.0,M,,M,,*42
$GPRMC,165053.265,A,4837.5368,N,00854.3988,E,14.895116,59.599648,090506,,*0B
$GPGLL,4837.5368,N,00854.3988,E,165053.265,A*32
$GPVTG,59.599648,T,,M,14.895116,N,27.585230,K*68
$GPGSA,A,3,,,,,,,,,,,,,2.0,1.5,,*36
$GPGGA,165100.264,4837.5515,N,00854.4363,E,1,07,1.5,497.7,M,,M,,*48
$GPRMC,165100.264,A,4837.5515,N,00854.4363,E,14.689306,57.538704,090506,,*05
$GPGLL,4837.5515,N,00854.4363,E,165100.264,A*30
$GPVTG,57.538704,T,,M,14.689306,N,27.204079,K*65
$GPGSA,A,3,,,,,,,,,,,,,2.0,1.5,,*36
$GPGGA,165117.263,4837.5261,N,00854.4583,E,1,07,1.5,496.6,M,,M,,*45
$GPRMC,165117.263,A,4837.5261,N,00854.4583,E,12.762639,191.888855,090506,,*35
$GPGLL,4837.5261,N,00854.4583,E,165117.263,A*3D
$GPVTG,191.888855,T,,M,12.762639,N,23.635960,K*5B
$GPGSA,A,3,,,,,,,,,,,,,2.0,1.5,,*36
$GPGGA,165125.263,4837.4989,N,00854.4493,E,1,07,1.5,497.6,M,,M,,*49
$GPRMC,165125.263,A,4837.4989,N,00854.4493,E,11.819374,187.756348,090506,,*38
$GPGLL,4837.4989,N,00854.4493,E,165125.263,A*30
$GPVTG,187.756348,T,,M,11.819374,N,21.889065,K*5C
$GPGSA,A,3,,,,,,,,,,,,,2.0,1.5,,*36
$GPGGA,165134.262,4837.4686,N,00854.4505,E,1,07,1.5,497.9,M,,M,,*49
$GPRMC,165134.262,A,4837.4686,N,00854.4505,E,12.519451,169.499222,090506,,*34
$GPGLL,4837.4686,N,00854.4505,E,165134.262,A*3F
$GPVTG,169.499222,T,,M,12.519451,N,23.185581,K*57
$GPGSA,A,3,,,,,,,,,,,,,2.0,1.5,,*36
$GPGGA,165142.262,4837.4396,N,00854.4597,E,1,07,1.5,497.3,M,,M,,*4D
$GPRMC,165142.262,A,4837.4396,N,00854.4597,E,12.810627,169.401627,090506,,*3D
$GPGLL,4837.4396,N,00854.4597,E,165142.262,A*31
$GPVTG,169.401627,T,,M,12.810627,N,23.724831,K*5B
$GPGSA,A,3,,,,,,,,,,,,,2.0,1.5,,*36
$GPGGA,165150.261,4837.4137,N,00854.4714,E,1,07,1.5,497.7,M,,M,,*49
$GPRMC,165150.261,A,4837.4137,N,00854.4714,E,11.793164,162.686325,090506,,*3B
$GPGLL,4837.4137,N,00854.4714,E,165150.261,A*31
$GPVTG,162.686325,T,,M,11.793164,N,21.840525,K*5A
$GPGSA,A,3,,,,,,,,,,,,,2.0,1.5,,*36
$GPGGA,165200.261,4837.3862,N,00854.4861,E,1,07,1.5,498.7,M,,M,,*43
$GPRMC,165200.261,A,4837.3862,N,00854.4861,E,9.701029,157.047241,090506,,*0A
$GPGLL,4837.3862,N,00854.4861,E,165200.261,A*34
$GPVTG,157.047241,T,,M,9.701029,N,17.965965,K*65
$GPGSA,A,3,,,,,,,,,,,,,2.3,1.6,,*36
$GPGGA,165212.260,4837.3663,N,00854.5146,E,1,06,1.6,500.9,M,,M,,*4F
$GPRMC,165212.260,A,4837.3663,N,00854.5146,E,10.348031,90.393135,090506,,*02
$GPGLL,4837.3663,N,00854.5146,E,165212.260,A*34
$GPVTG,90.393135,T,,M,10.348031,N,19.164190,K*68
$GPGSA,A,3,,,,,,,,,,,,,2.0,1.5,,*36
$GPGGA,165221.259,4837.3663,N,00854.5600,E,1,07,1.5,501.8,M,,M,,*42
$GPRMC,165221.259,A,4837.3663,N,00854.5600,E,12.390806,88.977135,090506,,*0F
$GPGLL,4837.3663,N,00854.5600,E,165221.259,A*3B
$GPVTG,88.977135,T,,M,12.390806,N,22.947336,K*65
$GPGSA,A,3,,,,,,,,,,,,,2.0,1.5,,*36
$GPGGA,165229.259,4837.3650,N,00854.6042,E,1,07,1.5,501.9,M,,M,,*48
$GPRMC,165229.259,A,4837.3650,N,00854.6042,E,14.224495,88.397820,090506,,*03
$GPGLL,4837.3650,N,00854.6042,E,165229.259,A*30
$GPVTG,88.397820,T,,M,14.224495,N,26.343264,K*6E
$GPGSA,A,3,,,,,,,,,,,,,2.0,1.5,,*36
$GPGGA,165237.258,4837.3638,N,00854.6492,E,1,07,1.5,500.2,M,,M,,*4B
$GPRMC,165237.258,A,4837.3638,N,00854.6492,E,13.789446,87.294319,090506,,*0D
$GPGLL,4837.3638,N,00854.6492,E,165237.258,A*39
$GPVTG,87.294319,T,,M,13.789446,N,25.537569,K*65
$GPGSA,A,3,,,,,,,,,,,,,2.0,1.5,,*36
$GPGGA,165245.258,4837.3647,N,00854.6909,E,1,07,1.5,500.4,M,,M,,*4F
$GPRMC,165245.258,A,4837.3647,N,00854.6909,E,11.145782,84.501884,090506,,*07
$GPGLL,4837.3647,N,00854.6909,E,165245.258,A*3B
$GPVTG,84.501884,T,,M,11.145782,N,20.641596,K*6A
$GPGSA,A,3,,,,,,,,,,,,,2.3,1.6,,*36
$GPGGA,165255.257,4837.3707,N,00854.7353,E,1,06,1.6,500.4,M,,M,,*42
$GPRMC,165255.257,A,4837.3707,N,00854.7353,E,10.962030,69.985817,090506,,*03
$GPGLL,4837.3707,N,00854.7353,E,165255.257,A*34
$GPVTG,69.985817,T,,M,10.962030,N,20.301292,K*63
$GPGSA,A,3,,,,,,,,,,,,,2.0,1.5,,*36
$GPGGA,165304.257,4837.3837,N,00854.7715,E,1,07,1.5,504.5,M,,M,,*4A
$GPRMC,165304.257,A,4837.3837,N,00854.7715,E,11.222276,73.173637,090506,,*04
$GPGLL,4837.3837,N,00854.7715,E,165304.257,A*3B
$GPVTG,73.173637,T,,M,11.222276,N,20.783260,K*68
$GPGSA,A,3,,,,,,,,,,,,,2.0,1.5,,*36
$GPGGA,165313.256,4837.3927,N,00854.8127,E,1,07,1.5,505.0,M,,M,,*41
$GPRMC,165313.256,A,4837.3927,N,00854.8127,E,11.853243,64.406830,090506,,*09
$GPGLL,4837.3927,N,00854.8127,E,165313.256,A*34
$GPVTG,64.406830,T,,M,11.853243,N,21.951790,K*60
$GPGSA,A,3,,,,,,,,,,,,,2.0,1.5,,*36
$GPGGA,165322.256,4837.4030,N,00854.8534,E,1,07,1.5,504.2,M,,M,,*4E
$GPRMC,165322.256,A,4837.4030,N,00854.8534,E,12.048191,77.822998,090506,,*03
$GPGLL,4837.4030,N,00854.8534,E,165322.256,A*38
$GPVTG,77.822998,T,,M,12.048191,N,22.312826,K*6A
$GPGSA,A,3,,,,,,,,,,,,,2.0,1.5,,*36
$GPGGA,165330.255,4837.4130,N,00854.8921,E,1,07,1.5,504.4,M,,M,,*41
$GPRMC,165330.255,A,4837.4130,N,00854.8921,E,12.584422,67.443245,090506,,*03
$GPGLL,4837.4130,N,00854.8921,E,165330.255,A*31
$GPVTG,67.443245,T,,M,12.584422,N,23.305906,K*67
$GPGSA,A,3,,,,,,,,,,,,,2.0,1.5,,*36
$GPGGA,165338.255,4837.4254,N,00854.9330,E,1,07,1.5,503.5,M,,M,,*45
$GPRMC,165338.255,A,4837.4254,N,00854.9330,E,13.882814,66.152954,090506,,*0D
$GPGLL,4837.4254,N,00854.9330,E,165338.255,A*33
$GPVTG,66.152954,T,,M,13.882814,N,25.710482,K*6C
$GPGSA,A,3,,,,,,,,,,,,,2.0,1.5,,*36
$GPGGA,165345.254,4837.4368,N,00854.9711,E,1,07,1.5,502.3,M,,M,,*40
$GPRMC,165345.254,A,4837.4368,N,00854.9711,E,14.471038,65.441422,090506,,*06
$GPGLL,4837.4368,N,00854.9711,E,165345.254,A*31
$GPVTG,65.441422,T,,M,14.471038,N,26.799854,K*60
$GPGSA,A,3,,,,,,,,,,,,,2.0,1.5,,*36
$GPGGA,165352.254,4837.4490,N,00855.0101,E,1,07,1.5,501.5,M,,M,,*4C
$GPRMC,165352.254,A,4837.4490,N,00855.0101,E,14.679606,58.449375,090506,,*0D
$GPGLL,4837.4490,N,00855.0101,E,165352.254,A*38
$GPVTG,58.449375,T,,M,14.679606,N,27.186113,K*61
$GPGSA,A,3,,,,,,,,,,,,,2.0,1.5,,*36
$GPGGA,165400.253,4837.4627,N,00855.0514,E,1,07,1.5,500.1,M,,M,,*40
$GPRMC,165400.253,A,4837.4627,N,00855.0514,E,15.322770,73.238892,090506,,*05
$GPGLL,4837.4627,N,00855.0514,E,165400.253,A*31
$GPVTG,73.238892,T,,M,15.322770,N,28.377230,K*61
$GPGSA,A,3,,,,,,,,,,,,,2.0,1.5,,*36
$GPGGA,165407.253,4837.4739,N,00855.0949,E,1,07,1.5,499.9,M,,M,,*44
$GPRMC,165407.253,A,4837.4739,N,00855.0949,E,16.267843,71.468216,090506,,*03
$GPGLL,4837.4739,N,00855.0949,E,165407.253,A*3C
$GPVTG,71.468216,T,,M,16.267843,N,30.127472,K*64
$GPGSA,A,3,,,,,,,,,,,,,2.0,1.5,,*36
$GPGGA,165413.252,4837.4810,N,00855.1356,E,1,07,1.5,498.9,M,,M,,*40
$GPRMC,165413.252,A,4837.4810,N,00855.1356,E,16.783624,80.620163,090506,,*07
$GPGLL,4837.4810,N,00855.1356,E,165413.252,A*39
$GPVTG,80.620163,T,,M,16.783624,N,31.082682,K*67
$GPGSA,A,3,,,,,,,,,,,,,2.0,1.5,,*36
$GPGGA,165420.252,4837.4872,N,00855.1781,E,1,07,1.5,498.9,M,,M,,*4A
$GPRMC,165420.252,A,4837.4872,N,00855.1781,E,10.950728,75.694649,090506,,*0C
$GPGLL,4837.4872,N,00855.1781,E,165420.252,A*33
$GPVTG,75.694649,T,,M,10.950728,N,20.280363,K*6C
$GPGSA,A,3,,,,,,,,,,,,,2.8,1.6,,*3D
$GPGGA,165433.251,4837.5149,N,00855.1867,E,1,06,1.6,500.2,M,,M,,*45
$GPRMC,165433.251,A,4837.5149,N,00855.1867,E,11.022389,62.899330,090506,,*06
$GPGLL,4837.5149,N,00855.1867,E,165433.251,A*35
$GPVTG,62.899330,T,,M,11.022389,N,20.413076,K*6B
$GPGSA,A,3,,,,,,,,,,,,,2.8,1.6,,*3D
$GPGGA,165445.250,4837.5417,N,00855.1991,E,1,06,1.6,499.5,M,,M,,*45
$GPRMC,165445.250,A,4837.5417,N,00855.1991,E,10.351018,335.188507,090506,,*37
$GPGLL,4837.5417,N,00855.1991,E,165445.250,A*33
$GPVTG,335.188507,T,,M,10.351018,N,19.169722,K*58
$GPGSA,A,3,,,,,,,,,,,,,2.0,1.5,,*36
$GPGGA,165454.250,4837.5673,N,00855.1827,E,1,07,1.5,499.7,M,,M,,*49
$GPRMC,165454.250,A,4837.5673,N,00855.1827,E,10.998193,5.970273,090506,,*3D
$GPGLL,4837.5673,N,00855.1827,E,165454.250,A*3F
$GPVTG,5.970273,T,,M,10.998193,N,20.368265,K*51
$GPGSA,A,3,,,,,,,,,,,,,2.8,1.6,,*3D
$GPGGA,165502.249,4837.5826,N,00855.2188,E,1,06,1.6,497.0,M,,M,,*49
$GPRMC,165502.249,A,4837.5826,N,00855.2188,E,14.519827,64.424873,090506,,*00
$GPGLL,4837.5826,N,00855.2188,E,165502.249,A*34
$GPVTG,64.424873,T,,M,14.519827,N,26.890209,K*67
$GPGSA,A,3,,,,,,,,,,,,,2.8,1.6,,*3D
$GPGGA,165509.249,4837.5943,N,00855.2568,E,1,06,1.6,495.6,M,,M,,*4E
$GPRMC,165509.249,A,4837.5943,N,00855.2568,E,13.351584,63.929413,090506,,*07
$GPGLL,4837.5943,N,00855.2568,E,165509.249,A*37
$GPVTG,63.929413,T,,M,13.351584,N,24.726664,K*6C
$GPGSA,A,3,,,,,,,,,,,,,2.8,1.6,,*3D
$GPGGA,165518.248,4837.6060,N,00855.2948,E,1,06,1.6,495.3,M,,M,,*4F
$GPRMC,165518.248,A,4837.6060,N,00855.2948,E,5.428087,96.703445,090506,,*34
$GPGLL,4837.6060,N,00855.2948,E,165518.248,A*33
$GPVTG,96.703445,T,,M,5.428087,N,10.052626,K*5E
$GPGSA,A,3,,,,,,,,,,,,,2.9,1.6,,*3C
$GPGGA,165536.247,4837.6156,N,00855.3347,E,1,06,1.6,496.7,M,,M,,*4B
$GPRMC,165536.247,A,4837.6156,N,00855.3347,E,9.124806,55.578136,090506,,*33
$GPGLL,4837.6156,N,00855.3347,E,165536.247,A*30
$GPVTG,55.578136,T,,M,9.124806,N,16.898821,K*5B
$GPGSA,A,3,,,,,,,,,,,,,2.9,1.6,,*3C
$GPGGA,165546.247,4837.6353,N,00855.3646,E,1,06,1.6,495.8,M,,M,,*43
$GPRMC,165546.247,A,4837.6353,N,00855.3646,E,11.394467,41.427670,090506,,*07
$GPGLL,4837.6353,N,00855.3646,E,165546.247,A*34
$GPVTG,41.427670,T,,M,11.394467,N,21.102152,K*68
$GPGSA,A,3,,,,,,,,,,,,,2.9,1.6,,*3C
$GPGGA,165555.246,4837.6600,N,00855.3916,E,1,06,1.6,492.3,M,,M,,*45
$GPRMC,165555.246,A,4837.6600,N,00855.3916,E,12.201660,24.607939,090506,,*07
$GPGLL,4837.6600,N,00855.3916,E,165555.246,A*3E
$GPVTG,24.607939,T,,M,12.201660,N,22.597044,K*6F
$GPGSA,A,3,,,,,,,,,,,,,2.9,1.6,,*3C
$GPGGA,165603.246,4837.6886,N,00855.3980,E,1,06,1.6,491.5,M,,M,,*4F
$GPRMC,165603.246,A,4837.6886,N,00855.3980,E,14.275789,3.855743,090506,,*34
$GPGLL,4837.6886,N,00855.3980,E,165603.246,A*31
$GPVTG,3.855743,T,,M,14.275789,N,26.438257,K*53
$GPGSA,A,3,,,,,,,,,,,,,2.9,1.6,,*3C
$GPGGA,165610.245,4837.7165,N,00855.4020,E,1,06,1.6,491.9,M,,M,,*43
$GPRMC,165610.245,A,4837.7165,N,00855.4020,E,12.845281,7.988364,090506,,*32
$GPGLL,4837.7165,N,00855.4020,E,165610.245,A*31
$GPVTG,7.988364,T,,M,12.845281,N,23.789007,K*5E
$GPGSA,A,3,,,,,,,,,,,,,2.9,1.6,,*3C
$GPGGA,165619.245,4837.7431,N,00855.4074,E,1,06,1.6,490.7,M,,M,,*40
$GPRMC,165619.245,A,4837.7431,N,00855.4074,E,5.832193,28.428106,090506,,*34
$GPGLL,4837.7431,N,00855.4074,E,165619.245,A*3D
$GPVTG,28.428106,T,,M,5.832193,N,10.801016,K*5B
$GPGSA,A,3,,,,,,,,,,,,,2.9,1.6,,*3C
$GPGGA,165634.244,4837.7676,N,00855.4325,E,1,06,1.6,490.0,M,,M,,*4F
$GPRMC,165634.244,A,4837.7676,N,00855.4325,E,11.650667,27.603458,090506,,*05
$GPGLL,4837.7676,N,00855.4325,E,165634.244,A*35
$GPVTG,27.603458,T,,M,11.650667,N,21.576626,K*68
$GPGSA,A,3,,,,,,,,,,,,,2.9,1.6,,*3C
$GPGGA,165642.243,4837.7925,N,00855.4538,E,1,06,1.6,488.6,M,,M,,*45
$GPRMC,165642.243,A,4837.7925,N,00855.4538,E,13.291678,27.317322,090506,,*0F
$GPGLL,4837.7925,N,00855.4538,E,165642.243,A*30
$GPVTG,27.317322,T,,M,13.291678,N,24.615721,K*62
$GPGSA,A,3,,,,,,,,,,,,,2.9,1.6,,*3C
$GPGGA,165650.243,4837.8179,N,00855.4749,E,1,06,1.6,487.9,M,,M,,*4C
$GPRMC,165650.243,A,4837.8179,N,00855.4749,E,13.307538,27.850189,090506,,*04
$GPGLL,4837.8179,N,00855.4749,E,165650.243,A*39
$GPVTG,27.850189,T,,M,13.307538,N,24.645092,K*6A
$GPGSA,A,3,,,,,,,,,,,,,2.9,1.6,,*3C
$GPGGA,165657.242,4837.8415,N,00855.4951,E,1,06,1.6,487.6,M,,M,,*4D
$GPRMC,165657.242,A,4837.8415,N,00855.4951,E,14.702221,30.543913,090506,,*01
$GPGLL,4837.8415,N,00855.4951,E,165657.242,A*37
$GPVTG,30.543913,T,,M,14.702221,N,27.227997,K*6E
$GPGSA,A,3,,,,,,,,,,,,,2.9,1.6,,*3C
$GPGGA,165704.242,4837.8676,N,00855.5175,E,1,06,1.6,487.0,M,,M,,*44
$GPRMC,165704.242,A,4837.8676,N,00855.5175,E,15.685651,28.320959,090506,,*06
$GPGLL,4837.8676,N,00855.5175,E,165704.242,A*38
$GPVTG,28.320959,T,,M,15.685651,N,29.049273,K*63
$GPGSA,A,3,,,,,,,,,,,,,2.9,1.6,,*3C
$GPGGA,165711.242,4837.8946,N,00855.5405,E,1,06,1.6,486.6,M,,M,,*49
$GPRMC,165711.242,A,4837.8946,N,00855.5405,E,16.270419,29.082411,090506,,*04
$GPGLL,4837.8946,N,00855.5405,E,165711.242,A*32
$GPVTG,29.082411,T,,M,16.270419,N,30.132244,K*6A
$GPGSA,A,3,,,,,,,,,,,,,2.9,1.6,,*3C
$GPGGA,165717.241,4837.9186,N,00855.5605,E,1,06,1.6,486.5,M,,M,,*48
$GPRMC,165717.241,A,4837.9186,N,00855.5605,E,16.583602,31.856722,090506,,*0E
$GPGLL,4837.9186,N,00855.5605,E,165717.241,A*30
$GPVTG,31.856722,T,,M,16.583602,N,30.712248,K*6A
$GPGSA,A,3,,,,,,,,,,,,,2.9,1.6,,*3C
$GPGGA,165723.241,4837.9429,N,00855.5806,E,1,06,1.6,486.4,M,,M,,*43
$GPRMC,165723.241,A,4837.9429,N,00855.5806,E,16.264513,28.517994,090506,,*0A
$GPGLL,4837.9429,N,00855.5806,E,165723.241,A*3A
$GPVTG,28.517994,T,,M,16.264513,N,30.121305,K*6A
$GPGSA,A,3,,,,,,,,,,,,,2.9,1.6,,*3C
$GPGGA,165730.240,4837.9692,N,00855.6024,E,1,06,1.6,486.4,M,,M,,*49
$GPRMC,165730.240,A,4837.9692,N,00855.6024,E,14.676550,29.926672,090506,,*0A
$GPGLL,4837.9692,N,00855.6024,E,165730.240,A*30
$GPVTG,29.926672,T,,M,14.676550,N,27.180452,K*68
$GPGSA,A,3,,,,,,,,,,,,,2.9,1.6,,*3C
$GPGGA,165737.240,4837.9891,N,00855.6310,E,1,06,1.6,486.1,M,,M,,*42
$GPRMC,165737.240,A,4837.9891,N,00855.6310,E,14.922896,70.192024,090506,,*03
$GPGLL,4837.9891,N,00855.6310,E,165737.240,A*3E
$GPVTG,70.192024,T,,M,14.922896,N,27.636677,K*60
$GPGSA,A,3,,,,,,,,,,,,,2.2,1.4,,*35
$GPGGA,165744.239,4837.9960,N,00855.6757,E,1,07,1.4,488.5,M,,M,,*49
$GPRMC,165744.239,A,4837.9960,N,00855.6757,E,15.797702,75.296700,090506,,*01
$GPGLL,4837.9960,N,00855.6757,E,165744.239,A*3C
$GPVTG,75.296700,T,,M,15.797702,N,29.256786,K*63
$GPGSA,A,3,,,,,,,,,,,,,2.2,1.4,,*35
$GPGGA,165751.239,4838.0026,N,00855.7194,E,1,07,1.4,489.7,M,,M,,*4B
$GPRMC,165751.239,A,4838.0026,N,00855.7194,E,14.959118,77.337097,090506,,*01
$GPGLL,4838.0026,N,00855.7194,E,165751.239,A*3D
$GPVTG,77.337097,T,,M,14.959118,N,27.703760,K*61
$GPGSA,A,3,,,,,,,,,,,,,2.2,1.4,,*35
$GPGGA,165758.239,4838.0095,N,00855.7608,E,1,07,1.4,489.3,M,,M,,*4C
$GPRMC,165758.239,A,4838.0095,N,00855.7608,E,14.566222,71.153664,090506,,*04
$GPGLL,4838.0095,N,00855.7608,E,165758.239,A*3E
$GPVTG,71.153664,T,,M,14.566222,N,26.976131,K*68
$GPGSA,A,3,,,,,,,,,,,,,2.9,1.6,,*3C
$GPGGA,165805.238,4838.0180,N,00855.8006,E,1,06,1.6,489.1,M,,M,,*49
$GPRMC,165805.238,A,4838.0180,N,00855.8006,E,14.623306,72.180443,090506,,*0F
$GPGLL,4838.0180,N,00855.8006,E,165805.238,A*3A
$GPVTG,72.180443,T,,M,14.623306,N,27.081848,K*60
$GPGSA,A,3,,,,,,,,,,,,,2.9,1.5,,*3F
$GPGGA,165812.238,4838.0269,N,00855.8416,E,1,06,1.5,488.1,M,,M,,*4C
$GPRMC,165812.238,A,4838.0269,N,00855.8416,E,14.837841,70.403671,090506,,*04
$GPGLL,4838.0269,N,00855.8416,E,165812.238,A*3D
$GPVTG,70.403671,T,,M,14.837841,N,27.479160,K*6C
$GPGSA,A,3,,,,,,,,,,,,,2.3,1.4,,*34
$GPGGA,165819.237,4838.0347,N,00855.8836,E,1,07,1.4,489.1,M,,M,,*4A
$GPRMC,165819.237,A,4838.0347,N,00855.8836,E,14.751950,77.485893,090506,,*06
$GPGLL,4838.0347,N,00855.8836,E,165819.237,A*3A
$GPVTG,77.485893,T,,M,14.751950,N,27.320091,K*6D
$GPGSA,A,3,,,,,,,,,,,,,2.3,1.4,,*34
$GPGGA,165826.237,4838.0404,N,00855.9250,E,1,07,1.4,489.4,M,,M,,*48
$GPRMC,165826.237,A,4838.0404,N,00855.9250,E,14.349688,79.491356,090506,,*0F
$GPGLL,4838.0404,N,00855.9250,E,165826.237,A*3D
$GPVTG,79.491356,T,,M,14.349688,N,26.575117,K*6B
$GPGSA,A,3,,,,,,,,,,,,,2.3,1.4,,*34
$GPGGA,165833.236,4838.0470,N,00855.9663,E,1,07,1.4,490.1,M,,M,,*47
$GPRMC,165833.236,A,4838.0470,N,00855.9663,E,14.615907,71.330833,090506,,*05
$GPGLL,4838.0470,N,00855.9663,E,165833.236,A*3F
$GPVTG,71.330833,T,,M,14.615907,N,27.068144,K*6D
$GPGSA,A,3,,,,,,,,,,,,,2.3,1.4,,*34
$GPGGA,165840.236,4838.0601,N,00856.0042,E,1,07,1.4,489.6,M,,M,,*47
$GPRMC,165840.236,A,4838.0601,N,00856.0042,E,14.651317,56.078804,090506,,*0F
$GPGLL,4838.0601,N,00856.0042,E,165840.236,A*30
$GPVTG,56.078804,T,,M,14.651317,N,27.133722,K*61
$GPGSA,A,3,,,,,,,,,,,,,2.3,1.4,,*34
$GPGGA,165847.236,4838.0763,N,00856.0375,E,1,07,1.4,489.3,M,,M,,*47
$GPRMC,165847.236,A,4838.0763,N,00856.0375,E,14.064960,52.407944,090506,,*0D
$GPGLL,4838.0763,N,00856.0375,E,165847.236,A*35
$GPVTG,52.407944,T,,M,14.064960,N,26.047810,K*6B
$GPGSA,A,3,,,,,,,,,,,,,2.3,1.4,,*34
$GPGGA,165855.235,4838.0853,N,00856.0791,E,1,07,1.4,491.7,M,,M,,*48
$GPRMC,165855.235,A,4838.0853,N,00856.0791,E,12.930387,103.896179,090506,,*35
$GPGLL,4838.0853,N,00856.0791,E,165855.235,A*37
$GPVTG,103.896179,T,,M,12.930387,N,23.946621,K*50
$GPGSA,A,3,,,,,,,,,,,,,3.5,1.6,,*31
$GPGGA,165903.235,4838.0724,N,00856.1152,E,1,05,1.6,493.1,M,,M,,*49
$GPRMC,165903.235,A,4838.0724,N,00856.1152,E,11.249247,120.777596,090506,,*3F
$GPGLL,4838.0724,N,00856.1152,E,165903.235,A*32
$GPVTG,120.777596,T,,M,11.249247,N,20.833208,K*50
$GPGSA,A,3,,,,,,,,,,,,,3.5,1.6,,*31
$GPGGA,165913.234,4838.0578,N,00856.1518,E,1,05,1.6,494.5,M,,M,,*4B
$GPRMC,165913.234,A,4838.0578,N,00856.1518,E,9.604464,120.322037,090506,,*07
$GPGLL,4838.0578,N,00856.1518,E,165913.234,A*33
$GPVTG,120.322037,T,,M,9.604464,N,17.787128,K*6C
$GPGSA,A,3,,,,,,,,,,,,,2.3,1.4,,*34
$GPGGA,165923.233,4838.0539,N,00856.1925,E,1,07,1.4,496.9,M,,M,,*46
$GPRMC,165923.233,A,4838.0539,N,00856.1925,E,10.489626,76.027016,090506,,*08
$GPGLL,4838.0539,N,00856.1925,E,165923.233,A*30
$GPVTG,76.027016,T,,M,10.489626,N,19.426418,K*60
$GPGSA,A,3,,,,,,,,,,,,,2.3,1.4,,*34
$GPGGA,165933.233,4838.0614,N,00856.2325,E,1,07,1.4,498.8,M,,M,,*4D
$GPRMC,165933.233,A,4838.0614,N,00856.2325,E,9.578223,75.586960,090506,,*3F
$GPGLL,4838.0614,N,00856.2325,E,165933.233,A*34
$GPVTG,75.586960,T,,M,9.578223,N,17.738531,K*5B
$GPGSA,A,3,,,,,,,,,,,,,2.3,1.4,,*34
$GPGGA,165944.232,4838.0692,N,00856.2759,E,1,07,1.4,500.4,M,,M,,*41
$GPRMC,165944.232,A,4838.0692,N,00856.2759,E,10.086949,75.119614,090506,,*0A
$GPGLL,4838.0692,N,00856.2759,E,165944.232,A*34
$GPVTG,75.119614,T,,M,10.086949,N,18.680674,K*61
$GPGSA,A,3,,,,,,,,,,,,,2.3,1.4,,*34
$GPGGA,165954.232,4838.0754,N,00856.3180,E,1,07,1.4,501.0,M,,M,,*4D
$GPRMC,165954.232,A,4838.0754,N,00856.3180,E,9.925202,78.155113,090506,,*3A
$GPGLL,4838.0754,N,00856.3180,E,165954.232,A*3D
$GPVTG,78.155113,T,,M,9.925202,N,18.381124,K*5E
$GPGSA,A,3,,,,,,,,,,,,,2.3,1.4,,*34
$GPGGA,170004.231,4838.0798,N,00856.3587,E,1,07,1.4,500.6,M,,M,,*42
$GPRMC,170004.231,A,4838.0798,N,00856.3587,E,9.963082,84.909111,090506,,*3A
$GPGLL,4838.0798,N,00856.3587,E,170004.231,A*35
$GPVTG,84.909111,T,,M,9.963082,N,18.451277,K*59
$GPGSA,A,3,,,,,,,,,,,,,2.3,1.4,,*34
$GPGGA,170014.230,4838.0811,N,00856.4011,E,1,07,1.4,500.4,M,,M,,*43
$GPRMC,170014.230,A,4838.0811,N,00856.4011,E,10.570619,83.508385,090506,,*0E
$GPGLL,4838.0811,N,00856.4011,E,170014.230,A*36
$GPVTG,83.508385,T,,M,10.570619,N,19.576414,K*68
$GPGSA,A,3,,,,,,,,,,,,,2.3,1.4,,*34
$GPGGA,170023.230,4838.0811,N,00856.4447,E,1,07,1.4,499.2,M,,M,,*47
$GPRMC,170023.230,A,4838.0811,N,00856.4447,E,12.330973,96.379005,090506,,*01
$GPGLL,4838.0811,N,00856.4447,E,170023.230,A*35
$GPVTG,96.379005,T,,M,12.330973,N,22.836527,K*64
$GPGSA,A,3,,,,,,,,,,,,,2.3,1.4,,*34
$GPGGA,170031.229,4838.0779,N,00856.4859,E,1,07,1.4,501.3,M,,M,,*4F
$GPRMC,170031.229,A,4838.0779,N,00856.4859,E,11.323013,98.579971,090506,,*04
$GPGLL,4838.0779,N,00856.4859,E,170031.229,A*3C
$GPVTG,98.579971,T,,M,11.323013,N,20.969822,K*69
$GPGSA,A,3,,,,,,,,,,,,,2.3,1.4,,*34
$GPGGA,170041.229,4838.0766,N,00856.5290,E,1,07,1.4,502.5,M,,M,,*4D
$GPRMC,170041.229,A,4838.0766,N,00856.5290,E,9.341555,88.227249,090506,,*34
$GPGLL,4838.0766,N,00856.5290,E,170041.229,A*3B
$GPVTG,88.227249,T,,M,9.341555,N,17.300230,K*56
$GPGSA,A,3,,,,,,,,,,,,,2.3,1.4,,*34
$GPGGA,170052.228,4838.0807,N,00856.5726,E,1,07,1.4,503.6,M,,M,,*4C
$GPRMC,170052.228,A,4838.0807,N,00856.5726,E,10.093459,74.247185,090506,,*08
$GPGLL,4838.0807,N,00856.5726,E,170052.228,A*38
$GPVTG,74.247185,T,,M,10.093459,N,18.692730,K*6D
$GPGSA,A,3,,,,,,,,,,,,,2.3,1.4,,*34
$GPGGA,170102.227,4838.0878,N,00856.6142,E,1,07,1.4,504.6,M,,M,,*4F
$GPRMC,170102.227,A,4838.0878,N,00856.6142,E,10.122367,73.827232,090506,,*09
$GPGLL,4838.0878,N,00856.6142,E,170102.227,A*3C
$GPVTG,73.827232,T,,M,10.122367,N,18.746267,K*67
$GPGSA,A,3,,,,,,,,,,,,,2.3,1.4,,*34
$GPGGA,170113.227,4838.1001,N,00856.6528,E,1,07,1.4,504.2,M,,M,,*44
$GPRMC,170113.227,A,4838.1001,N,00856.6528,E,10.068973,17.916798,090506,,*02
$GPGLL,4838.1001,N,00856.6528,E,170113.227,A*33
$GPVTG,17.916798,T,,M,10.068973,N,18.647383,K*68
$GPGSA,A,3,,,,,,,,,,,,,2.3,1.4,,*34
$GPGGA,170122.226,4838.1287,N,00856.6541,E,1,07,1.4,502.5,M,,M,,*45
$GPRMC,170122.226,A,4838.1287,N,00856.6541,E,11.686902,0.330258,090506,,*32
$GPGLL,4838.1287,N,00856.6541,E,170122.226,A*33
$GPVTG,0.330258,T,,M,11.686902,N,21.643730,K*5A
$GPGSA,A,3,,,,,,,,,,,,,2.3,1.4,,*34
$GPGGA,170131.226,4838.1576,N,00856.6544,E,1,07,1.4,504.5,M,,M,,*4D
$GPRMC,170131.226,A,4838.1576,N,00856.6544,E,11.146182,6.580189,090506,,*33
$GPGLL,4838.1576,N,00856.6544,E,170131.226,A*3D
$GPVTG,6.580189,T,,M,11.146182,N,20.642336,K*57
$GPGSA,A,3,,,,,,,,,,,,,2.3,1.4,,*34
$GPGGA,170141.225,4838.1857,N,00856.6610,E,1,07,1.4,507.6,M,,M,,*45
$GPRMC,170141.225,A,4838.1857,N,00856.6610,E,9.142612,11.160932,090506,,*3C
$GPGLL,4838.1857,N,00856.6610,E,170141.225,A*35
$GPVTG,11.160932,T,,M,9.142612,N,16.931795,K*53
$GPGSA,A,3,,,,,,,,,,,,,2.3,1.4,,*34
$GPGGA,170153.224,4838.1944,N,00856.7035,E,1,07,1.4,508.7,M,,M,,*4A
$GPRMC,170153.224,A,4838.1944,N,00856.7035,E,9.361454,84.007706,090506,,*3B
$GPGLL,4838.1944,N,00856.7035,E,170153.224,A*34
$GPVTG,84.007706,T,,M,9.361454,N,17.337084,K*5F
$GPGSA,A,3,,,,,,,,,,,,,2.3,1.4,,*34
$GPGGA,170204.224,4838.1969,N,00856.7479,E,1,07,1.4,508.1,M,,M,,*4E
$GPRMC,170204.224,A,4838.1969,N,00856.7479,E,10.059929,81.977409,090506,,*09
$GPGLL,4838.1969,N,00856.7479,E,170204.224,A*36
$GPVTG,81.977409,T,,M,10.059929,N,18.630634,K*6F
$GPGSA,A,3,,,,,,,,,,,,,2.3,1.4,,*34
$GPGGA,170215.223,4838.2008,N,00856.7924,E,1,07,1.4,508.0,M,,M,,*40
$GPRMC,170215.223,A,4838.2008,N,00856.7924,E,9.788962,81.108421,090506,,*30
$GPGLL,4838.2008,N,00856.7924,E,170215.223,A*39
$GPVTG,81.108421,T,,M,9.788962,N,18.128813,K*5C
$GPGSA,A,3,,,,,,,,,,,,,2.3,1.4,,*34
$GPGGA,170226.222,4838.2040,N,00856.8355,E,1,07,1.4,509.4,M,,M,,*4B
$GPRMC,170226.222,A,4838.2040,N,00856.8355,E,9.392162,82.463814,090506,,*38
$GPGLL,4838.2040,N,00856.8355,E,170226.222,A*37
$GPVTG,82.463814,T,,M,9.392162,N,17.393953,K*52
$GPGSA,A,3,,,,,,,,,,,,,3.0,1.5,,*37
$GPGGA,170238.221,4838.2040,N,00856.8782,E,1,06,1.5,511.1,M,,M,,*45
$GPRMC,170238.221,A,4838.2040,N,00856.8782,E,8.786526,142.302383,090506,,*06
$GPGLL,4838.2040,N,00856.8782,E,170238.221,A*35
$GPVTG,142.302383,T,,M,8.786526,N,16.272337,K*69
$GPGSA,A,3,,,,,,,,,,,,,3.0,1.5,,*37
$GPGGA,170249.221,4838.1816,N,00856.9035,E,1,06,1.5,514.1,M,,M,,*44
$GPRMC,170249.221,A,4838.1816,N,00856.9035,E,9.418732,145.783798,090506,,*04
$GPGLL,4838.1816,N,00856.9035,E,170249.221,A*31
$GPVTG,145.783798,T,,M,9.418732,N,17.443161,K*6B
$GPGSA,A,3,,,,,,,,,,,,,3.0,1.5,,*37
$GPGGA,170300.220,4838.1585,N,00856.9274,E,1,06,1.5,517.0,M,,M,,*4B
$GPRMC,170300.220,A,4838.1585,N,00856.9274,E,9.051671,145.168793,090506,,*0E
$GPGLL,4838.1585,N,00856.9274,E,170300.220,A*3C
$GPVTG,145.168793,T,,M,9.051671,N,16.763376,K*68
$GPGSA,A,3,,,,,,,,,,,,,2.4,1.4,,*33
$GPGGA,170311.219,4838.1377,N,00856.9536,E,1,07,1.4,519.5,M,,M,,*40
$GPRMC,170311.219,A,4838.1377,N,00856.9536,E,8.301791,137.803223,090506,,*09
$GPGLL,4838.1377,N,00856.9536,E,170311.219,A*3C
$GPVTG,137.803223,T,,M,8.301791,N,15.374624,K*6C
$GPGSA,A,3,,,,,,,,,,,,,3.1,1.5,,*36
$GPGGA,170325.219,4838.1187,N,00856.9863,E,1,06,1.5,527.1,M,,M,,*4E
$GPRMC,170325.219,A,4838.1187,N,00856.9863,E,6.264656,128.468353,090506,,*01
$GPGLL,4838.1187,N,00856.9863,E,170325.219,A*3B
$GPVTG,128.468353,T,,M,6.264656,N,11.601923,K*68
$GPGSA,A,3,,,,,,,,,,,,,2.4,1.4,,*33
$GPGGA,170343.217,4838.1017,N,00857.0188,E,1,07,1.4,531.0,M,,M,,*4A
$GPRMC,170343.217,A,4838.1017,N,00857.0188,E,5.453592,151.615631,090506,,*0E
$GPGLL,4838.1017,N,00857.0188,E,170343.217,A*39
$GPVTG,151.615631,T,,M,5.453592,N,10.099860,K*65
$GPGSA,A,3,,,,,,,,,,,,,3.1,1.5,,*36
$GPGGA,170407.216,4838.0875,N,00857.0545,E,1,06,1.5,531.2,M,,M,,*46
$GPRMC,170407.216,A,4838.0875,N,00857.0545,E,5.194631,115.706612,090506,,*06
$GPGLL,4838.0875,N,00857.0545,E,170407.216,A*37
$GPVTG,115.706612,T,,M,5.194631,N,9.620275,K*51
$GPGSA,A,3,,,,,,,,,,,,,3.1,1.5,,*36
$GPGGA,170425.215,4838.0782,N,00857.0931,E,1,06,1.5,535.0,M,,M,,*4B
$GPRMC,170425.215,A,4838.0782,N,00857.0931,E,5.768528,125.124954,090506,,*0B
$GPGLL,4838.0782,N,00857.0931,E,170425.215,A*3C
$GPVTG,125.124954,T,,M,5.768528,N,10.683111,K*67
$GPGSA,A,3,,,,,,,,,,,,,3.1,1.5,,*36
$GPGGA,170444.214,4838.0672,N,00857.1317,E,1,06,1.5,536.4,M,,M,,*4B
$GPRMC,170444.214,A,4838.0672,N,00857.1317,E,4.966640,109.633575,090506,,*00
$GPGLL,4838.0672,N,00857.1317,E,170444.214,A*3B
$GPVTG,109.633575,T,,M,4.966640,N,9.198042,K*59
$GPGSA,A,3,,,,,,,,,,,,,3.1,1.5,,*36
$GPGGA,170503.213,4838.0564,N,00857.1702,E,1,06,1.5,541.1,M,,M,,*4F
$GPRMC,170503.213,A,4838.0564,N,00857.1702,E,5.048696,111.938820,090506,,*0E
$GPGLL,4838.0564,N,00857.1702,E,170503.213,A*3A
$GPVTG,111.938820,T,,M,5.048696,N,9.350008,K*5E
$GPGSA,A,3,,,,,,,,,,,,,3.1,1.5,,*36
$GPGGA,170522.211,4838.0441,N,00857.2082,E,1,06,1.5,543.7,M,,M,,*40
$GPRMC,170522.211,A,4838.0441,N,00857.2082,E,5.325454,117.789589,090506,,*0D
$GPGLL,4838.0441,N,00857.2082,E,170522.211,A*31
$GPVTG,117.789589,T,,M,5.325454,N,9.862553,K*57
$GPGSA,A,3,,,,,,,,,,,,,3.1,1.5,,*36
$GPGGA,170539.210,4838.0305,N,00857.2436,E,1,06,1.5,549.5,M,,M,,*4F
$GPRMC,170539.210,A,4838.0305,N,00857.2436,E,6.048356,126.406967,090506,,*0E
$GPGLL,4838.0305,N,00857.2436,E,170539.210,A*36
$GPVTG,126.406967,T,,M,6.048356,N,11.201342,K*63
$GPGSA,A,3,,,,,,,,,,,,,3.1,1.5,,*36
$GPGGA,170555.209,4838.0143,N,00857.2791,E,1,06,1.5,552.9,M,,M,,*45
$GPRMC,170555.209,A,4838.0143,N,00857.2791,E,6.621386,130.696960,090506,,*0D
$GPGLL,4838.0143,N,00857.2791,E,170555.209,A*3A
$GPVTG,130.696960,T,,M,6.621386,N,12.262573,K*6E
$GPGSA,A,3,,,,,,,,,,,,,3.2,1.5,,*35
$GPGGA,170611.208,4837.9942,N,00857.3067,E,1,06,1.5,554.6,M,,M,,*4E
$GPRMC,170611.208,A,4837.9942,N,00857.3067,E,5.499276,132.856476,090506,,*09
$GPGLL,4837.9942,N,00857.3067,E,170611.208,A*38
$GPVTG,132.856476,T,,M,5.499276,N,10.184464,K*66
$GPGSA,A,3,,,,,,,,,,,,,3.3,1.5,,*34
$GPGGA,170905.198,4837.9736,N,00857.3343,E,1,06,1.5,550.7,M,,M,,*43
$GPRMC,170905.198,A,4837.9736,N,00857.3343,E,7.155900,144.640045,090506,,*00
$GPGLL,4837.9736,N,00857.3343,E,170905.198,A*30
$GPVTG,144.640045,T,,M,7.155900,N,13.252475,K*6C
$GPGSA,A,3,,,,,,,,,,,,,3.3,1.5,,*34
$GPGGA,170916.197,4837.9518,N,00857.3618,E,1,06,1.5,551.2,M,,M,,*4F
$GPRMC,170916.197,A,4837.9518,N,00857.3618,E,10.633877,145.326172,090506,,*39
$GPGLL,4837.9518,N,00857.3618,E,170916.197,A*38
$GPVTG,145.326172,T,,M,10.633877,N,19.693567,K*5C
$GPGSA,A,3,,,,,,,,,,,,,2.5,1.4,,*32
$GPGGA,170926.196,4837.9276,N,00857.3862,E,1,07,1.4,550.5,M,,M,,*47
$GPRMC,170926.196,A,4837.9276,N,00857.3862,E,10.231369,148.263275,090506,,*3C
$GPGLL,4837.9276,N,00857.3862,E,170926.196,A*36
$GPVTG,148.263275,T,,M,10.231369,N,18.948135,K*5C
$GPGSA,A,3,,,,,,,,,,,,,2.5,1.4,,*32
$GPGGA,170936.196,4837.9035,N,00857.4084,E,1,07,1.4,550.9,M,,M,,*48
$GPRMC,170936.196,A,4837.9035,N,00857.4084,E,10.364888,151.309799,090506,,*38
$GPGLL,4837.9035,N,00857.4084,E,170936.196,A*35
$GPVTG,151.309799,T,,M,10.364888,N,19.195408,K*59
$GPGSA,A,3,,,,,,,,,,,,,2.5,1.4,,*32
$GPGGA,170947.195,4837.8788,N,00857.4257,E,1,07,1.4,552.4,M,,M,,*4E
$GPRMC,170947.195,A,4837.8788,N,00857.4257,E,8.429750,166.664001,090506,,*00
$GPGLL,4837.8788,N,00857.4257,E,170947.195,A*3C
$GPVTG,166.664001,T,,M,8.429750,N,15.611601,K*64
$GPGSA,A,3,,,,,,,,,,,,,3.3,1.5,,*34
$GPGGA,171000.194,4837.8527,N,00857.4394,E,1,06,1.5,554.5,M,,M,,*4A
$GPRMC,171000.194,A,4837.8527,N,00857.4394,E,7.866584,154.544785,090506,,*0B
$GPGLL,4837.8527,N,00857.4394,E,171000.194,A*3F
$GPVTG,154.544785,T,,M,7.866584,N,14.568636,K*64
$GPGSA,A,3,,,,,,,,,,,,,2.5,1.5,,*33
$GPGGA,171011.194,4837.8287,N,00857.4595,E,1,07,1.5,553.5,M,,M,,*46
$GPRMC,171011.194,A,4837.8287,N,00857.4595,E,11.136175,149.841644,090506,,*38
$GPGLL,4837.8287,N,00857.4595,E,171011.194,A*35
$GPVTG,149.841644,T,,M,11.136175,N,20.623804,K*59
$GPGSA,A,3,,,,,,,,,,,,,2.5,1.5,,*33
$GPGGA,171020.193,4837.8035,N,00857.4829,E,1,07,1.5,553.0,M,,M,,*47
$GPRMC,171020.193,A,4837.8035,N,00857.4829,E,12.745385,144.887039,090506,,*3B
$GPGLL,4837.8035,N,00857.4829,E,171020.193,A*31
$GPVTG,144.887039,T,,M,12.745385,N,23.604004,K*50
$GPGSA,A,3,,,,,,,,,,,,,2.5,1.5,,*33
$GPGGA,171028.193,4837.7788,N,00857.5101,E,1,07,1.5,551.5,M,,M,,*44
$GPRMC,171028.193,A,4837.7788,N,00857.5101,E,14.673857,140.955368,090506,,*34
$GPGLL,4837.7788,N,00857.5101,E,171028.193,A*35
$GPVTG,140.955368,T,,M,14.673857,N,27.175467,K*5F
$GPGSA,A,3,,,,,,,,,,,,,2.5,1.5,,*33
$GPGGA,171035.192,4837.7561,N,00857.5397,E,1,07,1.5,548.8,M,,M,,*44
$GPRMC,171035.192,A,4837.7561,N,00857.5397,E,15.620845,138.304352,090506,,*3D
$GPGLL,4837.7561,N,00857.5397,E,171035.192,A*30
$GPVTG,138.304352,T,,M,15.620845,N,28.929256,K*59
$GPGSA,A,3,,,,,,,,,,,,,3.4,1.5,,*33
$GPGGA,171042.192,4837.7341,N,00857.5735,E,1,06,1.5,545.4,M,,M,,*4C
$GPRMC,171042.192,A,4837.7341,N,00857.5735,E,16.561166,130.953476,090506,,*39
$GPGLL,4837.7341,N,00857.5735,E,171042.192,A*38
