$GPGGA,161731.00,4837.0850,N,00850.3732,E,1,10,8.4,561.0,M,0.0,M,1.7,0000*75
$GPRMC,161731.00,A,4837.0850,N,00850.3732,E,014.0,328.0,180706,,*39
$GPVTG,328.0,T,,,014.0,N,026.0,K*25
$GPGSA,A,3,08,24,10,27,28,17,26,29,,,,,2.3,1.4,1.9*37
$GPGSV,3,1,10,08,80,088,42,10,67,252,42,27,47,062,41,29,43,290,39*75
$GPGSV,3,2,10,28,31,153,43,17,27,276,38,26,22,286,31,21,10,328,*7B
$GPGSV,3,3,10,13,09,100,,24,08,219,33*76
$GPGGA,161733.00,4837.0924,N,00850.3663,E,1,10,8.4,562.0,M,0.0,M,1.7,0000*73
$GPRMC,161733.00,A,4837.0924,N,00850.3663,E,013.5,329.0,180706,,*3F
$GPVTG,329.0,T,,,013.5,N,025.0,K*25
$GPGSA,A,3,08,24,10,27,28,17,26,29,,,,,2.3,1.4,1.9*37
$GPGSV,3,1,10,08,80,088,42,10,67,252,42,27,47,062,41,29,43,290,39*75
$GPGSV,3,2,10,28,31,153,43,17,27,276,38,26,22,286,31,21,10,328,*7B
$GPGSV,3,3,10,13,09,100,,24,08,219,33*76
$GPGGA,161735.00,4837.0984,N,00850.3612,E,1,10,8.4,562.0,M,0.0,M,1.7,0000*79
$GPRMC,161735.00,A,4837.0984,N,00850.3612,E,012.4,330.0,180706,,*3D
$GPVTG,330.0,T,,,012.4,N,023.0,K*2B
$GPGSA,A,3,08,24,10,27,28,17,26,29,,,,,2.3,1.4,1.9*37
$GPGSV,3,1,10,08,80,088,42,10,67,252,42,27,47,062,41,29,43,290,39*75
$GPGSV,3,2,10,28,31,153,43,17,27,276,38,26,22,286,31,21,10,328,*7B
$GPGSV,3,3,10,13,09,100,,24,08,219,33*76
$GPGGA,161737.00,4837.1042,N,00850.3558,E,1,10,8.4,562.0,M,0.0,M,1.7,0000*74
$GPRMC,161737.00,A,4837.1042,N,00850.3558,E,011.9,326.0,180706,,*39
$GPVTG,326.0,T,,,011.9,N,022.0,K*23
$GPGSA,A,3,08,24,10,27,28,17,26,29,,,,,2.3,1.4,1.9*37
$GPGSV,3,1,10,08,80,088,42,10,67,252,42,27,47,062,41,29,43,290,39*75
$GPGSV,3,2,10,28,31,153,43,17,27,276,38,26,22,286,31,21,10,328,*7B
$GPGSV,3,3,10,13,09,100,,24,08,219,33*76
$GPGGA,161739.00,4837.1096,N,00850.3502,E,1,10,8.4,561.0,M,0.0,M,1.7,0000*7F
$GPRMC,161739.00,A,4837.1096,N,00850.3502,E,011.9,327.0,180706,,*30
$GPVTG,327.0,T,,,011.9,N,022.0,K*22
$GPGSA,A,3,08,24,10,27,28,17,26,29,,,,,2.3,1.4,1.9*37
$GPGSV,3,1,10,08,80,088,42,10,67,252,42,27,47,062,41,29,43,290,39*75
$GPGSV,3,2,10,28,31,153,43,17,27,276,38,26,22,286,31,21,10,328,*7B
$GPGSV,3,3,10,13,09,100,,24,08,219,33*76
$GPGGA,161741.00,4837.1150,N,00850.3447,E,1,10,8.4,562.0,M,0.0,M,1.7,0000*78
$GPRMC,161741.00,A,4837.1150,N,00850.3447,E,011.3,324.0,180706,,*3D
$GPVTG,324.0,T,,,011.3,N,021.0,K*28
$GPGSA,A,3,08,24,10,27,28,17,26,29,,,,,2.3,1.4,1.9*37
$GPGSV,3,1,10,08,80,088,42,10,67,252,42,27,47,062,41,29,43,290,39*75
$GPGSV,3,2,10,28,31,153,43,17,27,276,38,26,22,286,31,21,10,328,*7B
$GPGSV,3,3,10,13,09,100,,24,08,219,33*76
$GPGGA,161743.00,4837.1201,N,00850.3390,E,1,10,8.4,562.0,M,0.0,M,1.7,0000*70
$GPRMC,161743.00,A,4837.1201,N,00850.3390,E,011.3,321.0,180706,,*30
$GPVTG,321.0,T,,,011.3,N,021.0,K*2D
$GPGSA,A,3,08,24,10,27,28,17,26,29,,,,,2.3,1.4,1.9*37
$GPGSV,3,1,10,08,80,088,42,10,67,252,42,27,47,062,41,29,43,290,39*75
$GPGSV,3,2,10,28,31,153,43,17,27,276,38,26,22,286,31,21,10,328,*7B
$GPGSV,3,3,10,13,09,100,,24,08,219,33*76
$GPGGA,161745.00,4837.1250,N,00850.3332,E,1,10,8.4,562.0,M,0.0,M,1.7,0000*7A
$GPRMC,161745.00,A,4837.1250,N,00850.3332,E,010.8,322.0,180706,,*33
$GPVTG,322.0,T,,,010.8,N,020.0,K*25
$GPGSA,A,3,08,24,10,27,28,17,26,29,,,,,2.3,1.4,1.9*37
$GPGSV,3,1,10,08,80,088,42,10,67,252,42,27,47,062,41,29,43,290,39*75
$GPGSV,3,2,10,28,31,153,43,17,27,276,38,26,22,286,31,21,10,328,*7B
$GPGSV,3,3,10,13,09,100,,24,08,219,33*76
$GPGGA,161747.00,4837.1299,N,00850.3278,E,1,10,8.4,562.0,M,0.0,M,1.7,0000*72
$GPRMC,161747.00,A,4837.1299,N,00850.3278,E,010.8,323.0,180706,,*3A
$GPVTG,323.0,T,,,010.8,N,020.0,K*24
$GPGSA,A,3,08,24,10,27,28,17,26,29,,,,,2.3,1.4,1.9*37
$GPGSV,3,1,10,08,80,088,42,10,67,252,42,27,47,062,41,29,43,290,39*75
$GPGSV,3,2,10,28,31,153,43,17,27,276,38,26,22,286,31,21,10,328,*7B
$GPGSV,3,3,10,13,09,100,,24,08,219,33*76
$GPGGA,161749.00,4837.1344,N,00850.3223,E,1,10,8.4,563.0,M,0.0,M,1.7,0000*72
$GPRMC,161749.00,A,4837.1344,N,00850.3223,E,010.3,319.0,180706,,*39
$GPVTG,319.0,T,,,010.3,N,019.0,K*2C
$GPGSA,A,3,08,24,10,27,28,17,26,29,,,,,2.3,1.4,1.9*37
$GPGSV,3,1,10,08,80,088,42,10,67,252,42,27,47,062,41,29,43,290,39*75
$GPGSV,3,2,10,28,31,153,43,17,27,276,38,26,22,286,31,21,10,328,*7B
$GPGSV,3,3,10,13,09,100,,24,08,219,33*76
$GPGGA,161751.00,4837.1384,N,00850.3165,E,1,10,8.4,564.0,M,0.0,M,1.7,0000*71
$GPRMC,161751.00,A,4837.1384,N,00850.3165,E,009.7,316.0,180706,,*3E
$GPVTG,316.0,T,,,009.7,N,018.0,K*2E
$GPGSA,A,3,08,24,10,27,28,17,26,29,,,,,2.3,1.4,1.9*37
$GPGSV,3,1,10,08,80,088,42,10,67,252,42,27,47,062,41,29,43,290,39*75
$GPGSV,3,2,10,28,31,153,43,17,27,276,38,26,22,286,31,21,10,328,*7B
$GPGSV,3,3,10,13,09,100,,24,08,219,33*76
$GPGGA,161753.00,4837.1422,N,00850.3107,E,1,10,8.4,564.0,M,0.0,M,1.7,0000*7C
$GPRMC,161753.00,A,4837.1422,N,00850.3107,E,009.2,318.0,180706,,*38
$GPVTG,318.0,T,,,009.2,N,017.0,K*2A
$GPGSA,A,3,08,24,10,27,28,17,26,29,,,,,2.3,1.4,1.9*37
$GPGSV,3,1,10,08,80,088,42,10,67,252,42,27,47,062,41,29,43,290,39*75
$GPGSV,3,2,10,28,31,153,43,17,27,276,38,26,22,286,31,21,10,328,*7B
$GPGSV,3,3,10,13,09,100,,24,08,219,33*76
$GPGGA,161756.00,4837.1479,N,00850.3029,E,1,10,8.4,565.0,M,0.0,M,1.7,0000*7B
$GPRMC,161756.00,A,4837.1479,N,00850.3029,E,008.6,319.0,180706,,*3A
$GPVTG,319.0,T,,,008.6,N,016.0,K*2F
$GPGSA,A,3,08,24,10,27,28,17,26,29,,,,,2.3,1.4,1.9*37
$GPGSV,3,1,10,08,80,088,42,10,67,252,42,27,47,062,41,29,43,290,39*75
$GPGSV,3,2,10,28,31,153,43,17,27,276,38,26,22,286,31,21,10,328,*7B
$GPGSV,3,3,10,13,09,100,,24,08,219,33*76
$GPGGA,161759.00,4837.1531,N,00850.2952,E,1,10,8.4,567.0,M,0.0,M,1.7,0000*7F
$GPRMC,161759.00,A,4837.1531,N,00850.2952,E,009.2,317.0,180706,,*37
$GPVTG,317.0,T,,,009.2,N,017.0,K*25
$GPGSA,A,3,08,24,10,27,28,17,26,29,,,,,2.3,1.4,1.9*37
$GPGSV,3,1,10,08,80,088,42,10,67,252,42,27,47,062,41,29,43,290,39*75
$GPGSV,3,2,10,28,31,153,43,17,27,276,38,26,22,286,31,21,10,328,*7B
$GPGSV,3,3,10,13,09,100,,24,08,219,33*76
$GPGGA,161802.00,4837.1589,N,00850.2885,E,1,10,8.4,0.0,M,0.0,M,1.7,0000*72
$GPRMC,161802.00,A,4837.1589,N,00850.2885,E,008.6,319.0,180706,,*35
$GPVTG,319.0,T,,,008.6,N,016.0,K*2F
$GPGSA,A,3,08,24,10,27,28,17,26,29,,,,,2.3,1.4,1.9*37
$GPGSV,3,1,10,08,80,088,42,10,67,252,42,27,47,062,41,29,43,290,39*75
$GPGSV,3,2,10,28,31,153,43,17,27,276,38,26,22,286,31,21,10,328,*7B
$GPGSV,3,3,10,13,09,100,,24,08,219,33*76
$GPGGA,161805.00,4837.1647,N,00850.2808,E,1,10,8.4,570.0,M,0.0,M,1.7,0000*73
$GPRMC,161805.00,A,4837.1647,N,00850.2808,E,008.6,319.0,180706,,*36
$GPVTG,319.0,T,,,008.6,N,016.0,K*2F
$GPGSA,A,3,08,24,10,27,28,17,26,29,,,,,2.3,1.4,1.9*37
$GPGSV,3,1,10,08,80,088,42,10,67,252,42,27,47,062,41,29,43,290,39*75
$GPGSV,3,2,10,28,31,153,43,17,27,276,38,26,22,286,31,21,10,328,*7B
$GPGSV,3,3,10,13,09,100,,24,08,219,33*76
$GPGGA,161808.00,4837.1704,N,00850.2738,E,1,10,8.4,570.0,M,0.0,M,1.7,0000*74
$GPRMC,161808.00,A,4837.1704,N,00850.2738,E,008.6,324.0,180706,,*3F
$GPVTG,324.0,T,,,008.6,N,016.0,K*21
$GPGSA,A,3,08,24,10,27,28,17,26,29,,,,,2.3,1.4,1.9*37
$GPGSV,3,1,10,08,80,088,42,10,67,252,42,27,47,062,41,29,43,290,39*75
$GPGSV,3,2,10,28,31,153,43,17,27,276,38,26,22,286,31,21,10,328,*7B
$GPGSV,3,3,10,13,09,100,,24,08,219,33*76
$GPGGA,161811.00,4837.1763,N,00850.2667,E,1,10,8.4,570.0,M,0.0,M,1.7,0000*76
$GPRMC,161811.00,A,4837.1763,N,00850.2667,E,008.6,322.0,180706,,*3B
$GPVTG,322.0,T,,,008.6,N,016.0,K*27
$GPGSA,A,3,08,24,10,27,28,17,26,29,,,,,2.3,1.4,1.9*37
$GPGSV,3,1,10,08,80,088,42,10,67,252,42,27,47,062,41,29,43,290,39*75
$GPGSV,3,2,10,28,31,153,43,17,27,276,38,26,22,286,31,21,10,328,*7B
$GPGSV,3,3,10,13,09,100,,24,08,219,33*76
$GPGGA,161814.00,4837.1825,N,00850.2601,E,1,10,8.4,570.0,M,0.0,M,1.7,0000*7E
$GPRMC,161814.00,A,4837.1825,N,00850.2601,E,008.6,326.0,180706,,*37
$GPVTG,326.0,T,,,008.6,N,016.0,K*23
$GPGSA,A,3,08,24,10,27,28,17,26,29,,,,,2.3,1.4,1.9*37
$GPGSV,3,1,10,08,80,088,42,10,67,252,42,27,47,062,41,29,43,290,39*75
$GPGSV,3,2,10,28,31,153,43,17,27,276,38,26,22,286,31,21,10,328,*7B
$GPGSV,3,3,10,13,09,100,,24,08,219,33*76
$GPGGA,161817.00,4837.1886,N,00850.2534,E,1,10,8.4,571.0,M,0.0,M,1.7,0000*70
$GPRMC,161817.00,A,4837.1886,N,00850.2534,E,008.6,324.0,180706,,*3A
$GPVTG,324.0,T,,,008.6,N,016.0,K*21
$GPGSA,A,3,08,24,10,27,28,17,26,29,,,,,2.3,1.4,1.9*37
$GPGSV,3,1,10,08,80,088,42,10,67,252,42,27,47,062,41,29,43,290,39*75
$GPGSV,3,2,10,28,31,153,43,17,27,276,38,26,22,286,31,21,10,328,*7B
$GPGSV,3,3,10,13,09,100,,24,08,219,33*76
$GPGGA,161820.00,4837.1949,N,00850.2465,E,1,10,8.4,571.0,M,0.0,M,1.7,0000*73
$GPRMC,161820.00,A,4837.1949,N,00850.2465,E,009.2,325.0,180706,,*3D
$GPVTG,325.0,T,,,009.2,N,017.0,K*24
$GPGSA,A,3,08,24,10,27,28,17,26,29,,,,,2.3,1.4,1.9*37
$GPGSV,3,1,10,08,80,088,42,10,67,252,42,27,47,062,41,29,43,290,39*75
$GPGSV,3,2,10,28,31,153,43,17,27,276,38,26,22,286,31,21,10,328,*7B
$GPGSV,3,3,10,13,09,100,,24,08,219,33*76
$GPGGA,161823.00,4837.2014,N,00850.2398,E,1,10,8.4,571.0,M,0.0,M,1.7,0000*77
$GPRMC,161823.00,A,4837.2014,N,00850.2398,E,009.2,326.0,180706,,*3A
$GPVTG,326.0,T,,,009.2,N,017.0,K*27
$GPGSA,A,3,08,24,10,27,28,17,26,29,,,,,2.3,1.4,1.9*37
$GPGSV,3,1,10,08,80,088,42,10,67,252,42,27,47,062,41,29,43,290,39*75
$GPGSV,3,2,10,28,31,153,43,17,27,276,38,26,22,286,31,21,10,328,*7B
$GPGSV,3,3,10,13,09,100,,24,08,219,33*76
$GPGGA,161826.00,4837.2077,N,00850.2330,E,1,10,8.4,572.0,M,0.0,M,1.7,0000*76
$GPRMC,161826.00,A,4837.2077,N,00850.2330,E,008.6,320.0,180706,,*3B
$GPVTG,320.0,T,,,008.6,N,016.0,K*25
$GPGSA,A,3,08,24,10,27,28,17,26,29,,,,,2.3,1.4,1.9*37
$GPGSV,3,1,10,08,80,088,42,10,67,252,42,27,47,062,41,29,43,290,39*75
$GPGSV,3,2,10,28,31,153,43,17,27,276,38,26,22,286,31,21,10,328,*7B
$GPGSV,3,3,10,13,09,100,,24,08,219,33*76
$GPGGA,161829.00,4837.2135,N,00850.2262,E,1,10,8.4,572.0,M,0.0,M,1.7,0000*78
$GPRMC,161829.00,A,4837.2135,N,00850.2262,E,008.6,323.0,180706,,*36
$GPVTG,323.0,T,,,008.6,N,016.0,K*26
$GPGSA,A,3,08,24,10,27,28,17,26,29,,,,,2.3,1.4,1.9*37
$GPGSV,3,1,10,08,80,088,42,10,67,252,42,27,47,062,41,29,43,290,39*75
$GPGSV,3,2,10,28,31,153,43,17,27,276,38,26,22,286,31,21,10,328,*7B
$GPGSV,3,3,10,13,09,100,,24,08,219,33*76
$GPGGA,161832.00,4837.2190,N,00850.2192,E,1,10,8.4,572.0,M,0.0,M,1.7,0000*71
$GPRMC,161832.00,A,4837.2190,N,00850.2192,E,008.1,320.0,180706,,*3B
$GPVTG,320.0,T,,,008.1,N,015.0,K*21
$GPGSA,A,3,08,24,10,27,28,17,26,29,,,,,2.3,1.4,1.9*37
$GPGSV,3,1,10,08,80,088,42,10,67,252,42,27,47,062,41,29,43,290,39*75
$GPGSV,3,2,10,28,31,153,43,17,27,276,38,26,22,286,31,21,10,328,*7B
$GPGSV,3,3,10,13,09,100,,24,08,219,33*76
$GPGGA,161835.00,4837.2241,N,00850.2120,E,1,10,8.4,572.0,M,0.0,M,1.7,0000*70
$GPRMC,161835.00,A,4837.2241,N,00850.2120,E,008.1,317.0,180706,,*3E
$GPVTG,317.0,T,,,008.1,N,015.0,K*25
$GPGSA,A,3,08,24,10,27,28,17,26,29,,,,,2.3,1.4,1.9*37
$GPGSV,3,1,10,08,80,088,42,10,67,252,42,27,47,062,41,29,43,290,39*75
$GPGSV,3,2,10,28,31,153,43,17,27,276,38,26,22,286,31,21,10,328,*7B
$GPGSV,3,3,10,13,09,100,,24,08,219,33*76
$GPGGA,161838.00,4837.2293,N,00850.2046,E,1,10,8.4,573.0,M,0.0,M,1.7,0000*72
$GPRMC,161838.00,A,4837.2293,N,00850.2046,E,007.6,315.0,180706,,*37
$GPVTG,315.0,T,,,007.6,N,014.0,K*2E
$GPGSA,A,3,08,24,10,27,28,17,26,29,,,,,2.3,1.4,1.9*37
$GPGSV,3,1,10,08,80,088,42,10,67,252,42,27,47,062,41,29,43,290,39*75
$GPGSV,3,2,10,28,31,153,43,17,27,276,38,26,22,286,31,21,10,328,*7B
$GPGSV,3,3,10,13,09,100,,24,08,219,33*76
$GPGGA,161841.00,4837.2327,N,00850.1971,E,1,10,8.4,573.0,M,0.0,M,1.7,0000*7C
$GPRMC,161841.00,A,4837.2327,N,00850.1971,E,006.5,274.0,180706,,*3D
$GPVTG,274.0,T,,,006.5,N,012.0,K*2C
$GPGSA,A,3,08,24,10,27,28,17,26,29,,,,,2.3,1.4,1.9*37
$GPGSV,3,1,10,08,80,088,42,10,67,252,42,27,47,062,41,29,43,290,39*75
$GPGSV,3,2,10,28,31,153,43,17,27,276,38,26,22,286,31,21,10,328,*7B
$GPGSV,3,3,10,13,09,100,,24,08,219,33*76
$GPGGA,161843.00,4837.2291,N,00850.1895,E,1,10,8.4,572.0,M,0.0,M,1.7,0000*78
$GPRMC,161843.00,A,4837.2291,N,00850.1895,E,008.1,214.0,180706,,*34
$GPVTG,214.0,T,,,008.1,N,015.0,K*27
$GPGSA,A,3,08,24,10,27,28,17,26,29,,,,,2.3,1.4,1.9*37
$GPGSV,3,1,10,08,80,088,42,10,67,252,42,27,47,062,41,29,43,290,39*75
$GPGSV,3,2,10,28,31,153,43,17,27,276,38,26,22,286,31,21,10,328,*7B
$GPGSV,3,3,10,13,09,100,,24,08,219,33*76
$GPGGA,161846.00,4837.2229,N,00850.1838,E,1,10,8.4,571.0,M,0.0,M,1.7,0000*7A
$GPRMC,161846.00,A,4837.2229,N,00850.1838,E,008.6,212.0,180706,,*34
$GPVTG,212.0,T,,,008.6,N,016.0,K*25
$GPGSA,A,3,08,24,10,27,28,17,26,29,,,,,2.3,1.4,1.9*37
$GPGSV,3,1,10,08,80,088,42,10,67,252,42,27,47,062,41,29,43,290,39*75
$GPGSV,3,2,10,28,31,153,43,17,27,276,38,26,22,286,31,21,10,328,*7B
$GPGSV,3,3,10,13,09,100,,24,08,219,33*76
$GPGGA,161849.00,4837.2167,N,00850.1775,E,1,10,8.4,572.0,M,0.0,M,1.7,0000*79
$GPRMC,161849.00,A,4837.2167,N,00850.1775,E,008.6,225.0,180706,,*30
$GPVTG,225.0,T,,,008.6,N,016.0,K*21
$GPGSA,A,3,08,24,10,27,28,17,26,29,,,,,2.3,1.4,1.9*37
$GPGSV,3,1,10,08,80,088,42,10,67,252,42,27,47,062,41,29,43,290,39*75
$GPGSV,3,2,10,28,31,153,43,17,27,276,38,26,22,286,31,21,10,328,*7B
$GPGSV,3,3,10,13,09,100,,24,08,219,33*76
$GPGGA,161852.00,4837.2140,N,00850.1677,E,1,10,8.4,574.0,M,0.0,M,1.7,0000*73
$GPRMC,161852.00,A,4837.2140,N,00850.1677,E,008.1,274.0,180706,,*3F
$GPVTG,274.0,T,,,008.1,N,015.0,K*21
$GPGSA,A,3,08,24,10,27,28,17,26,29,,,,,2.3,1.4,1.9*37
$GPGSV,3,1,10,08,80,088,42,10,67,252,42,27,47,062,41,29,43,290,39*75
$GPGSV,3,2,10,28,31,153,43,17,27,276,38,26,22,286,31,21,10,328,*7B
$GPGSV,3,3,10,13,09,100,,24,08,219,33*76
$GPGGA,161855.00,4837.2157,N,00850.1568,E,1,10,8.4,574.0,M,0.0,M,1.7,0000*7F
$GPRMC,161855.00,A,4837.2157,N,00850.1568,E,008.6,293.0,180706,,*3D
$GPVTG,293.0,T,,,008.6,N,016.0,K*2C
$GPGSA,A,3,08,24,10,27,28,17,26,29,,,,,2.3,1.4,1.9*37
$GPGSV,3,1,10,08,80,088,42,10,67,252,42,27,47,062,41,29,43,290,39*75
$GPGSV,3,2,10,28,31,153,43,17,27,276,38,26,22,286,31,21,10,328,*7B
$GPGSV,3,3,10,13,09,100,,24,08,219,33*76
$GPGGA,161858.00,4837.2193,N,00850.1479,E,1,10,8.4,573.0,M,0.0,M,1.7,0000*7C
$GPRMC,161858.00,A,4837.2193,N,00850.1479,E,007.0,302.0,180706,,*39
$GPVTG,302.0,T,,,007.0,N,013.0,K*29
$GPGSA,A,3,08,24,10,27,28,17,26,29,,,,,2.3,1.4,1.9*37
$GPGSV,3,1,10,08,80,088,42,10,67,252,42,27,47,062,41,29,43,290,39*75
$GPGSV,3,2,10,28,31,153,43,17,27,276,38,26,22,286,31,21,10,328,*7B
$GPGSV,3,3,10,13,09,100,,24,08,219,33*76
$GPGGA,161902.00,4837.2236,N,00850.1418,E,1,10,8.4,572.0,M,0.0,M,1.7,0000*78
$GPRMC,161902.00,A,4837.2236,N,00850.1418,E,001.1,313.0,180706,,*3B
$GPVTG,313.0,T,,,001.1,N,002.0,K*2E
$GPGSA,A,3,08,24,10,27,28,17,26,29,,,,,2.3,1.4,1.9*37
$GPGSV,3,1,10,08,80,088,42,10,67,252,42,27,47,062,41,29,43,290,39*75
$GPGSV,3,2,10,28,31,153,43,17,27,276,38,26,22,286,31,21,10,328,*7B
$GPGSV,3,3,10,13,09,100,,24,08,219,33*76
$GPGGA,162304.00,4837.2196,N,00850.1361,E,1,10,8.4,577.0,M,0.0,M,1.7,0000*72
$GPRMC,162304.00,A,4837.2196,N,00850.1361,E,000.0,313.0,180706,,*34
$GPVTG,313.0,T,,,000.0,N,000.0,K*2C
$GPGSA,A,3,08,24,10,27,28,17,26,29,,,,,2.3,1.4,1.9*37
$GPGSV,3,1,10,08,80,088,42,10,67,252,42,27,47,062,41,29,43,290,39*75
$GPGSV,3,2,10,28,31,153,43,17,27,276,38,26,22,286,31,21,10,328,*7B
$GPGSV,3,3,10,13,09,100,,24,08,219,33*76
$GPGGA,162352.00,4837.2153,N,00850.1313,E,1,10,8.4,585.0,M,0.0,M,1.7,0000*70
$GPRMC,162352.00,A,4837.2153,N,00850.1313,E,000.0,313.0,180706,,*3B
$GPVTG,313.0,T,,,000.0,N,000.0,K*2C
$GPGSA,A,3,08,24,10,27,28,17,26,29,,,,,2.3,1.4,1.9*37
$GPGSV,3,1,10,08,80,088,42,10,67,252,42,27,47,062,41,29,43,290,39*75
$GPGSV,3,2,10,28,31,153,43,17,27,276,38,26,22,286,31,21,10,328,*7B
$GPGSV,3,3,10,13,09,100,,24,08,219,33*76
$GPGGA,162418.00,4837.2200,N,00850.1362,E,1,10,8.4,577.0,M,0.0,M,1.7,0000*77
$GPRMC,162418.00,A,4837.2200,N,00850.1362,E,000.0,313.0,180706,,*31
$GPVTG,313.0,T,,,000.0,N,000.0,K*2C
$GPGSA,A,3,08,24,10,27,28,17,26,29,,,,,2.3,1.4,1.9*37
$GPGSV,3,1,10,08,80,088,42,10,67,252,42,27,47,062,41,29,43,290,39*75
$GPGSV,3,2,10,28,31,153,43,17,27,276,38,26,22,286,31,21,10,328,*7B
$GPGSV,3,3,10,13,09,100,,24,08,219,33*76
$GPGGA,162504.00,4837.2152,N,00850.1311,E,1,10,8.4,596.0,M,0.0,M,1.7,0000*74
$GPRMC,162504.00,A,4837.2152,N,00850.1311,E,000.0,313.0,180706,,*3D
$GPVTG,313.0,T,,,000.0,N,000.0,K*2C
$GPGSA,A,3,08,24,10,27,28,17,26,29,,,,,2.3,1.4,1.9*37
$GPGSV,3,1,10,08,80,088,42,10,67,252,42,27,47,062,41,29,43,290,39*75
$GPGSV,3,2,10,28,31,153,43,17,27,276,38,26,22,286,31,21,10,328,*7B
$GPGSV,3,3,10,13,09,100,,24,08,219,33*76
$GPGGA,162546.00,4837.2194,N,00850.1366,E,1,10,8.4,582.0,M,0.0,M,1.7,0000*7D
$GPRMC,162546.00,A,4837.2194,N,00850.1366,E,000.0,313.0,180706,,*31
$GPVTG,313.0,T,,,000.0,N,000.0,K*2C
$GPGSA,A,3,08,24,10,27,28,17,26,29,,,,,2.3,1.4,1.9*37
$GPGSV,3,1,10,08,80,088,42,10,67,252,42,27,47,062,41,29,43,290,39*75
$GPGSV,3,2,10,28,31,153,43,17,27,276,38,26,22,286,31,21,10,328,*7B
$GPGSV,3,3,10,13,09,100,,24,08,219,33*76
$GPGGA,162608.00,4837.2227,N,00850.1431,E,1,10,8.4,582.0,M,0.0,M,1.7,0000*7A
$GPRMC,162608.00,A,4837.2227,N,00850.1431,E,000.0,313.0,180706,,*36
$GPVTG,313.0,T,,,000.0,N,000.0,K*2C
$GPGSA,A,3,08,24,10,27,28,17,26,29,,,,,2.3,1.4,1.9*37
$GPGSV,3,1,10,08,80,088,42,10,67,252,42,27,47,062,41,29,43,290,39*75
$GPGSV,3,2,10,28,31,153,43,17,27,276,38,26,22,286,31,21,10,328,*7B
$GPGSV,3,3,10,13,09,100,,24,08,219,33*76
$GPGGA,162646.00,4837.2182,N,00850.1383,E,1,10,8.4,584.0,M,0.0,M,1.7,0000*74
$GPRMC,162646.00,A,4837.2182,N,00850.1383,E,000.0,313.0,180706,,*3E
$GPVTG,313.0,T,,,000.0,N,000.0,K*2C
$GPGSA,A,3,08,24,10,27,28,17,26,29,,,,,2.3,1.4,1.9*37
$GPGSV,3,1,10,08,80,088,42,10,67,252,42,27,47,062,41,29,43,290,39*75
$GPGSV,3,2,10,28,31,153,43,17,27,276,38,26,22,286,31,21,10,328,*7B
$GPGSV,3,3,10,13,09,100,,24,08,219,33*76
$GPGGA,162729.00,4837.2196,N,00850.1465,E,1,10,8.4,585.0,M,0.0,M,1.7,0000*77
$GPRMC,162729.00,A,4837.2196,N,00850.1465,E,000.0,313.0,180706,,*3C
$GPVTG,313.0,T,,,000.0,N,000.0,K*2C
$GPGSA,A,3,08,24,10,27,28,17,26,29,,,,,2.3,1.4,1.9*37
$GPGSV,3,1,10,08,80,088,42,10,67,252,42,27,47,062,41,29,43,290,39*75
$GPGSV,3,2,10,28,31,153,43,17,27,276,38,26,22,286,31,21,10,328,*7B
$GPGSV,3,3,10,13,09,100,,24,08,219,33*76
$GPGGA,162923.00,4837.2194,N,00850.1383,E,1,10,8.4,577.0,M,0.0,M,1.7,0000*73
$GPRMC,162923.00,A,4837.2194,N,00850.1383,E,000.0,313.0,180706,,*35
$GPVTG,313.0,T,,,000.0,N,000.0,K*2C
$GPGSA,A,3,08,24,10,27,28,17,26,29,,,,,2.3,1.4,1.9*37
$GPGSV,3,1,10,08,80,088,42,10,67,252,42,27,47,062,41,29,43,290,39*75
$GPGSV,3,2,10,28,31,153,43,17,27,276,38,26,22,286,31,21,10,328,*7B
$GPGSV,3,3,10,13,09,100,,24,08,219,33*76
$GPGGA,162941.00,4837.2246,N,00850.1418,E,1,10,8.4,562.0,M,0.0,M,1.7,0000*7A
$GPRMC,162941.00,A,4837.2246,N,00850.1418,E,000.0,313.0,180706,,*38
$GPVTG,313.0,T,,,000.0,N,000.0,K*2C
$GPGSA,A,3,08,24,10,27,28,17,26,29,,,,,2.3,1.4,1.9*37
$GPGSV,3,1,10,08,80,088,42,10,67,252,42,27,47,062,41,29,43,290,39*75
$GPGSV,3,2,10,28,31,153,43,17,27,276,38,26,22,286,31,21,10,328,*7B
$GPGSV,3,3,10,13,09,100,,24,08,219,33*76
$GPGGA,162955.00,4837.2290,N,00850.1470,E,1,10,8.4,554.0,M,0.0,M,1.7,0000*7F
$GPRMC,162955.00,A,4837.2290,N,00850.1470,E,000.0,313.0,180706,,*38
$GPVTG,313.0,T,,,000.0,N,000.0,K*2C
$GPGSA,A,3,08,24,10,27,28,17,26,29,,,,,2.3,1.4,1.9*37
$GPGSV,3,1,10,08,80,088,42,10,67,252,42,27,47,062,41,29,43,290,39*75
$GPGSV,3,2,10,28,31,153,43,17,27,276,38,26,22,286,31,21,10,328,*7B
$GPGSV,3,3,10,13,09,100,,24,08,219,33*76
$GPGGA,163022.00,4837.2251,N,00850.1412,E,1,10,8.4,568.0,M,0.0,M,1.7,0000*71
$GPRMC,163022.00,A,4837.2251,N,00850.1412,E,000.0,313.0,180706,,*39
$GPVTG,313.0,T,,,000.0,N,000.0,K*2C
$GPGSA,A,3,08,24,10,27,28,17,26,29,,,,,2.3,1.4,1.9*37
$GPGSV,3,1,10,08,80,088,42,10,67,252,42,27,47,062,41,29,43,290,39*75
$GPGSV,3,2,10,28,31,153,43,17,27,276,38,26,22,286,31,21,10,328,*7B
$GPGSV,3,3,10,13,09,100,,24,08,219,33*76
$GPGGA,163402.00,4837.2269,N,00850.1329,E,1,10,8.4,568.0,M,0.0,M,1.7,0000*73
$GPRMC,163402.00,A,4837.2269,N,00850.1329,E,003.2,304.0,180706,,*3C
$GPVTG,304.0,T,,,003.2,N,006.0,K*2D
$GPGSA,A,3,08,24,10,27,28,17,26,29,,,,,2.3,1.4,1.9*37
$GPGSV,3,1,10,08,80,088,42,10,67,252,42,27,47,062,41,29,43,290,39*75
$GPGSV,3,2,10,28,31,153,43,17,27,276,38,26,22,286,31,21,10,328,*7B
$GPGSV,3,3,10,13,09,100,,24,08,219,33*76
$GPGGA,163407.00,4837.2308,N,00850.1259,E,1,10,8.4,570.0,M,0.0,M,1.7,0000*7F
$GPRMC,163407.00,A,4837.2308,N,00850.1259,E,003.8,302.0,180706,,*35
$GPVTG,302.0,T,,,003.8,N,007.0,K*20
$GPGSA,A,3,08,24,10,27,28,17,26,29,,,,,2.3,1.4,1.9*37
$GPGSV,3,1,10,08,80,088,42,10,67,252,42,27,47,062,41,29,43,290,39*75
$GPGSV,3,2,10,28,31,153,43,17,27,276,38,26,22,286,31,21,10,328,*7B
$GPGSV,3,3,10,13,09,100,,24,08,219,33*76
$GPGGA,163412.00,4837.2348,N,00850.1183,E,1,10,8.4,570.0,M,0.0,M,1.7,0000*7B
$GPRMC,163412.00,A,4837.2348,N,00850.1183,E,004.3,318.0,180706,,*36
$GPVTG,318.0,T,,,004.3,N,008.0,K*28
$GPGSA,A,3,08,24,10,27,28,17,26,29,,,,,2.3,1.4,1.9*37
$GPGSV,3,1,10,08,80,088,42,10,67,252,42,27,47,062,41,29,43,290,39*75
$GPGSV,3,2,10,28,31,153,43,17,27,276,38,26,22,286,31,21,10,328,*7B
$GPGSV,3,3,10,13,09,100,,24,08,219,33*76
$GPGGA,163417.00,4837.2385,N,00850.1098,E,1,10,8.4,570.0,M,0.0,M,1.7,0000*74
$GPRMC,163417.00,A,4837.2385,N,00850.1098,E,004.3,295.0,180706,,*3D
$GPVTG,295.0,T,,,004.3,N,008.0,K*2C
$GPGSA,A,3,08,24,10,27,28,17,26,29,,,,,2.3,1.4,1.9*37
$GPGSV,3,1,10,08,80,088,42,10,67,252,42,27,47,062,41,29,43,290,39*75
$GPGSV,3,2,10,28,31,153,43,17,27,276,38,26,22,286,31,21,10,328,*7B
$GPGSV,3,3,10,13,09,100,,24,08,219,33*76
$GPGGA,163422.00,4837.2426,N,00850.1016,E,1,10,8.4,571.0,M,0.0,M,1.7,0000*7B
$GPRMC,163422.00,A,4837.2426,N,00850.1016,E,004.9,314.0,180706,,*31
$GPVTG,314.0,T,,,004.9,N,009.0,K*2F
$GPGSA,A,3,08,24,10,27,28,17,26,29,,,,,2.3,1.4,1.9*37
$GPGSV,3,1,10,08,80,088,42,10,67,252,42,27,47,062,41,29,43,290,39*75
$GPGSV,3,2,10,28,31,153,43,17,27,276,38,26,22,286,31,21,10,328,*7B
$GPGSV,3,3,10,13,09,100,,24,08,219,33*76
$GPGGA,163426.00,4837.2465,N,00850.0954,E,1,10,8.4,571.0,M,0.0,M,1.7,0000*76
$GPRMC,163426.00,A,4837.2465,N,00850.0954,E,004.9,311.0,180706,,*39
$GPVTG,311.0,T,,,004.9,N,009.0,K*2A
$GPGSA,A,3,08,24,10,27,28,17,26,29,,,,,2.3,1.4,1.9*37
$GPGSV,3,1,10,08,80,088,42,10,67,252,42,27,47,062,41,29,43,290,39*75
$GPGSV,3,2,10,28,31,153,43,17,27,276,38,26,22,286,31,21,10,328,*7B
$GPGSV,3,3,10,13,09,100,,24,08,219,33*76
$GPGGA,163430.00,4837.2500,N,00850.0891,E,1,10,8.4,571.0,M,0.0,M,1.7,0000*7B
$GPRMC,163430.00,A,4837.2500,N,00850.0891,E,004.9,306.0,180706,,*32
$GPVTG,306.0,T,,,004.9,N,009.0,K*2C
$GPGSA,A,3,08,24,10,27,28,17,26,29,,,,,2.3,1.4,1.9*37
$GPGSV,3,1,10,08,80,088,42,10,67,252,42,27,47,062,41,29,43,290,39*75
$GPGSV,3,2,10,28,31,153,43,17,27,276,38,26,22,286,31,21,10,328,*7B
$GPGSV,3,3,10,13,09,100,,24,08,219,33*76
$GPGGA,163434.00,4837.2538,N,00850.0817,E,1,10,8.4,571.0,M,0.0,M,1.7,0000*7A
$GPRMC,163434.00,A,4837.2538,N,00850.0817,E,005.9,315.0,180706,,*30
$GPVTG,315.0,T,,,005.9,N,011.0,K*26
$GPGSA,A,3,08,24,10,27,28,17,26,29,,,,,2.3,1.4,1.9*37
$GPGSV,3,1,10,08,80,088,42,10,67,252,42,27,47,062,41,29,43,290,39*75
$GPGSV,3,2,10,28,31,153,43,17,27,276,38,26,22,286,31,21,10,328,*7B
$GPGSV,3,3,10,13,09,100,,24,08,219,33*76
$GPGGA,163438.00,4837.2581,N,00850.0740,E,1,10,8.4,572.0,M,0.0,M,1.7,0000*7A
$GPRMC,163438.00,A,4837.2581,N,00850.0740,E,005.4,310.0,180706,,*3B
$GPVTG,310.0,T,,,005.4,N,010.0,K*2F
$GPGSA,A,3,08,24,10,27,28,17,26,29,,,,,2.3,1.4,1.9*37
$GPGSV,3,1,10,08,80,088,42,10,67,252,42,27,47,062,41,29,43,290,39*75
$GPGSV,3,2,10,28,31,153,43,17,27,276,38,26,22,286,31,21,10,328,*7B
$GPGSV,3,3,10,13,09,100,,24,08,219,33*76
$GPGGA,163442.00,4837.2625,N,00850.0657,E,1,10,8.4,573.0,M,0.0,M,1.7,0000*7C
$GPRMC,163442.00,A,4837.2625,N,00850.0657,E,005.9,305.0,180706,,*35
$GPVTG,305.0,T,,,005.9,N,011.0,K*27
$GPGSA,A,3,08,24,10,27,28,17,26,29,,,,,2.3,1.4,1.9*37
$GPGSV,3,1,10,08,80,088,42,10,67,252,42,27,47,062,41,29,43,290,39*75
$GPGSV,3,2,10,28,31,153,43,17,27,276,38,26,22,286,31,21,10,328,*7B
$GPGSV,3,3,10,13,09,100,,24,08,219,33*76
$GPGGA,163446.00,4837.2668,N,00850.0572,E,1,10,8.4,574.0,M,0.0,M,1.7,0000*72
$GPRMC,163446.00,A,4837.2668,N,00850.0572,E,006.5,310.0,180706,,*37
$GPVTG,310.0,T,,,006.5,N,012.0,K*2F
$GPGSA,A,3,08,24,10,27,28,17,26,29,,,,,2.3,1.4,1.9*37
$GPGSV,3,1,10,08,80,088,42,10,67,252,42,27,47,062,41,29,43,290,39*75
$GPGSV,3,2,10,28,31,153,43,17,27,276,38,26,22,286,31,21,10,328,*7B
$GPGSV,3,3,10,13,09,100,,24,08,219,33*76
$GPGGA,163449.00,4837.2705,N,00850.0511,E,1,10,8.4,574.0,M,0.0,M,1.7,0000*72
$GPRMC,163449.00,A,4837.2705,N,00850.0511,E,005.9,310.0,180706,,*38
$GPVTG,310.0,T,,,005.9,N,011.0,K*23
$GPGSA,A,3,08,24,10,27,28,17,26,29,,,,,2.3,1.4,1.9*37
$GPGSV,3,1,10,08,80,088,42,10,67,252,42,27,47,062,41,29,43,290,39*75
$GPGSV,3,2,10,28,31,153,43,17,27,276,38,26,22,286,31,21,10,328,*7B
$GPGSV,3,3,10,13,09,100,,24,08,219,33*76
$GPGGA,163452.00,4837.2739,N,00850.0447,E,1,10,8.4,575.0,M,0.0,M,1.7,0000*74
$GPRMC,163452.00,A,4837.2739,N,00850.0447,E,006.5,305.0,180706,,*34
$GPVTG,305.0,T,,,006.5,N,012.0,K*2B
$GPGSA,A,3,08,24,10,27,28,17,26,29,,,,,2.3,1.4,1.9*37
$GPGSV,3,1,10,08,80,088,42,10,67,252,42,27,47,062,41,29,43,290,39*75
$GPGSV,3,2,10,28,31,153,43,17,27,276,38,26,22,286,31,21,10,328,*7B
$GPGSV,3,3,10,13,09,100,,24,08,219,33*76
$GPGGA,163455.00,4837.2777,N,00850.0379,E,1,10,8.4,574.0,M,0.0,M,1.7,0000*72
$GPRMC,163455.00,A,4837.2777,N,00850.0379,E,007.0,310.0,180706,,*33
$GPVTG,310.0,T,,,007.0,N,013.0,K*2A
$GPGSA,A,3,08,24,10,27,28,17,26,29,,,,,2.3,1.4,1.9*37
$GPGSV,3,1,10,08,80,088,42,10,67,252,42,27,47,062,41,29,43,290,39*75
$GPGSV,3,2,10,28,31,153,43,17,27,276,38,26,22,286,31,21,10,328,*7B
$GPGSV,3,3,10,13,09,100,,24,08,219,33*76
$GPGGA,163458.00,4837.2817,N,00850.0314,E,1,10,8.4,574.0,M,0.0,M,1.7,0000*7D
$GPRMC,163458.00,A,4837.2817,N,00850.0314,E,006.5,312.0,180706,,*3A
$GPVTG,312.0,T,,,006.5,N,012.0,K*2D
$GPGSA,A,3,08,24,10,27,28,17,26,29,,,,,2.3,1.4,1.9*37
$GPGSV,3,1,10,08,80,088,42,10,67,252,42,27,47,062,41,29,43,290,39*75
$GPGSV,3,2,10,28,31,153,43,17,27,276,38,26,22,286,31,21,10,328,*7B
$GPGSV,3,3,10,13,09,100,,24,08,219,33*76
$GPGGA,163501.00,4837.2854,N,00850.0245,E,1,10,8.4,575.0,M,0.0,M,1.7,0000*73
$GPRMC,163501.00,A,4837.2854,N,00850.0245,E,006.5,309.0,180706,,*3F
$GPVTG,309.0,T,,,006.5,N,012.0,K*27
$GPGSA,A,3,08,24,10,27,28,17,26,29,,,,,2.3,1.4,1.9*37
$GPGSV,3,1,10,08,80,088,42,10,67,252,42,27,47,062,41,29,43,290,39*75
$GPGSV,3,2,10,28,31,153,43,17,27,276,38,26,22,286,31,21,10,328,*7B
$GPGSV,3,3,10,13,09,100,,24,08,219,33*76
$GPGGA,163504.00,4837.2892,N,00850.0178,E,1,10,8.4,576.0,M,0.0,M,1.7,0000*72
$GPRMC,163504.00,A,4837.2892,N,00850.0178,E,007.0,309.0,180706,,*39
$GPVTG,309.0,T,,,007.0,N,013.0,K*22
$GPGSA,A,3,08,24,10,27,28,17,26,29,,,,,2.3,1.4,1.9*37
$GPGSV,3,1,10,08,80,088,42,10,67,252,42,27,47,062,41,29,43,290,39*75
$GPGSV,3,2,10,28,31,153,43,17,27,276,38,26,22,286,31,21,10,328,*7B
$GPGSV,3,3,10,13,09,100,,24,08,219,33*76
$GPGGA,163507.00,4837.2932,N,00850.0107,E,1,10,8.4,576.0,M,0.0,M,1.7,0000*72
$GPRMC,163507.00,A,4837.2932,N,00850.0107,E,007.0,311.0,180706,,*30
$GPVTG,311.0,T,,,007.0,N,013.0,K*2B
$GPGSA,A,3,08,24,10,27,28,17,26,29,,,,,2.3,1.4,1.9*37
$GPGSV,3,1,10,08,80,088,42,10,67,252,42,27,47,062,41,29,43,290,39*75
$GPGSV,3,2,10,28,31,153,43,17,27,276,38,26,22,286,31,21,10,328,*7B
$GPGSV,3,3,10,13,09,100,,24,08,219,33*76
$GPGGA,163510.00,4837.2973,N,00850.0035,E,1,10,8.4,577.0,M,0.0,M,1.7,0000*70
$GPRMC,163510.00,A,4837.2973,N,00850.0035,E,007.6,308.0,180706,,*3D
$GPVTG,308.0,T,,,007.6,N,014.0,K*22
$GPGSA,A,3,08,24,10,27,28,17,26,29,,,,,2.3,1.4,1.9*37
$GPGSV,3,1,10,08,80,088,42,10,67,252,42,27,47,062,41,29,43,290,39*75
$GPGSV,3,2,10,28,31,153,43,17,27,276,38,26,22,286,31,21,10,328,*7B
$GPGSV,3,3,10,13,09,100,,24,08,219,33*76
$GPGGA,163513.00,4837.3015,N,00849.9963,E,1,10,8.4,576.0,M,0.0,M,1.7,0000*71
$GPRMC,163513.00,A,4837.3015,N,00849.9963,E,007.6,313.0,180706,,*37
$GPVTG,313.0,T,,,007.6,N,014.0,K*28
$GPGSA,A,3,08,24,10,27,28,17,26,29,,,,,2.3,1.4,1.9*37
$GPGSV,3,1,10,08,80,088,42,10,67,252,42,27,47,062,41,29,43,290,39*75
$GPGSV,3,2,10,28,31,153,43,17,27,276,38,26,22,286,31,21,10,328,*7B
$GPGSV,3,3,10,13,09,100,,24,08,219,33*76
$GPGGA,163516.00,4837.3062,N,00849.9895,E,1,10,8.4,576.0,M,0.0,M,1.7,0000*7C
$GPRMC,163516.00,A,4837.3062,N,00849.9895,E,007.6,317.0,180706,,*3E
$GPVTG,317.0,T,,,007.6,N,014.0,K*2C
$GPGSA,A,3,08,24,10,27,28,17,26,29,,,,,2.3,1.4,1.9*37
$GPGSV,3,1,10,08,80,088,42,10,67,252,42,27,47,062,41,29,43,290,39*75
$GPGSV,3,2,10,28,31,153,43,17,27,276,38,26,22,286,31,21,10,328,*7B
$GPGSV,3,3,10,13,09,100,,24,08,219,33*76
$GPGGA,163519.00,4837.3110,N,00849.9826,E,1,10,8.4,577.0,M,0.0,M,1.7,0000*7E
$GPRMC,163519.00,A,4837.3110,N,00849.9826,E,007.6,317.0,180706,,*3D
$GPVTG,317.0,T,,,007.6,N,014.0,K*2C
$GPGSA,A,3,08,24,10,27,28,17,26,29,,,,,2.3,1.4,1.9*37
$GPGSV,3,1,10,08,80,088,42,10,67,252,42,27,47,062,41,29,43,290,39*75
$GPGSV,3,2,10,28,31,153,43,17,27,276,38,26,22,286,31,21,10,328,*7B
$GPGSV,3,3,10,13,09,100,,24,08,219,33*76
$GPGGA,163522.00,4837.3157,N,00849.9763,E,1,10,8.4,577.0,M,0.0,M,1.7,0000*7B
$GPRMC,163522.00,A,4837.3157,N,00849.9763,E,007.6,319.0,180706,,*36
$GPVTG,319.0,T,,,007.6,N,014.0,K*22
$GPGSA,A,3,08,24,10,27,28,17,26,29,,,,,2.3,1.4,1.9*37
$GPGSV,3,1,10,08,80,088,42,10,67,252,42,27,47,062,41,29,43,290,39*75
$GPGSV,3,2,10,28,31,153,43,17,27,276,38,26,22,286,31,21,10,328,*7B
$GPGSV,3,3,10,13,09,100,,24,08,219,33*76
$GPGGA,163525.00,4837.3204,N,00849.9699,E,1,10,8.4,577.0,M,0.0,M,1.7,0000*7D
$GPRMC,163525.00,A,4837.3204,N,00849.9699,E,007.0,316.0,180706,,*39
$GPVTG,316.0,T,,,007.0,N,013.0,K*2C
$GPGSA,A,3,08,24,10,27,28,17,26,29,,,,,2.3,1.4,1.9*37
$GPGSV,3,1,10,08,80,088,42,10,67,252,42,27,47,062,41,29,43,290,39*75
$GPGSV,3,2,10,28,31,153,43,17,27,276,38,26,22,286,31,21,10,328,*7B
$GPGSV,3,3,10,13,09,100,,24,08,219,33*76
$GPGGA,163528.00,4837.3247,N,00849.9636,E,1,10,8.4,577.0,M,0.0,M,1.7,0000*72
$GPRMC,163528.00,A,4837.3247,N,00849.9636,E,007.0,318.0,180706,,*38
$GPVTG,318.0,T,,,007.0,N,013.0,K*22
$GPGSA,A,3,08,24,10,27,28,17,26,29,,,,,2.3,1.4,1.9*37
$GPGSV,3,1,10,08,80,088,42,10,67,252,42,27,47,062,41,29,43,290,39*75
$GPGSV,3,2,10,28,31,153,43,17,27,276,38,26,22,286,31,21,10,328,*7B
$GPGSV,3,3,10,13,09,100,,24,08,219,33*76
$GPGGA,163531.00,4837.3292,N,00849.9574,E,1,10,8.4,578.0,M,0.0,M,1.7,0000*78
$GPRMC,163531.00,A,4837.3292,N,00849.9574,E,007.0,316.0,180706,,*33
$GPVTG,316.0,T,,,007.0,N,013.0,K*2C
$GPGSA,A,3,08,24,10,27,28,17,26,29,,,,,2.3,1.4,1.9*37
$GPGSV,3,1,10,08,80,088,42,10,67,252,42,27,47,062,41,29,43,290,39*75
$GPGSV,3,2,10,28,31,153,43,17,27,276,38,26,22,286,31,21,10,328,*7B
$GPGSV,3,3,10,13,09,100,,24,08,219,33*76
$GPGGA,163534.00,4837.3337,N,00849.9517,E,1,10,8.4,580.0,M,0.0,M,1.7,0000*71
$GPRMC,163534.00,A,4837.3337,N,00849.9517,E,006.5,318.0,180706,,*37
$GPVTG,318.0,T,,,006.5,N,012.0,K*27
$GPGSA,A,3,08,24,10,27,28,17,26,29,,,,,2.3,1.4,1.9*37
$GPGSV,3,1,10,08,80,088,42,10,67,252,42,27,47,062,41,29,43,290,39*75
$GPGSV,3,2,10,28,31,153,43,17,27,276,38,26,22,286,31,21,10,328,*7B
$GPGSV,3,3,10,13,09,100,,24,08,219,33*76
$GPGGA,163537.00,4837.3376,N,00849.9460,E,1,10,8.4,581.0,M,0.0,M,1.7,0000*77
$GPRMC,163537.00,A,4837.3376,N,00849.9460,E,005.9,317.0,180706,,*30
$GPVTG,317.0,T,,,005.9,N,011.0,K*24
$GPGSA,A,3,08,24,10,27,28,17,26,29,,,,,2.3,1.4,1.9*37
$GPGSV,3,1,10,08,80,088,42,10,67,252,42,27,47,062,41,29,43,290,39*75
$GPGSV,3,2,10,28,31,153,43,17,27,276,38,26,22,286,31,21,10,328,*7B
$GPGSV,3,3,10,13,09,100,,24,08,219,33*76
$GPGGA,163541.00,4837.3426,N,00849.9390,E,1,10,8.4,581.0,M,0.0,M,1.7,0000*7C
$GPRMC,163541.00,A,4837.3426,N,00849.9390,E,006.5,329.0,180706,,*39
$GPVTG,329.0,T,,,006.5,N,012.0,K*25
$GPGSA,A,3,08,24,10,27,28,17,26,29,,,,,2.3,1.4,1.9*37
$GPGSV,3,1,10,08,80,088,42,10,67,252,42,27,47,062,41,29,43,290,39*75
$GPGSV,3,2,10,28,31,153,43,17,27,276,38,26,22,286,31,21,10,328,*7B
$GPGSV,3,3,10,13,09,100,,24,08,219,33*76
$GPGGA,163544.00,4837.3485,N,00849.9396,E,1,10,8.4,581.0,M,0.0,M,1.7,0000*76
$GPRMC,163544.00,A,4837.3485,N,00849.9396,E,007.6,024.0,180706,,*3F
$GPVTG,024.0,T,,,007.6,N,014.0,K*2F
$GPGSA,A,3,08,24,10,27,28,17,26,29,,,,,2.3,1.4,1.9*37
$GPGSV,3,1,10,08,80,088,42,10,67,252,42,27,47,062,41,29,43,290,39*75
$GPGSV,3,2,10,28,31,153,43,17,27,276,38,26,22,286,31,21,10,328,*7B
$GPGSV,3,3,10,13,09,100,,24,08,219,33*76
$GPGGA,163547.00,4837.3541,N,00849.9441,E,1,10,8.4,582.0,M,0.0,M,1.7,0000*72
$GPRMC,163547.00,A,4837.3541,N,00849.9441,E,006.5,027.0,180706,,*39
$GPVTG,027.0,T,,,006.5,N,012.0,K*28
$GPGSA,A,3,08,24,10,27,28,17,26,29,,,,,2.3,1.4,1.9*37
$GPGSV,3,1,10,08,80,088,42,10,67,252,42,27,47,062,41,29,43,290,39*75
$GPGSV,3,2,10,28,31,153,43,17,27,276,38,26,22,286,31,21,10,328,*7B
$GPGSV,3,3,10,13,09,100,,24,08,219,33*76
$GPGGA,163550.00,4837.3592,N,00849.9484,E,1,10,8.4,585.0,M,0.0,M,1.7,0000*74
$GPRMC,163550.00,A,4837.3592,N,00849.9484,E,006.5,032.0,180706,,*3C
$GPVTG,032.0,T,,,006.5,N,012.0,K*2C
$GPGSA,A,3,08,24,10,27,28,17,26,29,,,,,2.3,1.4,1.9*37
$GPGSV,3,1,10,08,80,088,42,10,67,252,42,27,47,062,41,29,43,290,39*75
$GPGSV,3,2,10,28,31,153,43,17,27,276,38,26,22,286,31,21,10,328,*7B
$GPGSV,3,3,10,13,09,100,,24,08,219,33*76
$GPGGA,163553.00,4837.3643,N,00849.9525,E,1,10,8.4,587.0,M,0.0,M,1.7,0000*70
$GPRMC,163553.00,A,4837.3643,N,00849.9525,E,006.5,029.0,180706,,*30
$GPVTG,029.0,T,,,006.5,N,012.0,K*26
$GPGSA,A,3,08,24,10,27,28,17,26,29,,,,,2.3,1.4,1.9*37
$GPGSV,3,1,10,08,80,088,42,10,67,252,42,27,47,062,41,29,43,290,39*75
$GPGSV,3,2,10,28,31,153,43,17,27,276,38,26,22,286,31,21,10,328,*7B
$GPGSV,3,3,10,13,09,100,,24,08,219,33*76
$GPGGA,163556.00,4837.3696,N,00849.9555,E,1,10,8.4,589.0,M,0.0,M,1.7,0000*74
$GPRMC,163556.00,A,4837.3696,N,00849.9555,E,005.9,018.0,180706,,*37
$GPVTG,018.0,T,,,005.9,N,011.0,K*28
$GPGSA,A,3,08,24,10,27,28,17,26,29,,,,,2.3,1.4,1.9*37
$GPGSV,3,1,10,08,80,088,42,10,67,252,42,27,47,062,41,29,43,290,39*75
$GPGSV,3,2,10,28,31,153,43,17,27,276,38,26,22,286,31,21,10,328,*7B
$GPGSV,3,3,10,13,09,100,,24,08,219,33*76
$GPGGA,163600.00,4837.3760,N,00849.9580,E,1,10,8.4,588.0,M,0.0,M,1.7,0000*75
$GPRMC,163600.00,A,4837.3760,N,00849.9580,E,005.4,000.0,180706,,*33
$GPVTG,000.0,T,,,005.4,N,010.0,K*2D
$GPGSA,A,3,08,24,10,27,28,17,26,29,,,,,2.3,1.4,1.9*37
$GPGSV,3,1,10,08,80,088,42,10,67,252,42,27,47,062,41,29,43,290,39*75
$GPGSV,3,2,10,28,31,153,43,17,27,276,38,26,22,286,31,21,10,328,*7B
$GPGSV,3,3,10,13,09,100,,24,08,219,33*76
$GPGGA,163604.00,4837.3802,N,00849.9515,E,1,10,8.4,585.0,M,0.0,M,1.7,0000*7B
$GPRMC,163604.00,A,4837.3802,N,00849.9515,E,006.5,298.0,180706,,*31
$GPVTG,298.0,T,,,006.5,N,012.0,K*2E
$GPGSA,A,3,08,24,10,27,28,17,26,29,,,,,2.3,1.4,1.9*37
$GPGSV,3,1,10,08,80,088,42,10,67,252,42,27,47,062,41,29,43,290,39*75
$GPGSV,3,2,10,28,31,153,43,17,27,276,38,26,22,286,31,21,10,328,*7B
$GPGSV,3,3,10,13,09,100,,24,08,219,33*76
$GPGGA,163607.00,4837.3819,N,00849.9431,E,1,10,8.4,583.0,M,0.0,M,1.7,0000*73
$GPRMC,163607.00,A,4837.3819,N,00849.9431,E,007.0,282.0,180706,,*30
$GPVTG,282.0,T,,,007.0,N,013.0,K*20
$GPGSA,A,3,08,24,10,27,28,17,26,29,,,,,2.3,1.4,1.9*37
$GPGSV,3,1,10,08,80,088,42,10,67,252,42,27,47,062,41,29,43,290,39*75
$GPGSV,3,2,10,28,31,153,43,17,27,276,38,26,22,286,31,21,10,328,*7B
$GPGSV,3,3,10,13,09,100,,24,08,219,33*76
$GPGGA,163610.00,4837.3832,N,00849.9333,E,1,10,8.4,582.0,M,0.0,M,1.7,0000*78
$GPRMC,163610.00,A,4837.3832,N,00849.9333,E,007.6,286.0,180706,,*38
$GPVTG,286.0,T,,,007.6,N,014.0,K*25
$GPGSA,A,3,08,24,10,27,28,17,26,29,,,,,2.3,1.4,1.9*37
$GPGSV,3,1,10,08,80,088,42,10,67,252,42,27,47,062,41,29,43,290,39*75
$GPGSV,3,2,10,28,31,153,43,17,27,276,38,26,22,286,31,21,10,328,*7B
$GPGSV,3,3,10,13,09,100,,24,08,219,33*76
$GPGGA,163613.00,4837.3846,N,00849.9226,E,1,10,8.4,583.0,M,0.0,M,1.7,0000*7C
$GPRMC,163613.00,A,4837.3846,N,00849.9226,E,007.6,285.0,180706,,*3E
$GPVTG,285.0,T,,,007.6,N,014.0,K*26
$GPGSA,A,3,08,24,10,27,28,17,26,29,,,,,2.3,1.4,1.9*37
$GPGSV,3,1,10,08,80,088,42,10,67,252,42,27,47,062,41,29,43,290,39*75
$GPGSV,3,2,10,28,31,153,43,17,27,276,38,26,22,286,31,21,10,328,*7B
$GPGSV,3,3,10,13,09,100,,24,08,219,33*76
$GPGGA,163616.00,4837.3858,N,00849.9119,E,1,10,8.4,584.0,M,0.0,M,1.7,0000*7E
$GPRMC,163616.00,A,4837.3858,N,00849.9119,E,008.1,277.0,180706,,*3E
$GPVTG,277.0,T,,,008.1,N,015.0,K*22
$GPGSA,A,3,08,24,10,27,28,17,26,29,,,,,2.3,1.4,1.9*37
$GPGSV,3,1,10,08,80,088,42,10,67,252,42,27,47,062,41,29,43,290,39*75
$GPGSV,3,2,10,28,31,153,43,17,27,276,38,26,22,286,31,21,10,328,*7B
$GPGSV,3,3,10,13,09,100,,24,08,219,33*76
$GPGGA,163619.00,4837.3870,N,00849.9010,E,1,10,8.4,585.0,M,0.0,M,1.7,0000*72
$GPRMC,163619.00,A,4837.3870,N,00849.9010,E,008.6,281.0,180706,,*3D
$GPVTG,281.0,T,,,008.6,N,016.0,K*2F
$GPGSA,A,3,08,24,10,27,28,17,26,29,,,,,2.3,1.4,1.9*37
$GPGSV,3,1,10,08,80,088,42,10,67,252,42,27,47,062,41,29,43,290,39*75
$GPGSV,3,2,10,28,31,153,43,17,27,276,38,26,22,286,31,21,10,328,*7B
$GPGSV,3,3,10,13,09,100,,24,08,219,33*76
$GPGGA,163622.00,4837.3882,N,00849.8904,E,1,10,8.4,585.0,M,0.0,M,1.7,0000*7A
$GPRMC,163622.00,A,4837.3882,N,00849.8904,E,008.6,285.0,180706,,*31
$GPVTG,285.0,T,,,008.6,N,016.0,K*2B
$GPGSA,A,3,08,24,10,27,28,17,26,29,,,,,2.3,1.4,1.9*37
$GPGSV,3,1,10,08,80,088,42,10,67,252,42,27,47,062,41,29,43,290,39*75
$GPGSV,3,2,10,28,31,153,43,17,27,276,38,26,22,286,31,21,10,328,*7B
$GPGSV,3,3,10,13,09,100,,24,08,219,33*76
$GPGGA,163625.00,4837.3904,N,00849.8798,E,1,10,8.4,585.0,M,0.0,M,1.7,0000*79
$GPRMC,163625.00,A,4837.3904,N,00849.8798,E,008.6,292.0,180706,,*34
$GPVTG,292.0,T,,,008.6,N,016.0,K*2D
$GPGSA,A,3,08,24,10,27,28,17,26,29,,,,,2.3,1.4,1.9*37
$GPGSV,3,1,10,08,80,088,42,10,67,252,42,27,47,062,41,29,43,290,39*75
$GPGSV,3,2,10,28,31,153,43,17,27,276,38,26,22,286,31,21,10,328,*7B
$GPGSV,3,3,10,13,09,100,,24,08,219,33*76
$GPGGA,163628.00,4837.3922,N,00849.8695,E,1,10,8.4,583.0,M,0.0,M,1.7,0000*7A
$GPRMC,163628.00,A,4837.3922,N,00849.8695,E,008.6,285.0,180706,,*37
$GPVTG,285.0,T,,,008.6,N,016.0,K*2B
$GPGSA,A,3,08,24,10,27,28,17,26,29,,,,,2.3,1.4,1.9*37
$GPGSV,3,1,10,08,80,088,42,10,67,252,42,27,47,062,41,29,43,290,39*75
$GPGSV,3,2,10,28,31,153,43,17,27,276,38,26,22,286,31,21,10,328,*7B
$GPGSV,3,3,10,13,09,100,,24,08,219,33*76
$GPGGA,163631.00,4837.3941,N,00849.8588,E,1,10,8.4,583.0,M,0.0,M,1.7,0000*78
$GPRMC,163631.00,A,4837.3941,N,00849.8588,E,008.6,281.0,180706,,*31
$GPVTG,281.0,T,,,008.6,N,016.0,K*2F
$GPGSA,A,3,08,24,10,27,28,17,26,29,,,,,2.3,1.4,1.9*37
$GPGSV,3,1,10,08,80,088,42,10,67,252,42,27,47,062,41,29,43,290,39*75
$GPGSV,3,2,10,28,31,153,43,17,27,276,38,26,22,286,31,21,10,328,*7B
$GPGSV,3,3,10,13,09,100,,24,08,219,33*76
$GPGGA,163634.00,4837.3955,N,00849.8481,E,1,10,8.4,583.0,M,0.0,M,1.7,0000*70
$GPRMC,163634.00,A,4837.3955,N,00849.8481,E,008.1,284.0,180706,,*3B
$GPVTG,284.0,T,,,008.1,N,015.0,K*2E
$GPGSA,A,3,08,24,10,27,28,17,26,29,,,,,2.3,1.4,1.9*37
$GPGSV,3,1,10,08,80,088,42,10,67,252,42,27,47,062,41,29,43,290,39*75
$GPGSV,3,2,10,28,31,153,43,17,27,276,38,26,22,286,31,21,10,328,*7B
$GPGSV,3,3,10,13,09,100,,24,08,219,33*76
$GPGGA,163637.00,4837.3966,N,00849.8378,E,1,10,8.4,583.0,M,0.0,M,1.7,0000*72
$GPRMC,163637.00,A,4837.3966,N,00849.8378,E,008.1,276.0,180706,,*34
$GPVTG,276.0,T,,,008.1,N,015.0,K*23
$GPGSA,A,3,08,24,10,27,28,17,26,29,,,,,2.3,1.4,1.9*37
$GPGSV,3,1,10,08,80,088,42,10,67,252,42,27,47,062,41,29,43,290,39*75
$GPGSV,3,2,10,28,31,153,43,17,27,276,38,26,22,286,31,21,10,328,*7B
$GPGSV,3,3,10,13,09,100,,24,08,219,33*76
$GPGGA,163640.00,4837.3981,N,00849.8275,E,1,10,8.4,584.0,M,0.0,M,1.7,0000*70
$GPRMC,163640.00,A,4837.3981,N,00849.8275,E,007.6,285.0,180706,,*35
$GPVTG,285.0,T,,,007.6,N,014.0,K*26
$GPGSA,A,3,08,24,10,27,28,17,26,29,,,,,2.3,1.4,1.9*37
$GPGSV,3,1,10,08,80,088,42,10,67,252,42,27,47,062,41,29,43,290,39*75
$GPGSV,3,2,10,28,31,153,43,17,27,276,38,26,22,286,31,21,10,328,*7B
$GPGSV,3,3,10,13,09,100,,24,08,219,33*76
$GPGGA,163643.00,4837.3993,N,00849.8175,E,1,10,8.4,583.0,M,0.0,M,1.7,0000*74
$GPRMC,163643.00,A,4837.3993,N,00849.8175,E,007.6,280.0,180706,,*33
$GPVTG,280.0,T,,,007.6,N,014.0,K*23
$GPGSA,A,3,08,24,10,27,28,17,26,29,,,,,2.3,1.4,1.9*37
$GPGSV,3,1,10,08,80,088,42,10,67,252,42,27,47,062,41,29,43,290,39*75
$GPGSV,3,2,10,28,31,153,43,17,27,276,38,26,22,286,31,21,10,328,*7B
$GPGSV,3,3,10,13,09,100,,24,08,219,33*76
$GPGGA,163646.00,4837.4006,N,00849.8073,E,1,10,8.4,584.0,M,0.0,M,1.7,0000*73
$GPRMC,163646.00,A,4837.4006,N,00849.8073,E,008.1,285.0,180706,,*3E
$GPVTG,285.0,T,,,008.1,N,015.0,K*2F
$GPGSA,A,3,08,24,10,27,28,17,26,29,,,,,2.3,1.4,1.9*37
$GPGSV,3,1,10,08,80,088,42,10,67,252,42,27,47,062,41,29,43,290,39*75
$GPGSV,3,2,10,28,31,153,43,17,27,276,38,26,22,286,31,21,10,328,*7B
$GPGSV,3,3,10,13,09,100,,24,08,219,33*76
$GPGGA,163649.00,4837.4024,N,00849.7972,E,1,10,8.4,585.0,M,0.0,M,1.7,0000*7A
$GPRMC,163649.00,A,4837.4024,N,00849.7972,E,008.1,281.0,180706,,*32
$GPVTG,281.0,T,,,008.1,N,015.0,K*2B
$GPGSA,A,3,08,24,10,27,28,17,26,29,,,,,2.3,1.4,1.9*37
$GPGSV,3,1,10,08,80,088,42,10,67,252,42,27,47,062,41,29,43,290,39*75
$GPGSV,3,2,10,28,31,153,43,17,27,276,38,26,22,286,31,21,10,328,*7B
$GPGSV,3,3,10,13,09,100,,24,08,219,33*76
$GPGGA,163652.00,4837.4033,N,00849.7873,E,1,10,8.4,585.0,M,0.0,M,1.7,0000*76
$GPRMC,163652.00,A,4837.4033,N,00849.7873,E,008.1,274.0,180706,,*34
$GPVTG,274.0,T,,,008.1,N,015.0,K*21
$GPGSA,A,3,08,24,10,27,28,17,26,29,,,,,2.3,1.4,1.9*37
$GPGSV,3,1,10,08,80,088,42,10,67,252,42,27,47,062,41,29,43,290,39*75
$GPGSV,3,2,10,28,31,153,43,17,27,276,38,26,22,286,31,21,10,328,*7B
$GPGSV,3,3,10,13,09,100,,24,08,219,33*76
$GPGGA,163655.00,4837.4039,N,00849.7769,E,1,10,8.4,586.0,M,0.0,M,1.7,0000*7C
$GPRMC,163655.00,A,4837.4039,N,00849.7769,E,008.1,272.0,180706,,*3B
$GPVTG,272.0,T,,,008.1,N,015.0,K*27
$GPGSA,A,3,08,24,10,27,28,17,26,29,,,,,2.3,1.4,1.9*37
$GPGSV,3,1,10,08,80,088,42,10,67,252,42,27,47,062,41,29,43,290,39*75
$GPGSV,3,2,10,28,31,153,43,17,27,276,38,26,22,286,31,21,10,328,*7B
$GPGSV,3,3,10,13,09,100,,24,08,219,33*76
$GPGGA,163658.00,4837.4040,N,00849.7663,E,1,10,8.4,587.0,M,0.0,M,1.7,0000*75
$GPRMC,163658.00,A,4837.4040,N,00849.7663,E,008.1,273.0,180706,,*32
$GPVTG,273.0,T,,,008.1,N,015.0,K*26
$GPGSA,A,3,08,24,10,27,28,17,26,29,,,,,2.3,1.4,1.9*37
$GPGSV,3,1,10,08,80,088,42,10,67,252,42,27,47,062,41,29,43,290,39*75
$GPGSV,3,2,10,28,31,153,43,17,27,276,38,26,22,286,31,21,10,328,*7B
$GPGSV,3,3,10,13,09,100,,24,08,219,33*76
$GPGGA,163701.00,4837.4038,N,00849.7558,E,1,10,8.4,587.0,M,0.0,M,1.7,0000*7C
$GPRMC,163701.00,A,4837.4038,N,00849.7558,E,007.6,267.0,180706,,*36
$GPVTG,267.0,T,,,007.6,N,014.0,K*2A
$GPGSA,A,3,08,24,10,27,28,17,26,29,,,,,2.3,1.4,1.9*37
$GPGSV,3,1,10,08,80,088,42,10,67,252,42,27,47,062,41,29,43,290,39*75
$GPGSV,3,2,10,28,31,153,43,17,27,276,38,26,22,286,31,21,10,328,*7B
$GPGSV,3,3,10,13,09,100,,24,08,219,33*76
$GPGGA,163704.00,4837.4034,N,00849.7457,E,1,10,8.4,588.0,M,0.0,M,1.7,0000*74
$GPRMC,163704.00,A,4837.4034,N,00849.7457,E,007.6,270.0,180706,,*37
$GPVTG,270.0,T,,,007.6,N,014.0,K*2C
$GPGSA,A,3,08,24,10,27,28,17,26,29,,,,,2.3,1.4,1.9*37
$GPGSV,3,1,10,08,80,088,42,10,67,252,42,27,47,062,41,29,43,290,39*75
$GPGSV,3,2,10,28,31,153,43,17,27,276,38,26,22,286,31,21,10,328,*7B
$GPGSV,3,3,10,13,09,100,,24,08,219,33*76
$GPGGA,163707.00,4837.4032,N,00849.7350,E,1,10,8.4,589.0,M,0.0,M,1.7,0000*70
$GPRMC,163707.00,A,4837.4032,N,00849.7350,E,008.1,266.0,180706,,*3D
$GPVTG,266.0,T,,,008.1,N,015.0,K*22
$GPGSA,A,3,08,24,10,27,28,17,26,29,,,,,2.3,1.4,1.9*37
$GPGSV,3,1,10,08,80,088,42,10,67,252,42,27,47,062,41,29,43,290,39*75
$GPGSV,3,2,10,28,31,153,43,17,27,276,38,26,22,286,31,21,10,328,*7B
$GPGSV,3,3,10,13,09,100,,24,08,219,33*76
$GPGGA,163710.00,4837.4027,N,00849.7243,E,1,10,8.4,589.0,M,0.0,M,1.7,0000*71
$GPRMC,163710.00,A,4837.4027,N,00849.7243,E,008.1,268.0,180706,,*32
$GPVTG,268.0,T,,,008.1,N,015.0,K*2C
$GPGSA,A,3,08,24,10,27,28,17,26,29,,,,,2.3,1.4,1.9*37
$GPGSV,3,1,10,08,80,088,42,10,67,252,42,27,47,062,41,29,43,290,39*75
$GPGSV,3,2,10,28,31,153,43,17,27,276,38,26,22,286,31,21,10,328,*7B
$GPGSV,3,3,10,13,09,100,,24,08,219,33*76
$GPGGA,163713.00,4837.4036,N,00849.7138,E,1,10,8.4,589.0,M,0.0,M,1.7,0000*7D
$GPRMC,163713.00,A,4837.4036,N,00849.7138,E,008.1,293.0,180706,,*3A
$GPVTG,293.0,T,,,008.1,N,015.0,K*28
$GPGSA,A,3,08,24,10,27,28,17,26,29,,,,,2.3,1.4,1.9*37
$GPGSV,3,1,10,08,80,088,42,10,67,252,42,27,47,062,41,29,43,290,39*75
$GPGSV,3,2,10,28,31,153,43,17,27,276,38,26,22,286,31,21,10,328,*7B
$GPGSV,3,3,10,13,09,100,,24,08,219,33*76
$GPGGA,163716.00,4837.4095,N,00849.7072,E,1,10,8.4,587.0,M,0.0,M,1.7,0000*70
$GPRMC,163716.00,A,4837.4095,N,00849.7072,E,009.2,348.0,180706,,*3C
$GPVTG,348.0,T,,,009.2,N,017.0,K*2F
$GPGSA,A,3,08,24,10,27,28,17,26,29,,,,,2.3,1.4,1.9*37
$GPGSV,3,1,10,08,80,088,42,10,67,252,42,27,47,062,41,29,43,290,39*75
$GPGSV,3,2,10,28,31,153,43,17,27,276,38,26,22,286,31,21,10,328,*7B
$GPGSV,3,3,10,13,09,100,,24,08,219,33*76
$GPGGA,163719.00,4837.4174,N,00849.7058,E,1,10,8.4,587.0,M,0.0,M,1.7,0000*79
$GPRMC,163719.00,A,4837.4174,N,00849.7058,E,008.1,350.0,180706,,*3E
$GPVTG,350.0,T,,,008.1,N,015.0,K*26
$GPGSA,A,3,08,24,10,27,28,17,26,29,,,,,2.3,1.4,1.9*37
$GPGSV,3,1,10,08,80,088,42,10,67,252,42,27,47,062,41,29,43,290,39*75
$GPGSV,3,2,10,28,31,153,43,17,27,276,38,26,22,286,31,21,10,328,*7B
$GPGSV,3,3,10,13,09,100,,24,08,219,33*76
$GPGGA,163722.00,4837.4245,N,00849.7042,E,1,10,8.4,587.0,M,0.0,M,1.7,0000*7B
$GPRMC,163722.00,A,4837.4245,N,00849.7042,E,007.6,341.0,180706,,*34
$GPVTG,341.0,T,,,007.6,N,014.0,K*2F
$GPGSA,A,3,08,24,10,27,28,17,26,29,,,,,2.3,1.4,1.9*37
$GPGSV,3,1,10,08,80,088,42,10,67,252,42,27,47,062,41,29,43,290,39*75
$GPGSV,3,2,10,28,31,153,43,17,27,276,38,26,22,286,31,21,10,328,*7B
$GPGSV,3,3,10,13,09,100,,24,08,219,33*76
$GPGGA,163725.00,4837.4311,N,00849.7009,E,1,10,8.4,588.0,M,0.0,M,1.7,0000*7C
$GPRMC,163725.00,A,4837.4311,N,00849.7009,E,008.1,332.0,180706,,*30
$GPVTG,332.0,T,,,008.1,N,015.0,K*22
$GPGSA,A,3,08,24,10,27,28,17,26,29,,,,,2.3,1.4,1.9*37
$GPGSV,3,1,10,08,80,088,42,10,67,252,42,27,47,062,41,29,43,290,39*75
$GPGSV,3,2,10,28,31,153,43,17,27,276,38,26,22,286,31,21,10,328,*7B
$GPGSV,3,3,10,13,09,100,,24,08,219,33*76
$GPGGA,163728.00,4837.4370,N,00849.6963,E,1,10,8.4,589.0,M,0.0,M,1.7,0000*73
$GPRMC,163728.00,A,4837.4370,N,00849.6963,E,007.0,320.0,180706,,*33
$GPVTG,320.0,T,,,007.0,N,013.0,K*29
$GPGSA,A,3,08,24,10,27,28,17,26,29,,,,,2.3,1.4,1.9*37
$GPGSV,3,1,10,08,80,088,42,10,67,252,42,27,47,062,41,29,43,290,39*75
$GPGSV,3,2,10,28,31,153,43,17,27,276,38,26,22,286,31,21,10,328,*7B
$GPGSV,3,3,10,13,09,100,,24,08,219,33*76
$GPGGA,163731.00,4837.4417,N,00849.6907,E,1,10,8.4,588.0,M,0.0,M,1.7,0000*7E
$GPRMC,163731.00,A,4837.4417,N,00849.6907,E,007.0,317.0,180706,,*3B
$GPVTG,317.0,T,,,007.0,N,013.0,K*2D
$GPGSA,A,3,08,24,10,27,28,17,26,29,,,,,2.3,1.4,1.9*37
$GPGSV,3,1,10,08,80,088,42,10,67,252,42,27,47,062,41,29,43,290,39*75
$GPGSV,3,2,10,28,31,153,43,17,27,276,38,26,22,286,31,21,10,328,*7B
$GPGSV,3,3,10,13,09,100,,24,08,219,33*76
$GPGGA,163734.00,4837.4458,N,00849.6839,E,1,10,8.4,588.0,M,0.0,M,1.7,0000*7C
$GPRMC,163734.00,A,4837.4458,N,00849.6839,E,007.0,305.0,180706,,*3A
$GPVTG,305.0,T,,,007.0,N,013.0,K*2E
$GPGSA,A,3,08,24,10,27,28,17,26,29,,,,,2.3,1.4,1.9*37
$GPGSV,3,1,10,08,80,088,42,10,67,252,42,27,47,062,41,29,43,290,39*75
$GPGSV,3,2,10,28,31,153,43,17,27,276,38,26,22,286,31,21,10,328,*7B
$GPGSV,3,3,10,13,09,100,,24,08,219,33*76
$GPGGA,163737.00,4837.4494,N,00849.6762,E,1,10,8.4,588.0,M,0.0,M,1.7,0000*7E
$GPRMC,163737.00,A,4837.4494,N,00849.6762,E,007.0,305.0,180706,,*38
$GPVTG,305.0,T,,,007.0,N,013.0,K*2E
$GPGSA,A,3,08,24,10,27,28,17,26,29,,,,,2.3,1.4,1.9*37
$GPGSV,3,1,10,08,80,088,42,10,67,252,42,27,47,062,41,29,43,290,39*75
$GPGSV,3,2,10,28,31,153,43,17,27,276,38,26,22,286,31,21,10,328,*7B
$GPGSV,3,3,10,13,09,100,,24,08,219,33*76
$GPGGA,163740.00,4837.4527,N,00849.6688,E,1,10,8.4,588.0,M,0.0,M,1.7,0000*72
$GPRMC,163740.00,A,4837.4527,N,00849.6688,E,007.0,305.0,180706,,*34
$GPVTG,305.0,T,,,007.0,N,013.0,K*2E
$GPGSA,A,3,08,24,10,27,28,17,26,29,,,,,2.3,1.4,1.9*37
$GPGSV,3,1,10,08,80,088,42,10,67,252,42,27,47,062,41,29,43,290,39*75
$GPGSV,3,2,10,28,31,153,43,17,27,276,38,26,22,286,31,21,10,328,*7B
$GPGSV,3,3,10,13,09,100,,24,08,219,33*76
$GPGGA,163743.00,4837.4560,N,00849.6610,E,1,10,8.4,588.0,M,0.0,M,1.7,0000*73
$GPRMC,163743.00,A,4837.4560,N,00849.6610,E,007.6,304.0,180706,,*32
$GPVTG,304.0,T,,,007.6,N,014.0,K*2E
$GPGSA,A,3,08,24,10,27,28,17,26,29,,,,,2.3,1.4,1.9*37
$GPGSV,3,1,10,08,80,088,42,10,67,252,42,27,47,062,41,29,43,290,39*75
$GPGSV,3,2,10,28,31,153,43,17,27,276,38,26,22,286,31,21,10,328,*7B
$GPGSV,3,3,10,13,09,100,,24,08,219,33*76
$GPGGA,163746.00,4837.4593,N,00849.6531,E,1,10,8.4,588.0,M,0.0,M,1.7,0000*7A
$GPRMC,163746.00,A,4837.4593,N,00849.6531,E,006.5,303.0,180706,,*3E
$GPVTG,303.0,T,,,006.5,N,012.0,K*2D
$GPGSA,A,3,08,24,10,27,28,17,26,29,,,,,2.3,1.4,1.9*37
$GPGSV,3,1,10,08,80,088,42,10,67,252,42,27,47,062,41,29,43,290,39*75
$GPGSV,3,2,10,28,31,153,43,17,27,276,38,26,22,286,31,21,10,328,*7B
$GPGSV,3,3,10,13,09,100,,24,08,219,33*76
$GPGGA,163749.00,4837.4626,N,00849.6457,E,1,10,8.4,589.0,M,0.0,M,1.7,0000*78
$GPRMC,163749.00,A,4837.4626,N,00849.6457,E,007.0,305.0,180706,,*3F
$GPVTG,305.0,T,,,007.0,N,013.0,K*2E
$GPGSA,A,3,08,24,10,27,28,17,26,29,,,,,2.3,1.4,1.9*37
$GPGSV,3,1,10,08,80,088,42,10,67,252,42,27,47,062,41,29,43,290,39*75
$GPGSV,3,2,10,28,31,153,43,17,27,276,38,26,22,286,31,21,10,328,*7B
$GPGSV,3,3,10,13,09,100,,24,08,219,33*76
$GPGGA,163752.00,4837.4659,N,00849.6383,E,1,10,8.4,590.0,M,0.0,M,1.7,0000*7C
$GPRMC,163752.00,A,4837.4659,N,00849.6383,E,007.0,310.0,180706,,*37
$GPVTG,310.0,T,,,007.0,N,013.0,K*2A
$GPGSA,A,3,08,24,10,27,28,17,26,29,,,,,2.3,1.4,1.9*37
$GPGSV,3,1,10,08,80,088,42,10,67,252,42,27,47,062,41,29,43,290,39*75
$GPGSV,3,2,10,28,31,153,43,17,27,276,38,26,22,286,31,21,10,328,*7B
$GPGSV,3,3,10,13,09,100,,24,08,219,33*76
$GPGGA,163755.00,4837.4695,N,00849.6308,E,1,10,8.4,590.0,M,0.0,M,1.7,0000*78
$GPRMC,163755.00,A,4837.4695,N,00849.6308,E,007.0,309.0,180706,,*3B
$GPVTG,309.0,T,,,007.0,N,013.0,K*22
$GPGSA,A,3,08,24,10,27,28,17,26,29,,,,,2.3,1.4,1.9*37
$GPGSV,3,1,10,08,80,088,42,10,67,252,42,27,47,062,41,29,43,290,39*75
$GPGSV,3,2,10,28,31,153,43,17,27,276,38,26,22,286,31,21,10,328,*7B
$GPGSV,3,3,10,13,09,100,,24,08,219,33*76
$GPGGA,163758.00,4837.4732,N,00849.6239,E,1,10,8.4,591.0,M,0.0,M,1.7,0000*7B
$GPRMC,163758.00,A,4837.4732,N,00849.6239,E,006.5,310.0,180706,,*35
$GPVTG,310.0,T,,,006.5,N,012.0,K*2F
$GPGSA,A,3,08,24,10,27,28,17,26,29,,,,,2.3,1.4,1.9*37
$GPGSV,3,1,10,08,80,088,42,10,67,252,42,27,47,062,41,29,43,290,39*75
$GPGSV,3,2,10,28,31,153,43,17,27,276,38,26,22,286,31,21,10,328,*7B
$GPGSV,3,3,10,13,09,100,,24,08,219,33*76
$GPGGA,163801.00,4837.4771,N,00849.6171,E,1,10,8.4,591.0,M,0.0,M,1.7,0000*70
$GPRMC,163801.00,A,4837.4771,N,00849.6171,E,007.0,311.0,180706,,*3B
$GPVTG,311.0,T,,,007.0,N,013.0,K*2B
$GPGSA,A,3,08,24,10,27,28,17,26,29,,,,,2.3,1.4,1.9*37
$GPGSV,3,1,10,08,80,088,42,10,67,252,42,27,47,062,41,29,43,290,39*75
$GPGSV,3,2,10,28,31,153,43,17,27,276,38,26,22,286,31,21,10,328,*7B
$GPGSV,3,3,10,13,09,100,,24,08,219,33*76
$GPGGA,163804.00,4837.4806,N,00849.6100,E,1,10,8.4,592.0,M,0.0,M,1.7,0000*7F
$GPRMC,163804.00,A,4837.4806,N,00849.6100,E,007.0,307.0,180706,,*30
$GPVTG,307.0,T,,,007.0,N,013.0,K*2C
$GPGSA,A,3,08,24,10,27,28,17,26,29,,,,,2.3,1.4,1.9*37
$GPGSV,3,1,10,08,80,088,42,10,67,252,42,27,47,062,41,29,43,290,39*75
$GPGSV,3,2,10,28,31,153,43,17,27,276,38,26,22,286,31,21,10,328,*7B
$GPGSV,3,3,10,13,09,100,,24,08,219,33*76
$GPGGA,163807.00,4837.4845,N,00849.6031,E,1,10,8.4,593.0,M,0.0,M,1.7,0000*79
$GPRMC,163807.00,A,4837.4845,N,00849.6031,E,007.0,312.0,180706,,*33
$GPVTG,312.0,T,,,007.0,N,013.0,K*28
$GPGSA,A,3,08,24,10,27,28,17,26,29,,,,,2.3,1.4,1.9*37
$GPGSV,3,1,10,08,80,088,42,10,67,252,42,27,47,062,41,29,43,290,39*75
$GPGSV,3,2,10,28,31,153,43,17,27,276,38,26,22,286,31,21,10,328,*7B
$GPGSV,3,3,10,13,09,100,,24,08,219,33*76
$GPGGA,163810.00,4837.4888,N,00849.5967,E,1,10,8.4,593.0,M,0.0,M,1.7,0000*77
$GPRMC,163810.00,A,4837.4888,N,00849.5967,E,007.0,312.0,180706,,*3D
$GPVTG,312.0,T,,,007.0,N,013.0,K*28
$GPGSA,A,3,08,24,10,27,28,17,26,29,,,,,2.3,1.4,1.9*37
$GPGSV,3,1,10,08,80,088,42,10,67,252,42,27,47,062,41,29,43,290,39*75
$GPGSV,3,2,10,28,31,153,43,17,27,276,38,26,22,286,31,21,10,328,*7B
$GPGSV,3,3,10,13,09,100,,24,08,219,33*76
$GPGGA,163813.00,4837.4929,N,00849.5902,E,1,10,8.4,594.0,M,0.0,M,1.7,0000*7A
$GPRMC,163813.00,A,4837.4929,N,00849.5902,E,007.0,313.0,180706,,*36
$GPVTG,313.0,T,,,007.0,N,013.0,K*29
$GPGSA,A,3,08,24,10,27,28,17,26,29,,,,,2.3,1.4,1.9*37
$GPGSV,3,1,10,08,80,088,42,10,67,252,42,27,47,062,41,29,43,290,39*75
$GPGSV,3,2,10,28,31,153,43,17,27,276,38,26,22,286,31,21,10,328,*7B
$GPGSV,3,3,10,13,09,100,,24,08,219,33*76
$GPGGA,163816.00,4837.4970,N,00849.5840,E,1,10,8.4,594.0,M,0.0,M,1.7,0000*74
$GPRMC,163816.00,A,4837.4970,N,00849.5840,E,006.5,311.0,180706,,*3E
$GPVTG,311.0,T,,,006.5,N,012.0,K*2E
$GPGSA,A,3,08,24,10,27,28,17,26,29,,,,,2.3,1.4,1.9*37
$GPGSV,3,1,10,08,80,088,42,10,67,252,42,27,47,062,41,29,43,290,39*75
$GPGSV,3,2,10,28,31,153,43,17,27,276,38,26,22,286,31,21,10,328,*7B
$GPGSV,3,3,10,13,09,100,,24,08,219,33*76
$GPGGA,163819.00,4837.5007,N,00849.5771,E,1,10,8.4,595.0,M,0.0,M,1.7,0000*7F
$GPRMC,163819.00,A,4837.5007,N,00849.5771,E,007.0,308.0,180706,,*38
$GPVTG,308.0,T,,,007.0,N,013.0,K*23
$GPGSA,A,3,08,24,10,27,28,17,26,29,,,,,2.3,1.4,1.9*37
$GPGSV,3,1,10,08,80,088,42,10,67,252,42,27,47,062,41,29,43,290,39*75
$GPGSV,3,2,10,28,31,153,43,17,27,276,38,26,22,286,31,21,10,328,*7B
$GPGSV,3,3,10,13,09,100,,24,08,219,33*76
$GPGGA,163822.00,4837.5049,N,00849.5704,E,1,10,8.4,595.0,M,0.0,M,1.7,0000*7F
$GPRMC,163822.00,A,4837.5049,N,00849.5704,E,007.0,317.0,180706,,*36
$GPVTG,317.0,T,,,007.0,N,013.0,K*2D
$GPGSA,A,3,08,24,10,27,28,17,26,29,,,,,2.3,1.4,1.9*37
$GPGSV,3,1,10,08,80,088,42,10,67,252,42,27,47,062,41,29,43,290,39*75
$GPGSV,3,2,10,28,31,153,43,17,27,276,38,26,22,286,31,21,10,328,*7B
$GPGSV,3,3,10,13,09,100,,24,08,219,33*76
$GPGGA,163825.00,4837.5092,N,00849.5643,E,1,10,8.4,595.0,M,0.0,M,1.7,0000*7C
$GPRMC,163825.00,A,4837.5092,N,00849.5643,E,007.0,314.0,180706,,*36
$GPVTG,314.0,T,,,007.0,N,013.0,K*2E
$GPGSA,A,3,08,24,10,27,28,17,26,29,,,,,2.3,1.4,1.9*37
$GPGSV,3,1,10,08,80,088,42,10,67,252,42,27,47,062,41,29,43,290,39*75
$GPGSV,3,2,10,28,31,153,43,17,27,276,38,26,22,286,31,21,10,328,*7B
$GPGSV,3,3,10,13,09,100,,24,08,219,33*76
$GPGGA,163828.00,4837.5134,N,00849.5577,E,1,10,8.4,596.0,M,0.0,M,1.7,0000*7B
$GPRMC,163828.00,A,4837.5134,N,00849.5577,E,007.0,311.0,180706,,*37
$GPVTG,311.0,T,,,007.0,N,013.0,K*2B
$GPGSA,A,3,08,24,10,27,28,17,26,29,,,,,2.3,1.4,1.9*37
$GPGSV,3,1,10,08,80,088,42,10,67,252,42,27,47,062,41,29,43,290,39*75
$GPGSV,3,2,10,28,31,153,43,17,27,276,38,26,22,286,31,21,10,328,*7B
$GPGSV,3,3,10,13,09,100,,24,08,219,33*76
$GPGGA,163831.00,4837.5177,N,00849.5508,E,1,10,8.4,596.0,M,0.0,M,1.7,0000*7C
$GPRMC,163831.00,A,4837.5177,N,00849.5508,E,007.0,311.0,180706,,*30
$GPVTG,311.0,T,,,007.0,N,013.0,K*2B
$GPGSA,A,3,08,24,10,27,28,17,26,29,,,,,2.3,1.4,1.9*37
$GPGSV,3,1,10,08,80,088,42,10,67,252,42,27,47,062,41,29,43,290,39*75
$GPGSV,3,2,10,28,31,153,43,17,27,276,38,26,22,286,31,21,10,328,*7B
$GPGSV,3,3,10,13,09,100,,24,08,219,33*76
$GPGGA,163834.00,4837.5220,N,00849.5438,E,1,10,8.4,597.0,M,0.0,M,1.7,0000*7B
$GPRMC,163834.00,A,4837.5220,N,00849.5438,E,007.6,310.0,180706,,*31
$GPVTG,310.0,T,,,007.6,N,014.0,K*2B
$GPGSA,A,3,08,24,10,27,28,17,26,29,,,,,2.3,1.4,1.9*37
$GPGSV,3,1,10,08,80,088,42,10,67,252,42,27,47,062,41,29,43,290,39*75
$GPGSV,3,2,10,28,31,153,43,17,27,276,38,26,22,286,31,21,10,328,*7B
$GPGSV,3,3,10,13,09,100,,24,08,219,33*76
$GPGGA,163837.00,4837.5264,N,00849.5366,E,1,10,8.4,597.0,M,0.0,M,1.7,0000*74
$GPRMC,163837.00,A,4837.5264,N,00849.5366,E,007.6,313.0,180706,,*3D
$GPVTG,313.0,T,,,007.6,N,014.0,K*28
$GPGSA,A,3,08,24,10,27,28,17,26,29,,,,,2.3,1.4,1.9*37
$GPGSV,3,1,10,08,80,088,42,10,67,252,42,27,47,062,41,29,43,290,39*75
$GPGSV,3,2,10,28,31,153,43,17,27,276,38,26,22,286,31,21,10,328,*7B
$GPGSV,3,3,10,13,09,100,,24,08,219,33*76
$GPGGA,163840.00,4837.5308,N,00849.5294,E,1,10,8.4,597.0,M,0.0,M,1.7,0000*73
$GPRMC,163840.00,A,4837.5308,N,00849.5294,E,007.6,309.0,180706,,*31
$GPVTG,309.0,T,,,007.6,N,014.0,K*23
$GPGSA,A,3,08,24,10,27,28,17,26,29,,,,,2.3,1.4,1.9*37
$GPGSV,3,1,10,08,80,088,42,10,67,252,42,27,47,062,41,29,43,290,39*75
$GPGSV,3,2,10,28,31,153,43,17,27,276,38,26,22,286,31,21,10,328,*7B
$GPGSV,3,3,10,13,09,100,,24,08,219,33*76
$GPGGA,163843.00,4837.5350,N,00849.5216,E,1,10,8.4,597.0,M,0.0,M,1.7,0000*77
$GPRMC,163843.00,A,4837.5350,N,00849.5216,E,007.6,311.0,180706,,*3C
$GPVTG,311.0,T,,,007.6,N,014.0,K*2A
$GPGSA,A,3,08,24,10,27,28,17,26,29,,,,,2.3,1.4,1.9*37
$GPGSV,3,1,10,08,80,088,42,10,67,252,42,27,47,062,41,29,43,290,39*75
$GPGSV,3,2,10,28,31,153,43,17,27,276,38,26,22,286,31,21,10,328,*7B
$GPGSV,3,3,10,13,09,100,,24,08,219,33*76
$GPGGA,163846.00,4837.5393,N,00849.5137,E,1,10,8.4,597.0,M,0.0,M,1.7,0000*7D
$GPRMC,163846.00,A,4837.5393,N,00849.5137,E,007.6,311.0,180706,,*36
$GPVTG,311.0,T,,,007.6,N,014.0,K*2A
$GPGSA,A,3,08,24,10,27,28,17,26,29,,,,,2.3,1.4,1.9*37
$GPGSV,3,1,10,08,80,088,42,10,67,252,42,27,47,062,41,29,43,290,39*75
$GPGSV,3,2,10,28,31,153,43,17,27,276,38,26,22,286,31,21,10,328,*7B
$GPGSV,3,3,10,13,09,100,,24,08,219,33*76
$GPGGA,163849.00,4837.5434,N,00849.5063,E,1,10,8.4,597.0,M,0.0,M,1.7,0000*78
$GPRMC,163849.00,A,4837.5434,N,00849.5063,E,007.6,312.0,180706,,*30
$GPVTG,312.0,T,,,007.6,N,014.0,K*29
$GPGSA,A,3,08,24,10,27,28,17,26,29,,,,,2.3,1.4,1.9*37
$GPGSV,3,1,10,08,80,088,42,10,67,252,42,27,47,062,41,29,43,290,39*75
$GPGSV,3,2,10,28,31,153,43,17,27,276,38,26,22,286,31,21,10,328,*7B
$GPGSV,3,3,10,13,09,100,,24,08,219,33*76
$GPGGA,163852.00,4837.5473,N,00849.4989,E,1,10,8.4,597.0,M,0.0,M,1.7,0000*7D
$GPRMC,163852.00,A,4837.5473,N,00849.4989,E,007.6,309.0,180706,,*3F
$GPVTG,309.0,T,,,007.6,N,014.0,K*23
$GPGSA,A,3,08,24,10,27,28,17,26,29,,,,,2.3,1.4,1.9*37
$GPGSV,3,1,10,08,80,088,42,10,67,252,42,27,47,062,41,29,43,290,39*75
$GPGSV,3,2,10,28,31,153,43,17,27,276,38,26,22,286,31,21,10,328,*7B
$GPGSV,3,3,10,13,09,100,,24,08,219,33*76
$GPGGA,163855.00,4837.5512,N,00849.4913,E,1,10,8.4,598.0,M,0.0,M,1.7,0000*70
$GPRMC,163855.00,A,4837.5512,N,00849.4913,E,007.6,310.0,180706,,*35
$GPVTG,310.0,T,,,007.6,N,014.0,K*2B
$GPGSA,A,3,08,24,10,27,28,17,26,29,,,,,2.3,1.4,1.9*37
$GPGSV,3,1,10,08,80,088,42,10,67,252,42,27,47,062,41,29,43,290,39*75
$GPGSV,3,2,10,28,31,153,43,17,27,276,38,26,22,286,31,21,10,328,*7B
$GPGSV,3,3,10,13,09,100,,24,08,219,33*76
$GPGGA,163858.00,4837.5550,N,00849.4833,E,1,10,8.4,598.0,M,0.0,M,1.7,0000*78
$GPRMC,163858.00,A,4837.5550,N,00849.4833,E,007.6,305.0,180706,,*39
$GPVTG,305.0,T,,,007.6,N,014.0,K*2F
$GPGSA,A,3,08,24,10,27,28,17,26,29,,,,,2.3,1.4,1.9*37
$GPGSV,3,1,10,08,80,088,42,10,67,252,42,27,47,062,41,29,43,290,39*75
$GPGSV,3,2,10,28,31,153,43,17,27,276,38,26,22,286,31,21,10,328,*7B
$GPGSV,3,3,10,13,09,100,,24,08,219,33*76
$GPGGA,163901.00,4837.5584,N,00849.4748,E,1,10,8.4,599.0,M,0.0,M,1.7,0000*7E
$GPRMC,163901.00,A,4837.5584,N,00849.4748,E,007.6,296.0,180706,,*35
$GPVTG,296.0,T,,,007.6,N,014.0,K*24
$GPGSA,A,3,08,24,10,27,28,17,26,29,,,,,2.3,1.4,1.9*37
$GPGSV,3,1,10,08,80,088,42,10,67,252,42,27,47,062,41,29,43,290,39*75
$GPGSV,3,2,10,28,31,153,43,17,27,276,38,26,22,286,31,21,10,328,*7B
$GPGSV,3,3,10,13,09,100,,24,08,219,33*76
$GPGGA,163904.00,4837.5614,N,00849.4656,E,1,10,8.4,599.0,M,0.0,M,1.7,0000*7F
$GPRMC,163904.00,A,4837.5614,N,00849.4656,E,008.1,293.0,180706,,*39
$GPVTG,293.0,T,,,008.1,N,015.0,K*28
$GPGSA,A,3,08,24,10,27,28,17,26,29,,,,,2.3,1.4,1.9*37
$GPGSV,3,1,10,08,80,088,42,10,67,252,42,27,47,062,41,29,43,290,39*75
$GPGSV,3,2,10,28,31,153,43,17,27,276,38,26,22,286,31,21,10,328,*7B
$GPGSV,3,3,10,13,09,100,,24,08,219,33*76
$GPGGA,163907.00,4837.5641,N,00849.4557,E,1,10,8.4,599.0,M,0.0,M,1.7,0000*7E
