$GPSSETUP,8765,2,1,1,0,1,1,0,0,1,1,3,0,0,0,0,6,3,12C,96,1F4,1C2,32,64,7C,64,7D0,5,1,1,1E,0,0,0,0,0,0,1010,4,10,5,6,10,10,10,10,10,10,10,10,10,BC10,0,7E,1,108,302,604,0,20F,0,4000,0,4000,0,0,0,0,0,0,0,0,0,0,0,0,0,0,0,0,0,0,0,0,0,0,0,0,0,0,0,0,0,20,12C,46F*3C
$GNRMC,155602.50,A,4838.27813,N,00858.90767,E,29.70,87.81,230521,,,A*4F
$GNGGA,155602.50,4838.27813,N,00858.90767,E,1,09,0.96,498.8,M,47.5,M,,*4D
$GNGSA,A,3,01,08,14,21,27,,,,,,,,1.59,0.96,1.27*10
$GNVTG,87.81,T,,M,29.697,N,55.000,K,A*16
$SMGPS,2.1 m,-0.04 m/s,5.57 VRx,0.000 km,5 m,144.0 °,1:-- ( 32.3 km/h)*CD
$SMGPS2,-0.12 X,+0.14 Y,+1.26 Z,33 ENL,1085 us,43.6 kmh,960.49 hPa,959.22 hPa,+0.70 m/s*37
$GNRMC,155603.00,A,4838.27918,N,00858.91415,E,32.85,67.31,230521,,,A*43
$GNGGA,155603.00,4838.27918,N,00858.91415,E,1,08,1.12,498.5,M,47.5,M,,*45
$GNGSA,A,3,01,08,14,21,27,,,,,,,,1.82,1.12,1.43*19
$GNVTG,67.31,T,,M,32.841,N,60.821,K,A*11
$SMGPS,1.8 m,-0.37 m/s,5.58 VRx,0.020 km,20 m,111.5 °,1:4  ( 32.6 km/h)*E9
$SMGPS2,-0.16 X,+0.19 Y,+1.61 Z,29 ENL,1085 us,46.7 kmh,960.54 hPa,959.04 hPa,+1.39 m/s*36
$GNRMC,155603.50,A,4838.28236,N,00858.92128,E,30.46,43.10,230521,,,A*4E
$GNGGA,155603.50,4838.28236,N,00858.92128,E,1,08,1.12,497.8,M,47.5,M,,*42
$GNGSA,A,3,01,08,14,21,27,,,,,,,,1.82,1.12,1.43*19
$GNVTG,43.10,T,,M,30.434,N,56.365,K,A*16
$SMGPS,1.1 m,-0.62 m/s,5.57 VRx,0.028 km,27 m,101.9 °,1:4  ( 32.6 km/h)*ED
$SMGPS2,-0.17 X,+0.20 Y,+1.59 Z,17 ENL,1084 us,49.2 kmh,960.61 hPa,959.20 hPa,+1.30 m/s*39
$GNRMC,155604.00,A,4838.28583,N,00858.92471,E,29.40,22.33,230521,,,A*44
$GNGGA,155604.00,4838.28583,N,00858.92471,E,1,08,1.12,497.4,M,47.5,M,,*4C
$GNGSA,A,3,01,08,14,21,27,,,,,,,,1.82,1.12,1.43*19
$GNVTG,22.33,T,,M,29.356,N,54.367,K,A*1B
$SMGPS,0.7 m,-0.78 m/s,5.58 VRx,0.038 km,35 m,90.0 °,1:6  ( 36.0 km/h)*DC
$SMGPS2,-0.17 X,+0.21 Y,+1.69 Z,12 ENL,1084 us,50.4 kmh,960.66 hPa,959.24 hPa,+0.21 m/s*32
$GNRMC,155604.50,A,4838.28971,N,00858.92643,E,29.23,11.28,230521,,,A*4C
$GNGGA,155604.50,4838.28971,N,00858.92643,E,1,08,1.12,497.3,M,47.5,M,,*4C
$GNGSA,A,3,01,08,14,21,27,,,,,,,,1.82,1.12,1.43*19
$GNVTG,11.28,T,,M,29.197,N,54.073,K,A*18
$SMGPS,0.6 m,-0.68 m/s,5.58 VRx,0.046 km,40 m,80.8 °,1:6  ( 36.0 km/h)*DE
$SMGPS2,-0.18 X,+0.20 Y,+1.53 Z,7 ENL,1084 us,51.1 kmh,960.66 hPa,959.23 hPa,-0.02 m/s*05
$GNRMC,155605.00,A,4838.29295,N,00858.92625,E,20.41,337.28,230521,,,A*72
$GNGGA,155605.00,4838.29295,N,00858.92625,E,1,08,1.12,497.6,M,47.5,M,,*4D
$GNGSA,A,3,01,08,14,21,27,,,,,,,,1.82,1.12,1.43*19
$GNVTG,337.28,T,,M,20.394,N,37.769,K,A*2E
$SMGPS,0.9 m,-0.42 m/s,5.58 VRx,0.053 km,44 m,71.8 °,1:8  ( 37.9 km/h)*D1
$SMGPS2,-0.17 X,+0.22 Y,+1.68 Z,7 ENL,1085 us,52.1 kmh,960.63 hPa,959.14 hPa,+0.23 m/s*06
$GNRMC,155605.50,A,4838.29474,N,00858.92417,E,14.50,320.88,230521,,,A*76
$GNGGA,155605.50,4838.29474,N,00858.92417,E,1,08,1.12,498.3,M,47.5,M,,*48
$GNGSA,A,3,01,08,14,21,27,,,,,,,,1.82,1.12,1.43*19
$GNVTG,320.88,T,,M,14.498,N,26.849,K,A*23
$SMGPS,1.6 m,+0.07 m/s,5.58 VRx,0.060 km,46 m,64.1 °,1:8  ( 37.9 km/h)*D7
$SMGPS2,-0.14 X,+0.21 Y,+1.68 Z,26 ENL,1085 us,50.2 kmh,960.55 hPa,959.20 hPa,-0.15 m/s*35
$GNRMC,155606.00,A,4838.29493,N,00858.92164,E,12.95,280.87,230521,,,A*73
$GNGGA,155606.00,4838.29493,N,00858.92164,E,1,08,1.12,498.7,M,47.5,M,,*42
$GNGSA,A,3,01,08,14,21,27,,,,,,,,1.82,1.12,1.43*19
$GNVTG,280.87,T,,M,12.912,N,23.913,K,A*25
$SMGPS,2.0 m,+0.48 m/s,5.58 VRx,0.064 km,45 m,58.8 °,1:-- ( 37.9 km/h)*C0
$SMGPS2,-0.15 X,+0.19 Y,+1.50 Z,28 ENL,1084 us,49.7 kmh,960.49 hPa,959.16 hPa,+0.13 m/s*3E
$GNRMC,155606.50,A,4838.29371,N,00858.91967,E,15.01,236.76,230521,,,A*7C
$GNGGA,155606.50,4838.29371,N,00858.91967,E,1,08,1.12,498.8,M,47.5,M,,*4B
$GNGSA,A,3,01,08,14,21,27,,,,,,,,1.82,1.12,1.43*19
$GNVTG,236.76,T,,M,14.973,N,27.729,K,A*24
$SMGPS,2.1 m,+0.58 m/s,5.57 VRx,0.067 km,42 m,56.6 °,1:-- ( 37.9 km/h)*CB
$SMGPS2,-0.15 X,+0.17 Y,+1.22 Z,56 ENL,1084 us,48.3 kmh,960.48 hPa,959.30 hPa,+0.17 m/s*38
$GNRMC,155607.00,A,4838.29153,N,00858.91891,E,18.53,183.66,230521,,,A*74
$GNGGA,155607.00,4838.29153,N,00858.91891,E,1,08,1.12,498.6,M,47.5,M,,*4B
$GNGSA,A,3,01,08,14,21,27,,,,,,,,1.82,1.12,1.43*19
$GNVTG,183.66,T,,M,18.511,N,34.282,K,A*2A
$SMGPS,1.9 m,+0.39 m/s,5.58 VRx,0.070 km,40 m,56.8 °,1:-- ( 37.9 km/h)*C2
$SMGPS2,-0.15 X,+0.17 Y,+1.22 Z,41 ENL,1084 us,48.5 kmh,960.51 hPa,959.29 hPa,-0.03 m/s*3B
$GNRMC,155607.50,A,4838.28869,N,00858.91949,E,22.66,165.84,230521,,,A*7F
$GNGGA,155607.50,4838.28869,N,00858.91949,E,1,09,0.96,498.4,M,47.5,M,,*45
$GNGSA,A,3,01,08,14,21,27,,,,,,,,1.59,0.96,1.27*10
$GNVTG,165.84,T,,M,22.663,N,41.972,K,A*27
$SMGPS,1.7 m,+0.10 m/s,5.57 VRx,0.075 km,36 m,62.1 °,1:-- ( 37.9 km/h)*C2
$SMGPS2,-0.15 X,+0.17 Y,+1.16 Z,44 ENL,1084 us,49.2 kmh,960.55 hPa,959.17 hPa,+0.25 m/s*34
$GNRMC,155608.00,A,4838.28553,N,00858.92156,E,26.27,150.29,230521,,,A*74
$GNGGA,155608.00,4838.28553,N,00858.92156,E,1,09,0.96,498.4,M,47.5,M,,*4E
$GNGSA,A,3,01,08,14,21,27,,,,,,,,1.59,0.96,1.27*10
$GNVTG,150.29,T,,M,26.268,N,48.649,K,A*23
$SMGPS,1.7 m,-0.03 m/s,5.57 VRx,0.080 km,35 m,70.7 °,1:-- ( 37.9 km/h)*CA
$SMGPS2,-0.17 X,+0.23 Y,+1.53 Z,54 ENL,1084 us,53.9 kmh,960.53 hPa,958.90 hPa,+1.50 m/s*3A
$GNRMC,155608.50,A,4838.28254,N,00858.92534,E,28.78,134.26,230521,,,A*78
$GNGGA,155608.50,4838.28254,N,00858.92534,E,1,10,0.92,498.4,M,47.5,M,,*47
$GNGSA,A,3,01,08,14,21,27,,,,,,,,1.55,0.92,1.25*1A
$GNVTG,134.26,T,,M,28.775,N,53.292,K,A*21
$SMGPS,1.7 m,-0.06 m/s,5.57 VRx,0.086 km,36 m,79.8 °,1:6  ( 38.1 km/h)*DD
$SMGPS2,-0.20 X,+0.19 Y,+1.60 Z,48 ENL,1084 us,54.7 kmh,960.54 hPa,959.07 hPa,+1.44 m/s*3E
$GNRMC,155609.00,A,4838.28038,N,00858.93046,E,29.71,111.40,230521,,,A*7A
$GNGGA,155609.00,4838.28038,N,00858.93046,E,1,10,0.92,499.4,M,47.5,M,,*4B
$GNGSA,A,3,01,08,14,21,27,,,,,,,,1.55,0.92,1.25*1A
$GNVTG,111.40,T,,M,29.706,N,55.015,K,A*28
$SMGPS,2.7 m,+0.23 m/s,5.58 VRx,0.093 km,40 m,88.8 °,1:6  ( 38.1 km/h)*DB
$SMGPS2,-0.18 X,+0.18 Y,+1.64 Z,33 ENL,1084 us,52.4 kmh,960.41 hPa,959.06 hPa,-0.13 m/s*39
$GNRMC,155609.50,A,4838.27952,N,00858.93652,E,29.15,93.47,230521,,,A*48
$GNGGA,155609.50,4838.27952,N,00858.93652,E,1,10,0.92,500.5,M,47.5,M,,*47
$GNGSA,A,3,01,08,14,21,27,,,,,,,,1.55,0.92,1.25*1A
$GNVTG,93.47,T,,M,29.094,N,53.882,K,A*18
$SMGPS,3.8 m,+0.95 m/s,5.57 VRx,0.101 km,46 m,94.7 °,1:-- ( 38.1 km/h)*CF
$SMGPS2,-0.17 X,+0.16 Y,+1.37 Z,47 ENL,1085 us,49.7 kmh,960.29 hPa,959.11 hPa,+0.01 m/s*38
$GNRMC,155610.00,A,4838.28003,N,00858.94250,E,29.68,71.51,230521,,,A*47
$GNGGA,155610.00,4838.28003,N,00858.94250,E,1,10,0.92,501.2,M,47.5,M,,*4F
$GNGSA,A,3,01,08,14,21,27,,,,,,,,1.55,0.92,1.25*1A
$GNVTG,71.51,T,,M,29.574,N,54.771,K,A*1C
$SMGPS,4.5 m,+1.29 m/s,5.57 VRx,0.109 km,54 m,95.9 °,1:-- ( 38.1 km/h)*C7
$SMGPS2,-0.14 X,+0.16 Y,+1.31 Z,33 ENL,1084 us,46.0 kmh,960.22 hPa,959.14 hPa,-0.43 m/s*39
$GNRMC,155610.50,A,4838.28194,N,00858.94777,E,27.77,50.14,230521,,,A*4F
$GNGGA,155610.50,4838.28194,N,00858.94777,E,1,10,0.92,500.8,M,47.5,M,,*4E
$GNGSA,A,3,01,08,14,21,27,,,,,,,,1.55,0.92,1.25*1A
$GNVTG,50.14,T,,M,27.699,N,51.298,K,A*17
$SMGPS,4.1 m,+1.05 m/s,5.57 VRx,0.116 km,61 m,93.6 °,1:-- ( 38.1 km/h)*CC
$SMGPS2,-0.12 X,+0.16 Y,+1.29 Z,43 ENL,1084 us,44.3 kmh,960.27 hPa,959.26 hPa,-0.45 m/s*32
$GNRMC,155611.00,A,4838.28478,N,00858.95128,E,26.34,27.77,230521,,,A*42
$GNGGA,155611.00,4838.28478,N,00858.95128,E,1,10,0.92,499.6,M,47.5,M,,*4F
$GNGSA,A,3,01,08,14,21,27,,,,,,,,1.55,0.92,1.25*1A
$GNVTG,27.77,T,,M,26.342,N,48.785,K,A*11
$SMGPS,2.9 m,+0.10 m/s,5.57 VRx,0.123 km,67 m,91.1 °,1:-- ( 38.1 km/h)*C2
$SMGPS2,-0.15 X,+0.15 Y,+1.28 Z,50 ENL,1084 us,43.8 kmh,960.40 hPa,959.27 hPa,-0.88 m/s*38
$GNRMC,155611.50,A,4838.28817,N,00858.95269,E,26.33,4.69,230521,,,A*7D
$GNGGA,155611.50,4838.28817,N,00858.95269,E,1,10,0.92,498.3,M,47.5,M,,*4D
$GNGSA,A,3,01,08,14,21,27,,,,,,,,1.55,0.92,1.25*1A
$GNVTG,4.69,T,,M,26.273,N,48.658,K,A*2D
$SMGPS,1.6 m,-0.92 m/s,5.58 VRx,0.130 km,72 m,86.6 °,1:1  ( 39.3 km/h)*D8
$SMGPS2,-0.17 X,+0.21 Y,+1.59 Z,18 ENL,1085 us,48.7 kmh,960.55 hPa,959.02 hPa,-0.04 m/s*35
$GNRMC,155612.00,A,4838.29160,N,00858.95227,E,24.73,346.36,230521,,,A*70
$GNGGA,155612.00,4838.29160,N,00858.95227,E,1,10,0.92,497.5,M,47.5,M,,*40
$GNGSA,A,3,01,08,14,21,27,,,,,,,,1.55,0.92,1.25*1A
$GNVTG,346.36,T,,M,24.582,N,45.526,K,A*2E
$SMGPS,0.8 m,-1.39 m/s,5.57 VRx,0.137 km,74 m,81.8 °,1:1  ( 39.3 km/h)*D0
$SMGPS2,-0.20 X,+0.23 Y,+1.63 Z,58 ENL,1084 us,53.5 kmh,960.65 hPa,958.99 hPa,+1.00 m/s*34
$GNRMC,155612.50,A,4838.29454,N,00858.95056,E,22.02,329.74,230521,,,A*7C
$GNGGA,155612.50,4838.29454,N,00858.95056,E,1,10,0.92,497.6,M,47.5,M,,*40
$GNGSA,A,3,01,08,14,21,27,,,,,,,,1.55,0.92,1.25*1A
$GNVTG,329.74,T,,M,21.885,N,40.530,K,A*2C
$SMGPS,0.9 m,-1.24 m/s,5.57 VRx,0.143 km,75 m,76.9 °,1:1  ( 40.1 km/h)*DA
$SMGPS2,-0.20 X,+0.20 Y,+1.68 Z,36 ENL,1085 us,54.6 kmh,960.63 hPa,959.16 hPa,+0.35 m/s*36
$GNRMC,155613.00,A,4838.29665,N,00858.94811,E,17.55,313.06,230521,,,A*7A
$GNGGA,155613.00,4838.29665,N,00858.94811,E,1,10,0.92,499.0,M,47.5,M,,*46
$GNGSA,A,3,01,08,14,21,27,,,,,,,,1.55,0.92,1.25*1A
$GNVTG,313.06,T,,M,17.540,N,32.484,K,A*2A
$SMGPS,2.3 m,-0.26 m/s,5.58 VRx,0.149 km,74 m,72.4 °,1:1  ( 40.1 km/h)*DC
$SMGPS2,-0.19 X,+0.16 Y,+1.41 Z,36 ENL,1084 us,53.7 kmh,960.47 hPa,959.00 hPa,+0.03 m/s*31
$GNRMC,155613.50,A,4838.29784,N,00858.94542,E,14.47,303.01,230521,,,A*7C
$GNGGA,155613.50,4838.29784,N,00858.94542,E,1,10,0.92,500.3,M,47.5,M,,*44
$GNGSA,A,3,01,08,14,21,27,,,,,,,,1.55,0.92,1.25*1A
$GNVTG,303.01,T,,M,14.383,N,26.638,K,A*26
$SMGPS,3.6 m,+0.79 m/s,5.57 VRx,0.155 km,73 m,68.2 °,1:-- ( 40.1 km/h)*CD
$SMGPS2,-0.16 X,+0.12 Y,+1.09 Z,46 ENL,1085 us,51.4 kmh,960.31 hPa,959.05 hPa,+0.42 m/s*30
$GNRMC,155614.00,A,4838.29813,N,00858.94278,E,13.29,282.36,230521,,,A*72
$GNGGA,155614.00,4838.29813,N,00858.94278,E,1,10,0.92,501.2,M,47.5,M,,*49
$GNGSA,A,3,01,08,14,21,27,,,,,,,,1.55,0.92,1.25*1A
$GNVTG,282.36,T,,M,12.978,N,24.034,K,A*2A
$SMGPS,4.5 m,+1.47 m/s,5.58 VRx,0.158 km,71 m,65.9 °,1:-- ( 40.1 km/h)*C3
$SMGPS2,-0.15 X,+0.12 Y,+0.98 Z,24 ENL,1085 us,49.7 kmh,960.21 hPa,958.89 hPa,+0.54 m/s*37
$GNRMC,155614.50,A,4838.29753,N,00858.94031,E,13.76,257.07,230521,,,A*73
$GNGGA,155614.50,4838.29753,N,00858.94031,E,1,10,0.92,501.4,M,47.5,M,,*4E
$GNGSA,A,3,01,08,14,21,27,,,,,,,,1.55,0.92,1.25*1A
$GNVTG,257.07,T,,M,13.498,N,24.998,K,A*2D
$SMGPS,4.7 m,+1.37 m/s,5.57 VRx,0.162 km,68 m,64.2 °,1:-- ( 40.1 km/h)*C2
$SMGPS2,-0.15 X,+0.13 Y,+1.05 Z,52 ENL,1085 us,48.5 kmh,960.19 hPa,958.94 hPa,+0.69 m/s*38
$GNRMC,155615.00,A,4838.29603,N,00858.93840,E,16.33,207.54,230521,,,A*7D
$GNGGA,155615.00,4838.29603,N,00858.93840,E,1,10,0.92,501.3,M,47.5,M,,*40
$GNGSA,A,3,01,08,14,21,27,,,,,,,,1.55,0.92,1.25*1A
$GNVTG,207.54,T,,M,16.247,N,30.090,K,A*2B
$SMGPS,4.6 m,+0.85 m/s,5.57 VRx,0.165 km,65 m,64.4 °,1:-- ( 40.1 km/h)*C7
$SMGPS2,-0.17 X,+0.18 Y,+1.29 Z,35 ENL,1085 us,49.8 kmh,960.21 hPa,958.81 hPa,+0.83 m/s*39
$GNRMC,155615.50,A,4838.29375,N,00858.93759,E,19.41,187.73,230521,,,A*7F
$GNGGA,155615.50,4838.29375,N,00858.93759,E,1,10,0.92,501.3,M,47.5,M,,*46
$GNGSA,A,3,01,08,14,21,27,,,,,,,,1.55,0.92,1.25*1A
$GNVTG,187.73,T,,M,19.388,N,35.906,K,A*2B
$SMGPS,4.6 m,+0.46 m/s,5.57 VRx,0.169 km,61 m,65.9 °,1:-- ( 40.1 km/h)*CC
$SMGPS2,-0.18 X,+0.19 Y,+1.36 Z,51 ENL,1085 us,53.1 kmh,960.21 hPa,958.72 hPa,+1.46 m/s*3D
$GNRMC,155616.00,A,4838.29099,N,00858.93764,E,21.20,174.85,230521,,,A*7F
$GNGGA,155616.00,4838.29099,N,00858.93764,E,1,10,0.92,501.2,M,47.5,M,,*4E
$GNGSA,A,3,01,08,14,21,27,,,,,,,,1.55,0.92,1.25*1A
$GNVTG,174.85,T,,M,21.195,N,39.253,K,A*2C
$SMGPS,4.5 m,+0.26 m/s,5.57 VRx,0.172 km,59 m,68.5 °,1:-- ( 40.1 km/h)*C9
$SMGPS2,-0.16 X,+0.17 Y,+1.00 Z,87 ENL,1084 us,51.9 kmh,960.21 hPa,958.87 hPa,+0.47 m/s*32
$GNRMC,155616.50,A,4838.28806,N,00858.93830,E,21.68,171.39,230521,,,A*75
$GNGGA,155616.50,4838.28806,N,00858.93830,E,1,10,0.92,501.3,M,47.5,M,,*4B
$GNGSA,A,3,01,08,14,21,27,,,,,,,,1.55,0.92,1.25*1A
$GNVTG,171.39,T,,M,21.677,N,40.146,K,A*2C
$SMGPS,4.6 m,+0.20 m/s,5.58 VRx,0.178 km,57 m,73.7 °,1:6  ( 39.2 km/h)*D4
$SMGPS2,-0.16 X,+0.15 Y,+1.02 Z,26 ENL,1085 us,50.6 kmh,960.20 hPa,958.86 hPa,-0.35 m/s*35
$GNRMC,155617.00,A,4838.28511,N,00858.93894,E,21.12,174.66,230521,,,A*76
$GNGGA,155617.00,4838.28511,N,00858.93894,E,1,10,0.92,501.6,M,47.5,M,,*4F
$GNGSA,A,3,01,08,14,21,27,,,,,,,,1.55,0.92,1.25*1A
$GNVTG,174.66,T,,M,21.118,N,39.111,K,A*21
$SMGPS,4.9 m,+0.28 m/s,5.57 VRx,0.184 km,57 m,79.2 °,1:6  ( 39.2 km/h)*D0
$SMGPS2,-0.15 X,+0.14 Y,+0.89 Z,34 ENL,1084 us,50.7 kmh,960.16 hPa,958.84 hPa,+0.06 m/s*37
$GNRMC,155617.50,A,4838.28228,N,00858.93906,E,19.81,184.87,230521,,,A*75
$GNGGA,155617.50,4838.28228,N,00858.93906,E,1,10,0.92,501.6,M,47.5,M,,*4D
$GNGSA,A,3,01,08,14,21,27,,,,,,,,1.55,0.92,1.25*1A
$GNVTG,184.87,T,,M,19.798,N,36.667,K,A*2D
$SMGPS,4.9 m,+0.29 m/s,5.56 VRx,0.189 km,57 m,84.9 °,1:-- ( 39.2 km/h)*C2
$SMGPS2,-0.15 X,+0.16 Y,+1.02 Z,74 ENL,1084 us,49.3 kmh,960.17 hPa,958.89 hPa,-0.22 m/s*33
$GNRMC,155618.00,A,4838.27978,N,00858.93801,E,18.28,209.00,230521,,,A*73
$GNGGA,155618.00,4838.27978,N,00858.93801,E,1,10,0.92,501.3,M,47.5,M,,*45
$GNGSA,A,3,01,08,14,21,27,,,,,,,,1.55,0.92,1.25*1A
$GNVTG,209.00,T,,M,18.282,N,33.858,K,A*2C
$SMGPS,4.6 m,+0.05 m/s,5.57 VRx,0.194 km,57 m,90.0 °,1:-- ( 39.2 km/h)*C2
$SMGPS2,-0.18 X,+0.18 Y,+1.36 Z,37 ENL,1085 us,49.3 kmh,960.20 hPa,959.02 hPa,-0.26 m/s*33
$GNRMC,155618.50,A,4838.27816,N,00858.93550,E,17.48,245.61,230521,,,A*70
$GNGGA,155618.50,4838.27816,N,00858.93550,E,1,11,0.88,501.3,M,47.5,M,,*4A
$GNGSA,A,3,01,08,14,21,27,22,,,,,,,1.53,0.88,1.24*16
$GNVTG,245.61,T,,M,17.482,N,32.377,K,A*2D
$SMGPS,4.6 m,-0.09 m/s,5.57 VRx,0.199 km,56 m,94.8 °,1:-- ( 39.2 km/h)*C8
$SMGPS2,-0.18 X,+0.16 Y,+1.55 Z,56 ENL,1085 us,49.2 kmh,960.21 hPa,958.89 hPa,-0.32 m/s*38
$GNRMC,155619.00,A,4838.27793,N,00858.93190,E,19.46,282.05,230521,,,A*77
$GNGGA,155619.00,4838.27793,N,00858.93190,E,1,11,0.88,500.8,M,47.5,M,,*4E
$GNGSA,A,3,01,08,14,21,27,22,,,,,,,1.53,0.88,1.24*16
$GNVTG,282.05,T,,M,19.459,N,36.038,K,A*20
$SMGPS,4.1 m,-0.11 m/s,5.58 VRx,0.203 km,53 m,97.8 °,1:4  ( 38.6 km/h)*DE
$SMGPS2,-0.17 X,+0.13 Y,+1.46 Z,56 ENL,1084 us,49.3 kmh,960.26 hPa,958.93 hPa,-0.13 m/s*3F
$GNRMC,155619.50,A,4838.27921,N,00858.92817,E,22.70,310.96,230521,,,A*7F
$GNGGA,155619.50,4838.27921,N,00858.92817,E,1,11,0.88,500.1,M,47.5,M,,*42
$GNGSA,A,3,01,08,14,21,27,22,,,,,,,1.53,0.88,1.24*16
$GNVTG,310.96,T,,M,22.672,N,41.988,K,A*21
$SMGPS,3.4 m,-0.54 m/s,5.57 VRx,0.208 km,49 m,100.0 °,1:4  ( 38.6 km/h)*E5
$SMGPS2,-0.23 X,+0.16 Y,+1.57 Z,58 ENL,1085 us,52.5 kmh,960.35 hPa,958.74 hPa,+0.33 m/s*31
$GNRMC,155620.00,A,4838.28177,N,00858.92532,E,25.25,333.21,230521,,,A*74
$GNGGA,155620.00,4838.28177,N,00858.92532,E,1,11,0.88,499.5,M,47.5,M,,*46
$GNGSA,A,3,01,08,14,21,27,22,,,,,,,1.53,0.88,1.24*16
$GNVTG,333.21,T,,M,25.190,N,46.651,K,A*2C
$SMGPS,2.8 m,-0.92 m/s,5.58 VRx,0.213 km,44 m,97.2 °,1:5  ( 38.3 km/h)*D3
$SMGPS2,-0.25 X,+0.17 Y,+1.85 Z,35 ENL,1085 us,56.3 kmh,960.41 hPa,958.61 hPa,+1.03 m/s*35
$GNRMC,155620.50,A,4838.28540,N,00858.92451,E,29.74,7.20,230521,,,A*78
$GNGGA,155620.50,4838.28540,N,00858.92451,E,1,11,0.88,499.8,M,47.5,M,,*4A
$GNGSA,A,3,01,08,14,21,27,22,,,,,,,1.53,0.88,1.24*16
$GNVTG,7.20,T,,M,29.708,N,55.020,K,A*20
$SMGPS,3.1 m,-0.75 m/s,5.57 VRx,0.219 km,40 m,91.8 °,1:5  ( 38.3 km/h)*DF
$SMGPS2,-0.26 X,+0.20 Y,+2.24 Z,44 ENL,1085 us,59.4 kmh,960.37 hPa,958.54 hPa,+1.57 m/s*32
$GNRMC,155621.00,A,4838.28939,N,00858.92696,E,33.92,35.23,230521,,,A*46
$GNGGA,155621.00,4838.28939,N,00858.92696,E,1,11,0.88,501.0,M,47.5,M,,*4D
$GNGSA,A,3,01,08,14,21,27,22,,,,,,,1.53,0.88,1.24*16
$GNVTG,35.23,T,,M,33.919,N,62.818,K,A*10
$SMGPS,4.3 m,-0.00 m/s,5.58 VRx,0.225 km,39 m,82.5 °,1:8  ( 38.8 km/h)*DF
$SMGPS2,-0.25 X,+0.21 Y,+2.08 Z,42 ENL,1084 us,58.7 kmh,960.22 hPa,958.68 hPa,+1.15 m/s*36
$GNRMC,155621.50,A,4838.29244,N,00858.93199,E,32.97,60.44,230521,,,A*4F
$GNGGA,155621.50,4838.29244,N,00858.93199,E,1,11,0.88,502.9,M,47.5,M,,*4B
$GNGSA,A,3,01,08,14,21,27,22,,,,,,,1.53,0.88,1.24*16
$GNVTG,60.44,T,,M,32.896,N,60.924,K,A*1A
$SMGPS,6.2 m,+1.17 m/s,5.58 VRx,0.234 km,44 m,72.1 °,1:8  ( 38.8 km/h)*DC
$SMGPS2,-0.21 X,+0.18 Y,+1.72 Z,61 ENL,1084 us,53.9 kmh,960.01 hPa,958.76 hPa,+0.03 m/s*3A
$GNRMC,155622.00,A,4838.29382,N,00858.93816,E,30.88,81.96,230521,,,A*40
$GNGGA,155622.00,4838.29382,N,00858.93816,E,1,11,0.88,504.1,M,47.5,M,,*46
$GNGSA,A,3,01,08,14,21,27,22,,,,,,,1.53,0.88,1.24*16
$GNVTG,81.96,T,,M,30.638,N,56.742,K,A*19
$SMGPS,7.4 m,+2.00 m/s,5.58 VRx,0.242 km,52 m,68.8 °,1:-- ( 38.8 km/h)*C2
$SMGPS2,-0.16 X,+0.16 Y,+1.46 Z,41 ENL,1084 us,47.6 kmh,959.88 hPa,958.84 hPa,-0.72 m/s*39
$GNRMC,155622.50,A,4838.29364,N,00858.94452,E,29.72,103.45,230521,,,A*7E
$GNGGA,155622.50,4838.29364,N,00858.94452,E,1,11,0.88,504.6,M,47.5,M,,*47
$GNGSA,A,3,01,08,14,21,27,22,,,,,,,1.53,0.88,1.24*16
$GNVTG,103.45,T,,M,29.481,N,54.598,K,A*23
$SMGPS,7.9 m,+1.93 m/s,5.58 VRx,0.250 km,60 m,68.8 °,1:-- ( 38.8 km/h)*C4
$SMGPS2,-0.16 X,+0.16 Y,+1.40 Z,36 ENL,1085 us,44.8 kmh,959.83 hPa,958.76 hPa,-0.57 m/s*32
$GNRMC,155623.00,A,4838.29204,N,00858.94975,E,26.66,128.29,230521,,,A*7C
$GNGGA,155623.00,4838.29204,N,00858.94975,E,1,11,0.88,504.4,M,47.5,M,,*4E
$GNGSA,A,3,01,08,14,21,27,22,,,,,,,1.53,0.88,1.24*16
$GNVTG,128.29,T,,M,26.532,N,49.137,K,A*2B
$SMGPS,7.7 m,+1.34 m/s,5.58 VRx,0.258 km,67 m,71.9 °,1:-- ( 38.8 km/h)*C1
$SMGPS2,-0.18 X,+0.13 Y,+1.54 Z,26 ENL,1085 us,46.3 kmh,959.84 hPa,958.44 hPa,+0.44 m/s*36
$GNRMC,155623.50,A,4838.28933,N,00858.95283,E,24.35,163.18,230521,,,A*7D
$GNGGA,155623.50,4838.28933,N,00858.95283,E,1,11,0.88,503.6,M,47.5,M,,*43
$GNGSA,A,3,01,08,14,21,27,22,,,,,,,1.53,0.88,1.24*16
$GNVTG,163.18,T,,M,24.321,N,45.042,K,A*2F
$SMGPS,6.9 m,+0.57 m/s,5.58 VRx,0.265 km,72 m,75.7 °,1:-- ( 38.8 km/h)*CA
$SMGPS2,-0.19 X,+0.14 Y,+1.71 Z,36 ENL,1085 us,50.9 kmh,959.94 hPa,958.50 hPa,+1.77 m/s*3E
$GNRMC,155624.00,A,4838.28623,N,00858.95321,E,21.63,190.48,230521,,,A*77
$GNGGA,155624.00,4838.28623,N,00858.95321,E,1,11,0.88,502.6,M,47.5,M,,*47
$GNGSA,A,3,01,08,14,21,27,22,,,,,,,1.53,0.88,1.24*16
$GNVTG,190.48,T,,M,21.621,N,40.042,K,A*23
$SMGPS,5.9 m,-0.37 m/s,5.58 VRx,0.271 km,75 m,79.5 °,1:1  ( 39.5 km/h)*D8
$SMGPS2,-0.24 X,+0.19 Y,+1.69 Z,27 ENL,1085 us,53.5 kmh,960.05 hPa,958.39 hPa,+0.95 m/s*3B
$GNRMC,155624.50,A,4838.28393,N,00858.95115,E,19.75,230.03,230521,,,A*73
$GNGGA,155624.50,4838.28393,N,00858.95115,E,1,11,0.88,502.8,M,47.5,M,,*47
$GNGSA,A,3,01,08,14,21,27,22,,,,,,,1.53,0.88,1.24*16
$GNVTG,230.03,T,,M,19.708,N,36.499,K,A*27
$SMGPS,6.1 m,-0.64 m/s,5.57 VRx,0.277 km,75 m,84.4 °,1:1  ( 39.5 km/h)*DF
$SMGPS2,-0.23 X,+0.21 Y,+2.18 Z,67 ENL,1084 us,55.4 kmh,960.03 hPa,958.44 hPa,+0.89 m/s*31
$GNRMC,155625.00,A,4838.28309,N,00858.94779,E,17.50,270.08,230521,,,A*7F
$GNGGA,155625.00,4838.28309,N,00858.94779,E,1,11,0.88,503.2,M,47.5,M,,*46
$GNGSA,A,3,01,08,14,21,27,22,,,,,,,1.53,0.88,1.24*16
$GNVTG,270.08,T,,M,17.497,N,32.404,K,A*23
$SMGPS,6.5 m,-0.18 m/s,5.58 VRx,0.282 km,72 m,88.0 °,1:3  ( 39.8 km/h)*D5
$SMGPS2,-0.20 X,+0.15 Y,+1.64 Z,23 ENL,1085 us,53.1 kmh,959.98 hPa,958.58 hPa,-0.22 m/s*3D
$GNRMC,155625.50,A,4838.28392,N,00858.94452,E,19.70,302.60,230521,,,A*74
$GNGGA,155625.50,4838.28392,N,00858.94452,E,1,10,0.91,503.4,M,47.5,M,,*44
$GNGSA,A,3,01,08,14,21,22,,,,,,,,1.56,0.91,1.27*1D
$GNVTG,302.60,T,,M,19.699,N,36.482,K,A*21
$SMGPS,6.7 m,+0.15 m/s,5.58 VRx,0.287 km,68 m,88.6 °,1:3  ( 39.8 km/h)*D4
$SMGPS2,-0.22 X,+0.15 Y,+1.53 Z,10 ENL,1085 us,53.7 kmh,959.96 hPa,958.33 hPa,+0.09 m/s*31
$GNRMC,155626.00,A,4838.28611,N,00858.94198,E,22.49,332.20,230521,,,A*7A
$GNGGA,155626.00,4838.28611,N,00858.94198,E,1,10,0.91,503.9,M,47.5,M,,*42
$GNGSA,A,3,01,08,14,21,22,,,,,,,,1.56,0.91,1.26*1C
$GNVTG,332.20,T,,M,22.481,N,41.635,K,A*2B
$SMGPS,7.2 m,+0.31 m/s,5.58 VRx,0.291 km,64 m,87.7 °,1:3  ( 39.8 km/h)*D3
$SMGPS2,-0.22 X,+0.15 Y,+1.54 Z,6 ENL,1084 us,53.5 kmh,959.90 hPa,958.47 hPa,+0.47 m/s*0D
$GNRMC,155626.50,A,4838.28938,N,00858.94105,E,26.97,3.23,230521,,,A*7A
$GNGGA,155626.50,4838.28938,N,00858.94105,E,1,10,0.91,504.2,M,47.5,M,,*4B
$GNGSA,A,3,01,08,14,21,22,,,,,,,,1.56,0.91,1.26*1C
$GNVTG,3.23,T,,M,26.950,N,49.912,K,A*2E
$SMGPS,7.5 m,+0.51 m/s,5.58 VRx,0.296 km,61 m,83.2 °,1:-- ( 39.8 km/h)*C2
$SMGPS2,-0.21 X,+0.15 Y,+1.74 Z,46 ENL,1085 us,54.2 kmh,959.88 hPa,958.36 hPa,+0.65 m/s*36
$GNRMC,155627.00,A,4838.29313,N,00858.94256,E,29.61,24.68,230521,,,A*45
$GNGGA,155627.00,4838.29313,N,00858.94256,E,1,11,0.88,504.4,M,47.5,M,,*47
$GNGSA,A,3,01,08,14,21,27,22,,,,,,,1.53,0.88,1.24*16
$GNVTG,24.68,T,,M,29.592,N,54.805,K,A*12
$SMGPS,7.7 m,+0.55 m/s,5.58 VRx,0.303 km,61 m,77.1 °,1:-- ( 39.8 km/h)*C1
$SMGPS2,-0.21 X,+0.15 Y,+1.61 Z,39 ENL,1085 us,54.0 kmh,959.84 hPa,958.34 hPa,+0.61 m/s*32
$GNRMC,155627.50,A,4838.29663,N,00858.94620,E,31.62,44.93,230521,,,A*4F
$GNGGA,155627.50,4838.29663,N,00858.94620,E,1,11,0.88,505.1,M,47.5,M,,*41
$GNGSA,A,3,01,08,14,21,27,22,,,,,,,1.53,0.88,1.24*16
$GNVTG,44.93,T,,M,31.599,N,58.522,K,A*16
$SMGPS,8.4 m,+0.65 m/s,5.58 VRx,0.310 km,64 m,71.9 °,1:-- ( 39.8 km/h)*C7
$SMGPS2,-0.20 X,+0.17 Y,+1.53 Z,65 ENL,1085 us,52.5 kmh,959.76 hPa,958.43 hPa,+0.18 m/s*39
$GNRMC,155628.00,A,4838.29912,N,00858.95163,E,31.34,65.92,230521,,,A*4C
$GNGGA,155628.00,4838.29912,N,00858.95163,E,1,11,0.88,506.0,M,47.5,M,,*41
$GNGSA,A,3,01,08,14,21,27,22,,,,,,,1.53,0.88,1.24*16
$GNVTG,65.92,T,,M,31.287,N,57.943,K,A*18
$SMGPS,9.3 m,+0.97 m/s,5.58 VRx,0.317 km,71 m,68.5 °,1:-- ( 39.8 km/h)*CB
$SMGPS2,-0.17 X,+0.19 Y,+1.68 Z,71 ENL,1085 us,49.2 kmh,959.67 hPa,958.47 hPa,-0.40 m/s*3C
$GNRMC,155628.50,A,4838.30023,N,00858.95794,E,31.32,85.26,230521,,,A*43
$GNGGA,155628.50,4838.30023,N,00858.95794,E,1,11,0.88,506.4,M,47.5,M,,*4D
$GNGSA,A,3,01,08,14,21,27,22,,,,,,,1.53,0.88,1.24*16
$GNVTG,85.26,T,,M,31.245,N,57.865,K,A*12
$SMGPS,9.7 m,+1.14 m/s,5.57 VRx,0.326 km,79 m,66.5 °,1:-- ( 39.8 km/h)*CE
$SMGPS2,-0.17 X,+0.16 Y,+1.41 Z,66 ENL,1085 us,46.3 kmh,959.62 hPa,958.52 hPa,-0.60 m/s*33
$GNRMC,155629.00,A,4838.29978,N,00858.96427,E,30.23,108.30,230521,,,A*72
$GNGGA,155629.00,4838.29978,N,00858.96427,E,1,11,0.88,505.9,M,47.5,M,,*40
$GNGSA,A,3,01,08,14,21,27,22,,,,,,,1.53,0.88,1.24*16
$GNVTG,108.30,T,,M,30.194,N,55.920,K,A*2D
$SMGPS,9.2 m,+0.76 m/s,5.58 VRx,0.334 km,87 m,67.2 °,1:-- ( 39.8 km/h)*C5
$SMGPS2,-0.18 X,+0.13 Y,+1.37 Z,8 ENL,1085 us,45.8 kmh,959.68 hPa,958.53 hPa,-0.36 m/s*00
$GNRMC,155629.50,A,4838.29776,N,00858.96954,E,29.14,135.06,230521,,,A*79
$GNGGA,155629.50,4838.29776,N,00858.96954,E,1,11,0.88,504.6,M,47.5,M,,*42
$GNGSA,A,3,01,08,14,21,27,22,,,,,,,1.53,0.88,1.24*16
$GNVTG,135.06,T,,M,29.141,N,53.969,K,A*2D
$SMGPS,7.9 m,-0.11 m/s,5.58 VRx,0.342 km,94 m,69.8 °,1:25 ( 41.5 km/h)*C5
$SMGPS2,-0.20 X,+0.15 Y,+1.82 Z,8 ENL,1085 us,51.1 kmh,959.82 hPa,958.17 hPa,+0.79 m/s*06
$GNRMC,155630.00,A,4838.29461,N,00858.97231,E,26.15,168.73,230521,,,A*7C
$GNGGA,155630.00,4838.29461,N,00858.97231,E,1,11,0.88,503.1,M,47.5,M,,*43
$GNGSA,A,3,01,08,14,21,27,22,,,,,,,1.53,0.88,1.24*16
$GNVTG,168.73,T,,M,26.053,N,48.250,K,A*21
$SMGPS,6.4 m,-1.15 m/s,5.58 VRx,0.349 km,99 m,72.9 °,1:25 ( 41.5 km/h)*C1
$SMGPS2,-0.27 X,+0.21 Y,+2.14 Z,24 ENL,1085 us,56.2 kmh,960.01 hPa,958.18 hPa,+1.65 m/s*32
$GNRMC,155630.50,A,4838.29139,N,00858.97196,E,22.78,202.10,230521,,,A*7A
$GNGGA,155630.50,4838.29139,N,00858.97196,E,1,11,0.88,502.9,M,47.5,M,,*49
$GNGSA,A,3,01,08,14,21,27,22,,,,,,,1.53,0.88,1.24*16
$GNVTG,202.10,T,,M,22.587,N,41.830,K,A*26
$SMGPS,6.2 m,-1.51 m/s,5.58 VRx,0.356 km,100 m,77.0 °,1:23 ( 42.6 km/h)*F2
$SMGPS2,-0.28 X,+0.21 Y,+2.29 Z,25 ENL,1085 us,60.1 kmh,960.01 hPa,958.10 hPa,+1.25 m/s*38
$GNRMC,155631.00,A,4838.28911,N,00858.96932,E,19.12,232.78,230521,,,A*73
$GNGGA,155631.00,4838.28911,N,00858.96932,E,1,11,0.88,504.4,M,47.5,M,,*42
$GNGSA,A,3,01,08,14,21,27,22,,,,,,,1.53,0.88,1.24*16
$GNVTG,232.78,T,,M,19.088,N,35.350,K,A*27
$SMGPS,7.7 m,-0.60 m/s,5.57 VRx,0.361 km,99 m,80.1 °,1:23 ( 42.6 km/h)*C6
$SMGPS2,-0.25 X,+0.19 Y,+2.17 Z,77 ENL,1084 us,59.5 kmh,959.85 hPa,958.20 hPa,+0.90 m/s*31
$GNRMC,155631.50,A,4838.28817,N,00858.96607,E,15.92,262.22,230521,,,A*76
$GNGGA,155631.50,4838.28817,N,00858.96607,E,1,11,0.88,506.4,M,47.5,M,,*4B
$GNGSA,A,3,01,08,14,21,27,22,,,,,,,1.53,0.88,1.24*16
$GNVTG,262.22,T,,M,15.830,N,29.316,K,A*25
$SMGPS,9.7 m,+0.88 m/s,5.58 VRx,0.367 km,95 m,82.5 °,1:-- ( 42.6 km/h)*CA
$SMGPS2,-0.14 X,+0.08 Y,+0.87 Z,16 ENL,1085 us,54.8 kmh,959.60 hPa,958.32 hPa,-0.23 m/s*38
$GNRMC,155632.00,A,4838.28826,N,00858.96281,E,15.82,272.88,230521,,,A*78
$GNGGA,155632.00,4838.28826,N,00858.96281,E,1,11,0.88,507.7,M,47.5,M,,*47
$GNGSA,A,3,01,08,14,21,27,22,,,,,,,1.53,0.88,1.24*16
$GNVTG,272.88,T,,M,15.341,N,28.411,K,A*28
$SMGPS,11.0 m,+1.99 m/s,5.57 VRx,0.371 km,91 m,83.3 °,1:-- ( 42.6 km/h)*FE
$SMGPS2,-0.13 X,+0.09 Y,+0.75 Z,38 ENL,1084 us,49.9 kmh,959.47 hPa,958.25 hPa,-0.29 m/s*3A
$GNRMC,155632.50,A,4838.28887,N,00858.95982,E,16.48,288.09,230521,,,A*74
$GNGGA,155632.50,4838.28887,N,00858.95982,E,1,11,0.88,507.8,M,47.5,M,,*4D
$GNGSA,A,3,01,08,14,21,27,22,,,,,,,1.53,0.88,1.24*16
$GNVTG,288.09,T,,M,16.121,N,29.856,K,A*2D
$SMGPS,11.1 m,+1.75 m/s,5.57 VRx,0.375 km,87 m,83.0 °,1:-- ( 42.6 km/h)*FD
$SMGPS2,-0.13 X,+0.04 Y,+0.87 Z,47 ENL,1084 us,47.4 kmh,959.46 hPa,958.27 hPa,-0.19 m/s*31
$GNRMC,155633.00,A,4838.28963,N,00858.95659,E,16.16,291.64,230521,,,A*7A
$GNGGA,155633.00,4838.28963,N,00858.95659,E,1,11,0.88,508.1,M,47.5,M,,*4D
$GNGSA,A,3,01,08,14,21,27,22,,,,,,,1.53,0.88,1.24*16
$GNVTG,291.64,T,,M,15.968,N,29.574,K,A*25
$SMGPS,11.4 m,+1.28 m/s,5.57 VRx,0.380 km,84 m,81.5 °,1:-- ( 42.6 km/h)*FE
$SMGPS2,-0.13 X,+0.01 Y,+1.02 Z,55 ENL,1085 us,47.5 kmh,959.42 hPa,958.22 hPa,+0.21 m/s*37
$GNRMC,155633.50,A,4838.29007,N,00858.95339,E,15.34,280.96,230521,,,A*78
$GNGGA,155633.50,4838.29007,N,00858.95339,E,1,11,0.88,507.8,M,47.5,M,,*47
$GNGSA,A,3,01,08,14,21,27,22,,,,,,,1.53,0.88,1.24*16
$GNVTG,280.96,T,,M,15.259,N,28.259,K,A*28
$SMGPS,11.1 m,+0.82 m/s,5.57 VRx,0.384 km,80 m,80.2 °,1:-- ( 42.6 km/h)*FC
$SMGPS2,-0.16 X,+0.06 Y,+1.21 Z,49 ENL,1084 us,47.6 kmh,959.45 hPa,958.22 hPa,+0.26 m/s*3B
$GNRMC,155634.00,A,4838.28970,N,00858.95034,E,14.58,262.48,230521,,,A*78
$GNGGA,155634.00,4838.28970,N,00858.95034,E,1,11,0.88,507.8,M,47.5,M,,*43
$GNGSA,A,3,01,08,14,21,27,22,,,,,,,1.53,0.88,1.24*16
$GNVTG,262.48,T,,M,14.562,N,26.969,K,A*2F
$SMGPS,11.1 m,+0.38 m/s,5.58 VRx,0.388 km,76 m,79.0 °,1:-- ( 42.6 km/h)*F3
$SMGPS2,-0.17 X,+0.11 Y,+0.94 Z,31 ENL,1085 us,49.0 kmh,959.46 hPa,957.98 hPa,+0.46 m/s*3E
$GNRMC,155634.50,A,4838.28849,N,00858.94772,E,16.53,220.43,230521,,,A*76
$GNGGA,155634.50,4838.28849,N,00858.94772,E,1,11,0.88,507.4,M,47.5,M,,*45
$GNGSA,A,3,01,08,14,21,27,22,,,,,,,1.53,0.88,1.24*16
$GNVTG,220.43,T,,M,16.529,N,30.611,K,A*28
$SMGPS,10.7 m,+0.18 m/s,5.57 VRx,0.392 km,72 m,79.1 °,1:-- ( 42.6 km/h)*F7
$SMGPS2,-0.16 X,+0.19 Y,+1.10 Z,38 ENL,1084 us,53.2 kmh,959.51 hPa,957.94 hPa,+1.69 m/s*3D
$GNRMC,155635.00,A,4838.28629,N,00858.94597,E,20.14,197.54,230521,,,A*7C
$GNGGA,155635.00,4838.28629,N,00858.94597,E,1,11,0.88,506.1,M,47.5,M,,*44
$GNGSA,A,3,01,08,14,21,27,22,,,,,,,1.53,0.88,1.24*16
$GNVTG,197.54,T,,M,20.122,N,37.266,K,A*28
$SMGPS,9.4 m,-0.49 m/s,5.58 VRx,0.395 km,69 m,80.3 °,1:-- ( 42.6 km/h)*C8
$SMGPS2,-0.18 X,+0.20 Y,+1.35 Z,14 ENL,1084 us,55.2 kmh,959.65 hPa,957.99 hPa,+1.07 m/s*34
$GNRMC,155635.50,A,4838.28358,N,00858.94486,E,21.16,192.60,230521,,,A*7A
$GNGGA,155635.50,4838.28358,N,00858.94486,E,1,11,0.88,505.4,M,47.5,M,,*45
$GNGSA,A,3,01,08,14,21,27,22,,,,,,,1.53,0.88,1.24*16
$GNVTG,192.60,T,,M,21.054,N,38.991,K,A*27
$SMGPS,8.7 m,-1.07 m/s,5.56 VRx,0.400 km,66 m,83.7 °,1:-- ( 42.6 km/h)*CC
$SMGPS2,-0.17 X,+0.17 Y,+1.05 Z,69 ENL,1085 us,55.1 kmh,959.73 hPa,958.21 hPa,-0.25 m/s*38
$GNRMC,155636.00,A,4838.28070,N,00858.94398,E,21.52,190.02,230521,,,A*7B
$GNGGA,155636.00,4838.28070,N,00858.94398,E,1,11,0.88,504.7,M,47.5,M,,*40
$GNGSA,A,3,01,08,14,21,27,22,,,,,,,1.53,0.88,1.24*16
$GNVTG,190.02,T,,M,21.376,N,39.588,K,A*27
$SMGPS,8.0 m,-1.27 m/s,5.58 VRx,0.405 km,64 m,87.7 °,1:1  ( 41.5 km/h)*D5
$SMGPS2,-0.17 X,+0.12 Y,+0.99 Z,32 ENL,1084 us,53.6 kmh,959.82 hPa,958.41 hPa,-1.29 m/s*32
$GNRMC,155636.50,A,4838.27778,N,00858.94318,E,21.89,190.26,230521,,,A*76
$GNGGA,155636.50,4838.27778,N,00858.94318,E,1,12,0.77,504.2,M,47.5,M,,*4B
$GNGSA,A,3,01,08,14,21,27,22,,,,,,,1.39,0.77,1.16*1B
$GNVTG,190.26,T,,M,21.760,N,40.299,K,A*2B
$SMGPS,7.5 m,-1.24 m/s,5.57 VRx,0.411 km,63 m,92.7 °,1:1  ( 41.5 km/h)*D5
$SMGPS2,-0.17 X,+0.09 Y,+1.06 Z,35 ENL,1084 us,52.8 kmh,959.88 hPa,958.39 hPa,-1.66 m/s*39
$GNRMC,155637.00,A,4838.27476,N,00858.94231,E,22.25,190.82,230521,,,A*7E
$GNGGA,155637.00,4838.27476,N,00858.94231,E,1,12,0.77,503.9,M,47.5,M,,*44
$GNGSA,A,3,01,08,14,21,27,22,,,,,,,1.39,0.77,1.16*1B
$GNVTG,190.82,T,,M,22.136,N,40.996,K,A*27
$SMGPS,7.2 m,-1.13 m/s,5.57 VRx,0.416 km,63 m,97.8 °,1:1  ( 41.4 km/h)*DA
$SMGPS2,-0.17 X,+0.13 Y,+1.16 Z,42 ENL,1085 us,51.9 kmh,959.91 hPa,958.54 hPa,-1.54 m/s*32
$GNRMC,155637.50,A,4838.27177,N,00858.94143,E,22.07,190.45,230521,,,A*72
$GNGGA,155637.50,4838.27177,N,00858.94143,E,1,12,0.77,504.0,M,47.5,M,,*4D
$GNGSA,A,3,01,08,14,21,27,22,,,,,,,1.39,0.77,1.16*1B
$GNVTG,190.45,T,,M,22.018,N,40.777,K,A*20
$SMGPS,7.3 m,-0.79 m/s,5.57 VRx,0.421 km,62 m,102.6 °,1:1  ( 41.4 km/h)*E0
$SMGPS2,-0.14 X,+0.12 Y,+0.86 Z,45 ENL,1085 us,50.6 kmh,959.89 hPa,958.59 hPa,-1.44 m/s*34
$GNRMC,155638.00,A,4838.26881,N,00858.94044,E,21.71,193.75,230521,,,A*7D
$GNGGA,155638.00,4838.26881,N,00858.94044,E,1,12,0.77,503.7,M,47.5,M,,*40
$GNGSA,A,3,01,08,14,21,27,22,,,,,,,1.39,0.77,1.16*1B
$GNVTG,193.75,T,,M,21.691,N,40.172,K,A*27
$SMGPS,7.0 m,-0.50 m/s,5.58 VRx,0.427 km,63 m,107.7 °,1:7  ( 41.2 km/h)*E4
$SMGPS2,-0.15 X,+0.12 Y,+0.98 Z,33 ENL,1085 us,49.8 kmh,959.93 hPa,958.63 hPa,-1.14 m/s*3A
$GNRMC,155638.50,A,4838.26596,N,00858.93925,E,21.84,199.47,230521,,,A*7B
$GNGGA,155638.50,4838.26596,N,00858.93925,E,1,12,0.77,503.4,M,47.5,M,,*44
$GNGSA,A,3,01,08,14,21,27,22,,,,,,,1.39,0.77,1.16*1B
$GNVTG,199.47,T,,M,21.808,N,40.388,K,A*25
$SMGPS,6.7 m,-0.57 m/s,5.56 VRx,0.433 km,64 m,112.8 °,1:7  ( 41.2 km/h)*E2
$SMGPS2,-0.17 X,+0.14 Y,+1.07 Z,58 ENL,1085 us,50.8 kmh,959.96 hPa,958.57 hPa,-0.69 m/s*35
$GNRMC,155639.00,A,4838.26330,N,00858.93746,E,20.70,210.66,230521,,,A*75
$GNGGA,155639.00,4838.26330,N,00858.93746,E,1,12,0.77,503.4,M,47.5,M,,*41
$GNGSA,A,3,01,08,14,21,27,22,,,,,,,1.39,0.77,1.16*1B
$GNVTG,210.66,T,,M,20.679,N,38.297,K,A*2D
$SMGPS,6.7 m,-0.51 m/s,5.57 VRx,0.438 km,65 m,117.9 °,1:8  ( 41.1 km/h)*E7
$SMGPS2,-0.17 X,+0.16 Y,+1.14 Z,75 ENL,1084 us,52.4 kmh,959.97 hPa,958.55 hPa,+0.02 m/s*3D
$GNRMC,155639.50,A,4838.26111,N,00858.93487,E,19.25,225.45,230521,,,A*72
$GNGGA,155639.50,4838.26111,N,00858.93487,E,1,12,0.77,503.3,M,47.5,M,,*4C
$GNGSA,A,3,01,08,14,21,27,22,,,,,,,1.39,0.77,1.16*1B
$GNVTG,225.45,T,,M,19.235,N,35.624,K,A*2D
$SMGPS,6.6 m,-0.33 m/s,5.58 VRx,0.444 km,65 m,123.1 °,1:8  ( 41.1 km/h)*E9
$SMGPS2,-0.19 X,+0.16 Y,+1.22 Z,37 ENL,1085 us,51.4 kmh,959.97 hPa,958.56 hPa,-0.37 m/s*31
$GNRMC,155640.00,A,4838.25961,N,00858.93171,E,18.26,243.12,230521,,,A*79
$GNGGA,155640.00,4838.25961,N,00858.93171,E,1,12,0.77,503.7,M,47.5,M,,*43
$GNGSA,A,3,01,08,14,21,27,22,,,,,,,1.39,0.77,1.16*1B
$GNVTG,243.12,T,,M,18.263,N,33.823,K,A*22
$SMGPS,7.0 m,-0.12 m/s,5.58 VRx,0.449 km,65 m,127.1 °,1:17 ( 40.8 km/h)*F2
$SMGPS2,-0.19 X,+0.12 Y,+1.27 Z,28 ENL,1085 us,52.0 kmh,959.93 hPa,958.44 hPa,+0.02 m/s*3E
$GNRMC,155640.50,A,4838.25901,N,00858.92808,E,17.58,269.49,230521,,,A*7C
$GNGGA,155640.50,4838.25901,N,00858.92808,E,1,12,0.77,504.0,M,47.5,M,,*46
$GNGSA,A,3,01,08,14,21,27,22,,,,,,,1.39,0.77,1.16*1B
$GNVTG,269.49,T,,M,17.578,N,32.554,K,A*2A
$SMGPS,7.3 m,+0.20 m/s,5.58 VRx,0.454 km,64 m,131.3 °,1:17 ( 40.8 km/h)*FE
$SMGPS2,-0.18 X,+0.11 Y,+1.30 Z,57 ENL,1085 us,52.7 kmh,959.89 hPa,958.51 hPa,+0.61 m/s*3F
$GNRMC,155641.00,A,4838.25946,N,00858.92444,E,18.28,291.01,230521,,,A*7C
$GNGGA,155641.00,4838.25946,N,00858.92444,E,1,12,0.77,504.4,M,47.5,M,,*41
$GNGSA,A,3,01,08,14,21,27,22,,,,,,,1.39,0.77,1.16*1B
$GNVTG,291.01,T,,M,18.266,N,33.829,K,A*20
$SMGPS,7.7 m,+0.35 m/s,5.58 VRx,0.459 km,62 m,135.3 °,1:17 ( 40.8 km/h)*F1
$SMGPS2,-0.18 X,+0.14 Y,+1.23 Z,54 ENL,1085 us,51.0 kmh,959.85 hPa,958.53 hPa,-0.07 m/s*37
$GNRMC,155641.50,A,4838.26088,N,00858.92120,E,19.42,312.65,230521,,,A*73
$GNGGA,155641.50,4838.26088,N,00858.92120,E,1,12,0.77,504.9,M,47.5,M,,*46
$GNGSA,A,3,01,08,14,21,27,22,,,,,,,1.39,0.77,1.16*1B
$GNVTG,312.65,T,,M,19.387,N,35.904,K,A*2F
$SMGPS,8.2 m,+0.54 m/s,5.57 VRx,0.463 km,58 m,137.8 °,1:-- ( 40.8 km/h)*FC
$SMGPS2,-0.17 X,+0.13 Y,+1.20 Z,83 ENL,1085 us,49.1 kmh,959.79 hPa,958.57 hPa,-0.31 m/s*3C
$GNRMC,155642.00,A,4838.26313,N,00858.91880,E,20.93,334.84,230521,,,A*79
$GNGGA,155642.00,4838.26313,N,00858.91880,E,1,12,0.77,505.1,M,47.5,M,,*48
$GNGSA,A,3,01,08,14,21,27,22,,,,,,,1.39,0.77,1.16*1B
$GNVTG,334.84,T,,M,20.892,N,38.692,K,A*2C
$SMGPS,8.4 m,+0.64 m/s,5.58 VRx,0.468 km,53 m,138.8 °,1:-- ( 40.8 km/h)*F9
$SMGPS2,-0.15 X,+0.09 Y,+1.02 Z,51 ENL,1085 us,48.4 kmh,959.76 hPa,958.60 hPa,-0.14 m/s*32
$GNRMC,155642.50,A,4838.26606,N,00858.91745,E,23.29,349.48,230521,,,A*73
$GNGGA,155642.50,4838.26606,N,00858.91745,E,1,12,0.77,504.6,M,47.5,M,,*4C
$GNGSA,A,3,01,08,14,21,27,22,,,,,,,1.39,0.77,1.16*1B
$GNVTG,349.48,T,,M,23.274,N,43.103,K,A*24
$SMGPS,7.9 m,+0.40 m/s,5.58 VRx,0.473 km,48 m,138.1 °,1:-- ( 40.8 km/h)*F4
$SMGPS2,-0.16 X,+0.12 Y,+1.24 Z,92 ENL,1085 us,46.9 kmh,959.82 hPa,958.60 hPa,-0.38 m/s*36
$GNRMC,155643.00,A,4838.26934,N,00858.91744,E,24.57,9.37,230521,,,A*79
$GNGGA,155643.00,4838.26934,N,00858.91744,E,1,12,0.77,504.1,M,47.5,M,,*40
$GNGSA,A,3,01,08,14,21,27,22,,,,,,,1.39,0.77,1.16*1B
$GNVTG,9.37,T,,M,24.567,N,45.498,K,A*28
$SMGPS,7.4 m,-0.13 m/s,5.56 VRx,0.479 km,43 m,134.8 °,1:-- ( 40.8 km/h)*F3
$SMGPS2,-0.16 X,+0.10 Y,+1.17 Z,77 ENL,1085 us,47.3 kmh,959.88 hPa,958.64 hPa,-0.43 m/s*36
$GNRMC,155643.50,A,4838.27278,N,00858.91902,E,27.73,22.22,230521,,,A*4A
$GNGGA,155643.50,4838.27278,N,00858.91902,E,1,12,0.77,503.2,M,47.5,M,,*4F
$GNGSA,A,3,01,08,14,21,27,22,,,,,,,1.39,0.77,1.16*1B
$GNVTG,22.22,T,,M,27.702,N,51.304,K,A*10
$SMGPS,6.5 m,-0.58 m/s,5.57 VRx,0.485 km,39 m,128.1 °,1:1  ( 41.1 km/h)*EE
$SMGPS2,-0.15 X,+0.06 Y,+1.02 Z,57 ENL,1085 us,48.7 kmh,960.00 hPa,958.68 hPa,-0.35 m/s*38
$GNRMC,155644.00,A,4838.27631,N,00858.92161,E,29.06,29.46,230521,,,A*4A
$GNGGA,155644.00,4838.27631,N,00858.92161,E,1,11,0.81,501.7,M,47.5,M,,*47
$GNGSA,A,3,01,08,14,21,27,22,,,,,,,1.54,0.81,1.31*1C
$GNVTG,29.46,T,,M,28.957,N,53.628,K,A*11
$SMGPS,5.0 m,-1.28 m/s,5.57 VRx,0.492 km,37 m,118.4 °,1:1  ( 41.1 km/h)*E0
$SMGPS2,-0.16 X,+0.07 Y,+0.98 Z,53 ENL,1085 us,50.4 kmh,960.16 hPa,958.74 hPa,-0.63 m/s*3F
$GNRMC,155644.50,A,4838.27995,N,00858.92477,E,31.61,31.09,230521,,,A*46
$GNGGA,155644.50,4838.27995,N,00858.92477,E,1,11,0.81,500.4,M,47.5,M,,*43
$GNGSA,A,3,01,08,14,21,27,22,,,,,,,1.54,0.81,1.31*1C
$GNVTG,31.09,T,,M,31.406,N,58.164,K,A*16
$SMGPS,3.7 m,-1.84 m/s,5.56 VRx,0.499 km,37 m,107.3 °,1:2  ( 42.0 km/h)*E5
$SMGPS2,-0.18 X,+0.06 Y,+1.12 Z,68 ENL,1085 us,52.9 kmh,960.30 hPa,958.78 hPa,-0.66 m/s*39
$GNRMC,155645.00,A,4838.28378,N,00858.92776,E,31.59,24.44,230521,,,A*40
$GNGGA,155645.00,4838.28378,N,00858.92776,E,1,11,0.81,499.6,M,47.5,M,,*40
$GNGSA,A,3,01,08,14,21,27,22,,,,,,,1.54,0.81,1.31*1C
$GNVTG,24.44,T,,M,31.358,N,58.075,K,A*16
$SMGPS,2.9 m,-1.97 m/s,5.57 VRx,0.507 km,40 m,96.8 °,1:2  ( 42.0 km/h)*DD
$SMGPS2,-0.18 X,+0.03 Y,+1.22 Z,56 ENL,1085 us,54.1 kmh,960.41 hPa,958.82 hPa,-0.86 m/s*31
$GNRMC,155645.50,A,4838.28785,N,00858.92959,E,30.63,9.03,230521,,,A*74
$GNGGA,155645.50,4838.28785,N,00858.92959,E,1,12,0.77,498.4,M,47.5,M,,*49
$GNGSA,A,3,01,08,14,21,27,22,,,,,,,1.39,0.77,1.16*1B
$GNVTG,9.03,T,,M,30.391,N,56.284,K,A*2C
$SMGPS,1.7 m,-1.96 m/s,5.57 VRx,0.515 km,43 m,86.6 °,1:2  ( 43.4 km/h)*DB
$SMGPS2,-0.22 X,+0.10 Y,+1.40 Z,70 ENL,1085 us,55.1 kmh,960.54 hPa,958.95 hPa,-0.99 m/s*37
$GNRMC,155646.00,A,4838.29186,N,00858.92969,E,28.51,352.00,230521,,,A*73
$GNGGA,155646.00,4838.29186,N,00858.92969,E,1,12,0.77,497.8,M,47.5,M,,*4B
$GNGSA,A,3,01,08,14,21,27,22,,,,,,,1.39,0.77,1.16*1B
$GNVTG,352.00,T,,M,28.257,N,52.331,K,A*2B
$SMGPS,1.1 m,-1.93 m/s,5.57 VRx,0.523 km,46 m,76.8 °,1:2  ( 43.4 km/h)*D9
$SMGPS2,-0.24 X,+0.20 Y,+1.47 Z,38 ENL,1084 us,58.2 kmh,960.60 hPa,958.73 hPa,-0.36 m/s*3C
$GNRMC,155646.50,A,4838.29518,N,00858.92779,E,24.68,324.83,230521,,,A*76
$GNGGA,155646.50,4838.29518,N,00858.92779,E,1,12,0.77,497.1,M,47.5,M,,*4B
$GNGSA,A,3,01,08,14,21,27,22,,,,,,,1.39,0.77,1.16*1B
$GNVTG,324.83,T,,M,24.462,N,45.304,K,A*2D
$SMGPS,0.4 m,-1.69 m/s,5.57 VRx,0.530 km,49 m,68.5 °,1:3  ( 44.6 km/h)*D3
$SMGPS2,-0.25 X,+0.26 Y,+1.81 Z,43 ENL,1085 us,60.7 kmh,960.68 hPa,958.84 hPa,+0.32 m/s*30
$GNRMC,155647.00,A,4838.29719,N,00858.92435,E,20.93,295.69,230521,,,A*75
$GNGGA,155647.00,4838.29719,N,00858.92435,E,1,12,0.77,497.4,M,47.5,M,,*42
$GNGSA,A,3,01,08,14,21,27,22,,,,,,,1.39,0.77,1.16*1B
$GNVTG,295.69,T,,M,20.773,N,38.472,K,A*29
$SMGPS,0.7 m,-1.32 m/s,5.56 VRx,0.537 km,49 m,60.6 °,1:3  ( 44.6 km/h)*D3
$SMGPS2,-0.25 X,+0.24 Y,+1.91 Z,48 ENL,1085 us,60.1 kmh,960.66 hPa,958.97 hPa,-0.44 m/s*35
$GNRMC,155647.50,A,4838.29780,N,00858.92067,E,16.83,267.72,230521,,,A*70
$GNGGA,155647.50,4838.29780,N,00858.92067,E,1,12,0.77,498.6,M,47.5,M,,*49
$GNGSA,A,3,01,08,14,21,27,22,,,,,,,1.39,0.77,1.16*1B
$GNVTG,267.72,T,,M,16.818,N,31.146,K,A*22
$SMGPS,1.9 m,-0.34 m/s,5.57 VRx,0.543 km,48 m,54.2 °,1:6  ( 44.7 km/h)*DF
$SMGPS2,-0.20 X,+0.20 Y,+1.60 Z,72 ENL,1085 us,56.2 kmh,960.52 hPa,959.06 hPa,-1.35 m/s*3C
$GNRMC,155648.00,A,4838.29745,N,00858.91754,E,14.63,257.20,230521,,,A*7F
$GNGGA,155648.00,4838.29745,N,00858.91754,E,1,12,0.77,500.1,M,47.5,M,,*49
$GNGSA,A,3,01,08,14,21,27,22,,,,,,,1.39,0.77,1.16*1B
$GNVTG,257.20,T,,M,14.539,N,26.926,K,A*22
$SMGPS,3.4 m,+0.85 m/s,5.58 VRx,0.547 km,45 m,49.9 °,1:6  ( 44.7 km/h)*DD
$SMGPS2,-0.14 X,+0.11 Y,+0.95 Z,21 ENL,1085 us,50.2 kmh,960.34 hPa,959.20 hPa,-1.69 m/s*3F
$GNRMC,155648.50,A,4838.29639,N,00858.91501,E,15.00,239.65,230521,,,A*7F
$GNGGA,155648.50,4838.29639,N,00858.91501,E,1,12,0.73,501.0,M,47.5,M,,*40
$GNGSA,A,3,01,08,14,21,27,10,22,,,,,,1.37,0.73,1.16*10
$GNVTG,239.65,T,,M,14.719,N,27.259,K,A*29
$SMGPS,4.3 m,+1.49 m/s,5.57 VRx,0.551 km,41 m,47.4 °,1:6  ( 44.7 km/h)*D3
$SMGPS2,-0.12 X,+0.08 Y,+0.90 Z,34 ENL,1085 us,45.8 kmh,960.23 hPa,959.21 hPa,-1.47 m/s*35
$GNRMC,155649.00,A,4838.29478,N,00858.91302,E,15.84,211.44,230521,,,A*7C
$GNGGA,155649.00,4838.29478,N,00858.91302,E,1,12,0.73,501.3,M,47.5,M,,*45
$GNGSA,A,3,01,08,14,21,27,10,22,,,,,,1.37,0.73,1.16*10
$GNVTG,211.44,T,,M,15.586,N,28.864,K,A*2E
$SMGPS,4.6 m,+1.44 m/s,5.58 VRx,0.555 km,38 m,46.6 °,1:-- ( 44.7 km/h)*CB
$SMGPS2,-0.11 X,+0.08 Y,+0.89 Z,44 ENL,1085 us,42.5 kmh,960.21 hPa,959.23 hPa,-1.04 m/s*34
$GNRMC,155649.50,A,4838.29272,N,00858.91171,E,17.31,196.40,230521,,,A*77
$GNGGA,155649.50,4838.29272,N,00858.91171,E,1,12,0.73,501.0,M,47.5,M,,*49
$GNGSA,A,3,01,08,14,21,27,10,22,,,,,,1.37,0.73,1.16*10
$GNVTG,196.40,T,,M,17.213,N,31.879,K,A*2B
$SMGPS,4.3 m,+0.93 m/s,5.57 VRx,0.559 km,34 m,46.8 °,1:-- ( 44.7 km/h)*C4
$SMGPS2,-0.12 X,+0.10 Y,+0.94 Z,53 ENL,1085 us,42.1 kmh,960.23 hPa,959.27 hPa,-0.56 m/s*30
$GNRMC,155650.00,A,4838.29025,N,00858.91107,E,19.38,184.00,230521,,,A*7B
$GNGGA,155650.00,4838.29025,N,00858.91107,E,1,12,0.73,500.5,M,47.5,M,,*41
$GNGSA,A,3,01,08,14,21,27,10,22,,,,,,1.37,0.73,1.16*10
$GNVTG,184.00,T,,M,19.372,N,35.878,K,A*21
$SMGPS,3.8 m,+0.35 m/s,5.58 VRx,0.564 km,30 m,51.2 °,1:-- ( 44.7 km/h)*CD
$SMGPS2,-0.14 X,+0.11 Y,+1.00 Z,55 ENL,1085 us,42.5 kmh,960.29 hPa,959.22 hPa,-0.39 m/s*3F
$GNRMC,155650.50,A,4838.28745,N,00858.91133,E,21.57,171.54,230521,,,A*70
$GNGGA,155650.50,4838.28745,N,00858.91133,E,1,12,0.73,499.9,M,47.5,M,,*4E
$GNGSA,A,3,01,08,14,21,27,10,22,,,,,,1.37,0.73,1.16*10
$GNVTG,171.54,T,,M,21.569,N,39.947,K,A*2C
$SMGPS,3.2 m,-0.21 m/s,5.58 VRx,0.568 km,27 m,57.3 °,1:3  ( 43.3 km/h)*D9
$SMGPS2,-0.15 X,+0.15 Y,+1.17 Z,32 ENL,1085 us,45.5 kmh,960.36 hPa,959.12 hPa,+0.15 m/s*3F
$GNRMC,155651.00,A,4838.28442,N,00858.91251,E,23.60,160.79,230521,,,A*7E
$GNGGA,155651.00,4838.28442,N,00858.91251,E,1,12,0.73,499.4,M,47.5,M,,*44
$GNGSA,A,3,01,08,14,21,27,10,22,,,,,,1.37,0.73,1.16*10
$GNVTG,160.79,T,,M,23.577,N,43.665,K,A*2C
$SMGPS,2.7 m,-0.58 m/s,5.57 VRx,0.573 km,25 m,66.8 °,1:3  ( 43.3 km/h)*DD
$SMGPS2,-0.16 X,+0.17 Y,+1.16 Z,45 ENL,1085 us,47.4 kmh,960.42 hPa,959.16 hPa,+0.25 m/s*38
$GNRMC,155651.50,A,4838.28139,N,00858.91437,E,23.91,156.21,230521,,,A*72
$GNGGA,155651.50,4838.28139,N,00858.91437,E,1,12,0.73,499.5,M,47.5,M,,*4F
$GNGSA,A,3,01,08,14,21,27,10,22,,,,,,1.37,0.73,1.16*10
$GNVTG,156.21,T,,M,23.880,N,44.226,K,A*25
$SMGPS,2.8 m,-0.60 m/s,5.57 VRx,0.579 km,25 m,82.0 °,1:4  ( 43.0 km/h)*D5
$SMGPS2,-0.15 X,+0.19 Y,+1.34 Z,26 ENL,1085 us,47.3 kmh,960.42 hPa,959.27 hPa,-0.17 m/s*32
$GNRMC,155652.00,A,4838.27843,N,00858.91641,E,23.31,154.49,230521,,,A*7A
$GNGGA,155652.00,4838.27843,N,00858.91641,E,1,12,0.73,499.9,M,47.5,M,,*4D
$GNGSA,A,3,01,08,14,21,27,10,22,,,,,,1.37,0.73,1.16*10
$GNVTG,154.49,T,,M,23.308,N,43.166,K,A*22
$SMGPS,3.2 m,-0.21 m/s,5.57 VRx,0.585 km,27 m,94.6 °,1:4  ( 43.0 km/h)*DB
$SMGPS2,-0.13 X,+0.15 Y,+1.04 Z,42 ENL,1084 us,45.9 kmh,960.36 hPa,959.26 hPa,-0.45 m/s*35
$GNRMC,155652.50,A,4838.27556,N,00858.91841,E,22.42,155.35,230521,,,A*77
$GNGGA,155652.50,4838.27556,N,00858.91841,E,1,12,0.73,500.5,M,47.5,M,,*42
$GNGSA,A,3,01,08,14,21,27,10,22,,,,,,1.37,0.73,1.16*10
$GNVTG,155.35,T,,M,22.410,N,41.502,K,A*23
$SMGPS,3.8 m,+0.29 m/s,5.58 VRx,0.591 km,30 m,104.0 °,1:-- ( 43.0 km/h)*F9
$SMGPS2,-0.12 X,+0.14 Y,+0.93 Z,21 ENL,1085 us,44.2 kmh,960.30 hPa,959.24 hPa,-0.41 m/s*34
$GNRMC,155653.00,A,4838.27277,N,00858.92008,E,21.11,160.87,230521,,,A*7B
$GNGGA,155653.00,4838.27277,N,00858.92008,E,1,12,0.73,500.9,M,47.5,M,,*48
$GNGSA,A,3,01,08,14,21,27,10,22,,,,,,1.37,0.73,1.16*10
$GNVTG,160.87,T,,M,21.082,N,39.044,K,A*28
$SMGPS,4.2 m,+0.54 m/s,5.57 VRx,0.597 km,34 m,112.0 °,1:-- ( 43.0 km/h)*F4
$SMGPS2,-0.12 X,+0.13 Y,+0.95 Z,41 ENL,1084 us,43.2 kmh,960.25 hPa,959.19 hPa,-0.11 m/s*3A
$GNRMC,155653.50,A,4838.27005,N,00858.92125,E,20.06,167.90,230521,,,A*71
$GNGGA,155653.50,4838.27005,N,00858.92125,E,1,12,0.73,501.0,M,47.5,M,,*4C
$GNGSA,A,3,01,08,14,21,27,10,22,,,,,,1.37,0.73,1.16*10
$GNVTG,167.90,T,,M,20.029,N,37.094,K,A*2A
$SMGPS,4.3 m,+0.57 m/s,5.57 VRx,0.602 km,38 m,117.4 °,1:-- ( 43.0 km/h)*F4
$SMGPS2,-0.12 X,+0.11 Y,+0.86 Z,49 ENL,1085 us,42.6 kmh,960.24 hPa,959.23 hPa,+0.06 m/s*3E
$GNRMC,155654.00,A,4838.26742,N,00858.92166,E,18.41,181.39,230521,,,A*72
$GNGGA,155654.00,4838.26742,N,00858.92166,E,1,12,0.73,501.0,M,47.5,M,,*4C
$GNGSA,A,3,01,08,14,21,27,10,22,,,,,,1.37,0.73,1.16*10
$GNVTG,181.39,T,,M,18.398,N,34.074,K,A*2E
$SMGPS,4.3 m,+0.37 m/s,5.58 VRx,0.608 km,42 m,123.2 °,1:-- ( 43.0 km/h)*FB
$SMGPS2,-0.12 X,+0.13 Y,+1.14 Z,45 ENL,1085 us,41.6 kmh,960.24 hPa,959.25 hPa,-0.16 m/s*38
$GNRMC,155654.50,A,4838.26508,N,00858.92101,E,16.58,202.02,230521,,,A*7C
$GNGGA,155654.50,4838.26508,N,00858.92101,E,1,12,0.73,500.9,M,47.5,M,,*4C
$GNGSA,A,3,01,08,14,21,27,10,22,,,,,,1.37,0.73,1.16*10
$GNVTG,202.02,T,,M,16.573,N,30.692,K,A*29
$SMGPS,4.2 m,+0.22 m/s,5.58 VRx,0.612 km,45 m,127.5 °,1:-- ( 43.0 km/h)*F1
$SMGPS2,-0.14 X,+0.16 Y,+1.27 Z,53 ENL,1085 us,42.9 kmh,960.25 hPa,959.18 hPa,+0.17 m/s*38
$GNRMC,155655.00,A,4838.26328,N,00858.91911,E,15.10,214.11,230521,,,A*7C
$GNGGA,155655.00,4838.26328,N,00858.91911,E,1,12,0.73,501.1,M,47.5,M,,*4F
$GNGSA,A,3,01,08,14,21,27,10,22,,,,,,1.37,0.73,1.16*10
$GNVTG,214.11,T,,M,15.099,N,27.963,K,A*29
$SMGPS,4.4 m,+0.16 m/s,5.58 VRx,0.617 km,47 m,132.6 °,1:-- ( 43.0 km/h)*F0
$SMGPS2,-0.14 X,+0.15 Y,+1.27 Z,39 ENL,1084 us,42.9 kmh,960.23 hPa,959.19 hPa,+0.30 m/s*34
$GNRMC,155655.50,A,4838.26242,N,00858.91649,E,14.02,233.38,230521,,,A*7A
$GNGGA,155655.50,4838.26242,N,00858.91649,E,1,12,0.73,501.2,M,47.5,M,,*46
$GNGSA,A,3,01,08,14,21,27,10,22,,,,,,1.37,0.73,1.16*10
$GNVTG,233.38,T,,M,14.019,N,25.964,K,A*2B
$SMGPS,4.5 m,+0.20 m/s,5.58 VRx,0.621 km,48 m,137.8 °,1:-- ( 43.0 km/h)*F5
$SMGPS2,-0.13 X,+0.13 Y,+1.24 Z,19 ENL,1085 us,41.7 kmh,960.22 hPa,959.24 hPa,-0.16 m/s*35
$GNRMC,155656.00,A,4838.26267,N,00858.91363,E,14.54,262.79,230521,,,A*74
$GNGGA,155656.00,4838.26267,N,00858.91363,E,1,12,0.73,501.0,M,47.5,M,,*48
$GNGSA,A,3,01,08,14,21,27,10,22,,,,,,1.37,0.73,1.16*10
$GNVTG,262.79,T,,M,14.534,N,26.916,K,A*26
$SMGPS,4.3 m,+0.11 m/s,5.58 VRx,0.625 km,47 m,142.0 °,1:-- ( 43.0 km/h)*F0
$SMGPS2,-0.13 X,+0.13 Y,+1.19 Z,19 ENL,1085 us,40.7 kmh,960.24 hPa,959.28 hPa,-0.35 m/s*31
$GNRMC,155656.50,A,4838.26401,N,00858.91112,E,17.28,321.40,230521,,,A*77
$GNGGA,155656.50,4838.26401,N,00858.91112,E,1,12,0.73,500.3,M,47.5,M,,*4D
$GNGSA,A,3,01,08,14,21,27,10,22,,,,,,1.37,0.73,1.16*10
$GNVTG,321.40,T,,M,17.278,N,31.998,K,A*26
$SMGPS,3.6 m,-0.24 m/s,5.58 VRx,0.628 km,45 m,145.0 °,1:-- ( 43.0 km/h)*FA
$SMGPS2,-0.13 X,+0.12 Y,+1.23 Z,25 ENL,1085 us,41.3 kmh,960.32 hPa,959.32 hPa,-0.34 m/s*3E
$GNRMC,155657.00,A,4838.26627,N,00858.90935,E,20.89,343.42,230521,,,A*70
$GNGGA,155657.00,4838.26627,N,00858.90935,E,1,12,0.73,499.3,M,47.5,M,,*42
$GNGSA,A,3,01,08,14,21,27,10,22,,,,,,1.37,0.73,1.16*10
$GNVTG,343.42,T,,M,20.832,N,38.581,K,A*2D
$SMGPS,2.6 m,-0.78 m/s,5.58 VRx,0.633 km,40 m,146.0 °,1:-- ( 43.0 km/h)*FE
$SMGPS2,-0.14 X,+0.12 Y,+1.26 Z,34 ENL,1085 us,42.9 kmh,960.44 hPa,959.34 hPa,-0.41 m/s*30
$GNRMC,155657.50,A,4838.26920,N,00858.90859,E,23.10,356.36,230521,,,A*72
$GNGGA,155657.50,4838.26920,N,00858.90859,E,1,12,0.73,498.4,M,47.5,M,,*42
$GNGSA,A,3,01,08,14,21,27,10,22,,,,,,1.37,0.73,1.16*10
$GNVTG,356.36,T,,M,22.982,N,42.563,K,A*23
$SMGPS,1.7 m,-1.21 m/s,5.57 VRx,0.637 km,36 m,145.9 °,1:-- ( 43.0 km/h)*F1
$SMGPS2,-0.15 X,+0.11 Y,+1.21 Z,15 ENL,1085 us,45.3 kmh,960.55 hPa,959.30 hPa,-0.30 m/s*39
$GNRMC,155658.00,A,4838.27256,N,00858.90883,E,26.45,9.88,230521,,,A*7D
$GNGGA,155658.00,4838.27256,N,00858.90883,E,1,12,0.73,497.6,M,47.5,M,,*49
$GNGSA,A,3,01,08,14,21,27,10,22,,,,,,1.37,0.73,1.16*10
$GNVTG,9.88,T,,M,26.306,N,48.719,K,A*28
$SMGPS,0.9 m,-1.41 m/s,5.58 VRx,0.642 km,31 m,141.7 °,1:1  ( 42.0 km/h)*E8
$SMGPS2,-0.16 X,+0.12 Y,+1.35 Z,43 ENL,1085 us,47.7 kmh,960.63 hPa,959.30 hPa,-0.17 m/s*39
$GNRMC,155658.50,A,4838.27612,N,00858.91028,E,28.34,22.93,230521,,,A*4F
$GNGGA,155658.50,4838.27612,N,00858.91028,E,1,12,0.76,497.6,M,47.5,M,,*45
$GNGSA,A,3,08,14,21,27,10,22,,,,,,,1.39,0.76,1.16*1A
$GNVTG,22.93,T,,M,28.242,N,52.304,K,A*17
$SMGPS,0.9 m,-1.24 m/s,5.58 VRx,0.649 km,27 m,132.8 °,1:1  ( 42.0 km/h)*EC
$SMGPS2,-0.18 X,+0.17 Y,+1.54 Z,48 ENL,1085 us,50.5 kmh,960.63 hPa,959.22 hPa,+0.28 m/s*33
$GNRMC,155659.00,A,4838.27954,N,00858.91324,E,29.22,36.79,230521,,,A*4E
$GNGGA,155659.00,4838.27954,N,00858.91324,E,1,12,0.73,498.4,M,47.5,M,,*4B
$GNGSA,A,3,01,08,14,21,27,10,22,,,,,,1.37,0.73,1.16*10
$GNVTG,36.79,T,,M,29.200,N,54.078,K,A*1F
$SMGPS,1.7 m,-0.55 m/s,5.58 VRx,0.655 km,25 m,118.9 °,1:2  ( 42.5 km/h)*E4
$SMGPS2,-0.19 X,+0.17 Y,+1.51 Z,52 ENL,1084 us,50.3 kmh,960.52 hPa,959.23 hPa,+0.43 m/s*35
$GNRMC,155659.50,A,4838.28241,N,00858.91727,E,27.79,49.02,230521,,,A*48
$GNGGA,155659.50,4838.28241,N,00858.91727,E,1,12,0.73,499.7,M,47.5,M,,*4B
$GNGSA,A,3,01,08,14,21,27,10,22,,,,,,1.37,0.73,1.16*10
$GNVTG,49.02,T,,M,27.774,N,51.438,K,A*16
$SMGPS,3.0 m,+0.50 m/s,5.58 VRx,0.663 km,26 m,102.4 °,1:2  ( 42.5 km/h)*E2
$SMGPS2,-0.16 X,+0.12 Y,+1.05 Z,63 ENL,1084 us,48.7 kmh,960.38 hPa,959.17 hPa,+0.33 m/s*3D
$GNRMC,155700.00,A,4838.28452,N,00858.92207,E,28.04,63.84,230521,,,A*43
$GNGGA,155700.00,4838.28452,N,00858.92207,E,1,12,0.73,500.8,M,47.5,M,,*4D
$GNGSA,A,3,01,08,14,21,27,10,22,,,,,,1.37,0.73,1.16*10
$GNVTG,63.84,T,,M,27.946,N,51.755,K,A*17
$SMGPS,4.1 m,+1.19 m/s,5.58 VRx,0.670 km,30 m,90.0 °,1:-- ( 42.5 km/h)*C1
$SMGPS2,-0.14 X,+0.12 Y,+1.17 Z,73 ENL,1084 us,44.3 kmh,960.26 hPa,959.36 hPa,-0.02 m/s*3D
$GNRMC,155700.50,A,4838.28570,N,00858.92736,E,27.59,80.16,230521,,,A*41
$GNGGA,155700.50,4838.28570,N,00858.92736,E,1,12,0.76,501.3,M,47.5,M,,*41
$GNGSA,A,3,08,14,21,27,10,22,,,,,,,1.39,0.76,1.16*1A
$GNVTG,80.16,T,,M,27.455,N,50.847,K,A*13
$SMGPS,4.6 m,+1.39 m/s,5.57 VRx,0.677 km,36 m,83.3 °,1:-- ( 42.5 km/h)*CB
$SMGPS2,-0.11 X,+0.14 Y,+1.19 Z,56 ENL,1084 us,39.7 kmh,960.21 hPa,959.38 hPa,-0.69 m/s*3D
$GNRMC,155701.00,A,4838.28582,N,00858.93297,E,26.90,96.42,230521,,,A*45
$GNGGA,155701.00,4838.28582,N,00858.93297,E,1,11,0.81,501.1,M,47.5,M,,*4E
$GNGSA,A,3,08,14,27,10,22,,,,,,,,1.50,0.81,1.26*1D
$GNVTG,96.42,T,,M,26.818,N,49.668,K,A*1A
$SMGPS,4.4 m,+1.06 m/s,5.58 VRx,0.684 km,43 m,81.5 °,1:-- ( 42.5 km/h)*C0
$SMGPS2,-0.13 X,+0.14 Y,+1.12 Z,39 ENL,1085 us,39.1 kmh,960.23 hPa,959.28 hPa,-0.25 m/s*31
$GNRMC,155701.50,A,4838.28492,N,00858.93818,E,25.06,114.15,230521,,,A*78
$GNGGA,155701.50,4838.28492,N,00858.93818,E,1,11,0.81,500.1,M,47.5,M,,*47
$GNGSA,A,3,08,14,27,10,22,,,,,,,,1.50,0.81,1.26*1D
$GNVTG,114.15,T,,M,25.055,N,46.402,K,A*20
$SMGPS,3.4 m,+0.31 m/s,5.57 VRx,0.691 km,50 m,82.7 °,1:-- ( 42.5 km/h)*CA
$SMGPS2,-0.15 X,+0.14 Y,+1.27 Z,26 ENL,1085 us,41.6 kmh,960.34 hPa,959.24 hPa,+0.26 m/s*38
$GNRMC,155702.00,A,4838.28280,N,00858.94221,E,25.86,143.74,230521,,,A*71
$GNGGA,155702.00,4838.28280,N,00858.94221,E,1,12,0.76,499.0,M,47.5,M,,*48
$GNGSA,A,3,01,08,14,27,10,22,,,,,,,1.46,0.76,1.25*10
$GNVTG,143.74,T,,M,25.833,N,47.843,K,A*25
$SMGPS,2.3 m,-0.60 m/s,5.58 VRx,0.697 km,56 m,84.8 °,1:1  ( 43.1 km/h)*DC
$SMGPS2,-0.16 X,+0.14 Y,+1.60 Z,29 ENL,1085 us,44.9 kmh,960.47 hPa,959.12 hPa,+0.39 m/s*32
$GNRMC,155702.50,A,4838.27969,N,00858.94440,E,25.12,167.80,230521,,,A*76
$GNGGA,155702.50,4838.27969,N,00858.94440,E,1,12,0.73,497.8,M,47.5,M,,*4C
$GNGSA,A,3,01,08,14,21,27,10,22,,,,,,1.37,0.73,1.16*10
$GNVTG,167.80,T,,M,24.985,N,46.273,K,A*2D
$SMGPS,1.1 m,-1.35 m/s,5.58 VRx,0.704 km,61 m,89.2 °,1:1  ( 43.1 km/h)*D4
$SMGPS2,-0.19 X,+0.14 Y,+1.79 Z,6 ENL,1085 us,50.9 kmh,960.61 hPa,959.08 hPa,+0.98 m/s*09
$GNRMC,155703.00,A,4838.27645,N,00858.94467,E,23.17,187.67,230521,,,A*72
$GNGGA,155703.00,4838.27645,N,00858.94467,E,1,12,0.73,497.8,M,47.5,M,,*4C
$GNGSA,A,3,01,08,14,21,27,10,22,,,,,,1.37,0.73,1.16*10
$GNVTG,187.67,T,,M,23.009,N,42.613,K,A*26
$SMGPS,1.1 m,-1.40 m/s,5.56 VRx,0.710 km,64 m,94.2 °,1:2  ( 43.3 km/h)*D5
$SMGPS2,-0.20 X,+0.14 Y,+1.85 Z,67 ENL,1085 us,53.8 kmh,960.60 hPa,959.09 hPa,+0.94 m/s*39
$GNRMC,155703.50,A,4838.27358,N,00858.94380,E,19.48,197.42,230521,,,A*75
$GNGGA,155703.50,4838.27358,N,00858.94380,E,1,12,0.73,498.6,M,47.5,M,,*4F
$GNGSA,A,3,01,08,14,21,27,10,22,,,,,,1.37,0.73,1.16*10
$GNVTG,197.42,T,,M,19.437,N,35.997,K,A*23
$SMGPS,1.9 m,-0.65 m/s,5.58 VRx,0.716 km,65 m,99.8 °,1:2  ( 43.3 km/h)*D5
$SMGPS2,-0.15 X,+0.11 Y,+1.09 Z,16 ENL,1085 us,51.4 kmh,960.50 hPa,959.29 hPa,-0.04 m/s*38
$GNRMC,155704.00,A,4838.27119,N,00858.94244,E,17.67,205.34,230521,,,A*73
$GNGGA,155704.00,4838.27119,N,00858.94244,E,1,12,0.73,499.8,M,47.5,M,,*4C
$GNGSA,A,3,01,08,14,21,27,10,22,,,,,,1.37,0.73,1.16*10
$GNVTG,205.34,T,,M,17.649,N,32.686,K,A*27
$SMGPS,3.1 m,+0.41 m/s,5.58 VRx,0.722 km,65 m,104.8 °,1:-- ( 43.3 km/h)*FF
$SMGPS2,-0.13 X,+0.12 Y,+0.83 Z,46 ENL,1085 us,48.1 kmh,960.38 hPa,959.21 hPa,-0.57 m/s*36
$GNRMC,155704.50,A,4838.26918,N,00858.94079,E,16.38,213.27,230521,,,A*7C
$GNGGA,155704.50,4838.26918,N,00858.94079,E,1,12,0.73,500.1,M,47.5,M,,*45
$GNGSA,A,3,01,08,14,21,27,10,22,,,,,,1.37,0.73,1.16*10
$GNVTG,213.27,T,,M,16.291,N,30.172,K,A*2C
$SMGPS,3.4 m,+0.89 m/s,5.57 VRx,0.727 km,64 m,108.8 °,1:-- ( 43.3 km/h)*F9
$SMGPS2,-0.12 X,+0.12 Y,+0.87 Z,72 ENL,1085 us,45.4 kmh,960.35 hPa,959.28 hPa,-0.35 m/s*3C
$GNRMC,155705.00,A,4838.26748,N,00858.93875,E,15.67,224.89,230521,,,A*79
$GNGGA,155705.00,4838.26748,N,00858.93875,E,1,12,0.73,500.0,M,47.5,M,,*48
$GNGSA,A,3,01,08,14,21,27,10,22,,,,,,1.37,0.73,1.16*10
$GNVTG,224.89,T,,M,15.616,N,28.921,K,A*23
$SMGPS,3.3 m,+0.68 m/s,5.57 VRx,0.731 km,64 m,112.7 °,1:-- ( 43.3 km/h)*F2
$SMGPS2,-0.13 X,+0.09 Y,+0.89 Z,64 ENL,1085 us,43.6 kmh,960.35 hPa,959.31 hPa,-0.61 m/s*33
$GNRMC,155705.50,A,4838.26613,N,00858.93620,E,15.76,238.96,230521,,,A*7E
$GNGGA,155705.50,4838.26613,N,00858.93620,E,1,12,0.73,499.8,M,47.5,M,,*45
$GNGSA,A,3,01,08,14,21,27,10,22,,,,,,1.37,0.73,1.16*10
$GNVTG,238.96,T,,M,15.741,N,29.152,K,A*2E
$SMGPS,3.1 m,+0.34 m/s,5.57 VRx,0.734 km,63 m,115.7 °,1:-- ( 43.3 km/h)*FC
$SMGPS2,-0.12 X,+0.09 Y,+1.01 Z,63 ENL,1085 us,43.1 kmh,960.37 hPa,959.34 hPa,-0.43 m/s*34
$GNRMC,155706.00,A,4838.26529,N,00858.93317,E,15.98,256.43,230521,,,A*73
$GNGGA,155706.00,4838.26529,N,00858.93317,E,1,12,0.73,499.3,M,47.5,M,,*43
$GNGSA,A,3,01,08,14,21,27,10,22,,,,,,1.37,0.73,1.16*10
$GNVTG,256.43,T,,M,15.976,N,29.588,K,A*27
$SMGPS,2.6 m,-0.06 m/s,5.58 VRx,0.739 km,61 m,119.5 °,1:-- ( 43.3 km/h)*F3
$SMGPS2,-0.14 X,+0.13 Y,+1.11 Z,57 ENL,1085 us,43.6 kmh,960.43 hPa,959.33 hPa,-0.36 m/s*3E
$GNRMC,155706.50,A,4838.26515,N,00858.92985,E,16.37,277.18,230521,,,A*72
$GNGGA,155706.50,4838.26515,N,00858.92985,E,1,12,0.73,499.0,M,47.5,M,,*4A
$GNGSA,A,3,01,08,14,21,27,10,22,,,,,,1.37,0.73,1.16*10
$GNVTG,277.18,T,,M,16.361,N,30.300,K,A*2B
$SMGPS,2.3 m,-0.34 m/s,5.57 VRx,0.743 km,59 m,122.7 °,1:-- ( 43.3 km/h)*F4
$SMGPS2,-0.15 X,+0.15 Y,+1.21 Z,43 ENL,1085 us,44.5 kmh,960.47 hPa,959.34 hPa,-0.21 m/s*3E
$GNRMC,155707.00,A,4838.26593,N,00858.92657,E,17.80,301.45,230521,,,A*7D
$GNGGA,155707.00,4838.26593,N,00858.92657,E,1,12,0.73,498.9,M,47.5,M,,*48
$GNGSA,A,3,01,08,14,21,27,10,22,,,,,,1.37,0.73,1.16*10
$GNVTG,301.45,T,,M,17.786,N,32.940,K,A*23
$SMGPS,2.2 m,-0.41 m/s,5.58 VRx,0.747 km,56 m,125.0 °,1:1  ( 42.0 km/h)*E0
$SMGPS2,-0.15 X,+0.13 Y,+1.26 Z,65 ENL,1085 us,44.9 kmh,960.48 hPa,959.36 hPa,-0.23 m/s*38
$GNRMC,155707.50,A,4838.26763,N,00858.92385,E,18.87,322.84,230521,,,A*7B
$GNGGA,155707.50,4838.26763,N,00858.92385,E,1,12,0.73,498.8,M,47.5,M,,*4B
$GNGSA,A,3,01,08,14,21,27,10,22,,,,,,1.37,0.73,1.16*10
$GNVTG,322.84,T,,M,18.852,N,34.913,K,A*26
$SMGPS,2.1 m,-0.38 m/s,5.57 VRx,0.751 km,51 m,126.0 °,1:1  ( 42.0 km/h)*E1
$SMGPS2,-0.16 X,+0.13 Y,+1.27 Z,68 ENL,1085 us,45.9 kmh,960.50 hPa,959.25 hPa,-0.09 m/s*35
$GNRMC,155708.00,A,4838.27006,N,00858.92203,E,21.33,343.88,230521,,,A*75
$GNGGA,155708.00,4838.27006,N,00858.92203,E,1,12,0.73,498.8,M,47.5,M,,*4B
$GNGSA,A,3,01,08,14,21,27,10,22,,,,,,1.37,0.73,1.16*10
$GNVTG,343.88,T,,M,21.319,N,39.483,K,A*2A
$SMGPS,2.1 m,-0.27 m/s,5.57 VRx,0.756 km,47 m,125.5 °,1:1  ( 42.0 km/h)*E9
$SMGPS2,-0.16 X,+0.10 Y,+1.32 Z,46 ENL,1085 us,48.1 kmh,960.49 hPa,959.21 hPa,+0.64 m/s*3A
$GNRMC,155708.50,A,4838.27308,N,00858.92129,E,23.45,357.49,230521,,,A*7D
$GNGGA,155708.50,4838.27308,N,00858.92129,E,1,12,0.73,498.8,M,47.5,M,,*48
$GNGSA,A,3,01,08,14,21,27,10,22,,,,,,1.37,0.73,1.16*10
$GNVTG,357.49,T,,M,23.447,N,43.425,K,A*2D
$SMGPS,2.1 m,-0.10 m/s,5.57 VRx,0.761 km,43 m,122.5 °,1:6  ( 41.0 km/h)*EE
$SMGPS2,-0.14 X,+0.05 Y,+1.17 Z,43 ENL,1085 us,48.7 kmh,960.49 hPa,959.21 hPa,+0.63 m/s*3F
$GNRMC,155709.00,A,4838.27630,N,00858.92127,E,23.43,2.63,230521,,,A*74
$GNGGA,155709.00,4838.27630,N,00858.92127,E,1,12,0.73,498.7,M,47.5,M,,*43
$GNGSA,A,3,01,08,14,21,27,10,22,,,,,,1.37,0.73,1.16*10
$GNVTG,2.63,T,,M,23.426,N,43.385,K,A*2C
$SMGPS,2.0 m,-0.09 m/s,5.57 VRx,0.766 km,39 m,116.4 °,1:6  ( 41.0 km/h)*EB
$SMGPS2,-0.13 X,+0.06 Y,+0.96 Z,39 ENL,1085 us,47.6 kmh,960.50 hPa,959.26 hPa,-0.03 m/s*3F
$GNRMC,155709.50,A,4838.27952,N,00858.92145,E,23.45,1.61,230521,,,A*79
$GNGGA,155709.50,4838.27952,N,00858.92145,E,1,12,0.73,498.7,M,47.5,M,,*49
$GNGSA,A,3,01,08,14,21,27,10,22,,,,,,1.37,0.73,1.16*10
$GNVTG,1.61,T,,M,23.450,N,43.429,K,A*2D
$SMGPS,2.0 m,-0.11 m/s,5.57 VRx,0.772 km,37 m,107.5 °,1:38 ( 41.2 km/h)*F7
$SMGPS2,-0.13 X,+0.05 Y,+0.87 Z,60 ENL,1085 us,47.7 kmh,960.51 hPa,959.25 hPa,-0.11 m/s*30
$GNRMC,155710.00,A,4838.28272,N,00858.92127,E,22.79,354.76,230521,,,A*7D
$GNGGA,155710.00,4838.28272,N,00858.92127,E,1,12,0.73,498.5,M,47.5,M,,*44
$GNGSA,A,3,01,08,14,21,27,10,22,,,,,,1.37,0.73,1.16*10
$GNVTG,354.76,T,,M,22.784,N,42.197,K,A*22
$SMGPS,1.8 m,-0.16 m/s,5.57 VRx,0.778 km,36 m,98.9 °,1:38 ( 41.2 km/h)*CB
$SMGPS2,-0.15 X,+0.07 Y,+1.09 Z,41 ENL,1084 us,48.1 kmh,960.53 hPa,959.33 hPa,+0.05 m/s*3E
$GNRMC,155710.50,A,4838.28571,N,00858.92049,E,21.43,344.70,230521,,,A*78
$GNGGA,155710.50,4838.28571,N,00858.92049,E,1,12,0.73,498.4,M,47.5,M,,*4D
$GNGSA,A,3,01,08,14,21,27,10,22,,,,,,1.37,0.73,1.16*10
$GNVTG,344.70,T,,M,21.424,N,39.678,K,A*25
$SMGPS,1.7 m,-0.26 m/s,5.57 VRx,0.784 km,35 m,88.6 °,1:39 ( 41.4 km/h)*CE
$SMGPS2,-0.16 X,+0.12 Y,+1.13 Z,46 ENL,1085 us,47.4 kmh,960.54 hPa,959.30 hPa,-0.46 m/s*3B
$GNRMC,155711.00,A,4838.28834,N,00858.91887,E,19.71,329.84,230521,,,A*73
$GNGGA,155711.00,4838.28834,N,00858.91887,E,1,12,0.73,498.5,M,47.5,M,,*4D
$GNGSA,A,3,01,08,14,21,27,10,22,,,,,,1.37,0.73,1.16*10
$GNVTG,329.84,T,,M,19.708,N,36.498,K,A*20
$SMGPS,1.8 m,-0.15 m/s,5.58 VRx,0.790 km,35 m,79.4 °,1:39 ( 41.4 km/h)*C7
$SMGPS2,-0.15 X,+0.15 Y,+1.23 Z,28 ENL,1084 us,47.8 kmh,960.52 hPa,959.32 hPa,-0.05 m/s*3A
$GNRMC,155711.50,A,4838.29036,N,00858.91650,E,17.69,313.68,230521,,,A*75
$GNGGA,155711.50,4838.29036,N,00858.91650,E,1,12,0.73,498.7,M,47.5,M,,*45
$GNGSA,A,3,01,08,14,21,27,10,22,,,,,,1.37,0.73,1.16*10
$GNVTG,313.68,T,,M,17.685,N,32.752,K,A*20
$SMGPS,2.0 m,+0.02 m/s,5.58 VRx,0.795 km,34 m,70.3 °,1:-- ( 41.4 km/h)*CC
$SMGPS2,-0.16 X,+0.15 Y,+1.25 Z,29 ENL,1085 us,47.8 kmh,960.50 hPa,959.25 hPa,+0.04 m/s*3C
$GNRMC,155712.00,A,4838.29160,N,00858.91368,E,15.23,291.93,230521,,,A*7C
$GNGGA,155712.00,4838.29160,N,00858.91368,E,1,12,0.73,499.3,M,47.5,M,,*4A
$GNGSA,A,3,01,08,14,21,27,10,22,,,,,,1.37,0.73,1.16*10
$GNVTG,291.93,T,,M,15.222,N,28.190,K,A*27
$SMGPS,2.6 m,+0.27 m/s,5.57 VRx,0.800 km,33 m,62.4 °,1:-- ( 41.4 km/h)*C2
$SMGPS2,-0.15 X,+0.14 Y,+1.35 Z,24 ENL,1084 us,46.7 kmh,960.43 hPa,959.28 hPa,+0.07 m/s*31
$GNRMC,155712.50,A,4838.29199,N,00858.91077,E,13.25,279.52,230521,,,A*79
$GNGGA,155712.50,4838.29199,N,00858.91077,E,1,12,0.73,500.2,M,47.5,M,,*44
$GNGSA,A,3,01,08,14,21,27,10,22,,,,,,1.37,0.73,1.16*10
$GNVTG,279.52,T,,M,13.175,N,24.401,K,A*2A
$SMGPS,3.5 m,+0.71 m/s,5.58 VRx,0.804 km,31 m,56.5 °,1:-- ( 41.4 km/h)*CC
$SMGPS2,-0.15 X,+0.13 Y,+1.22 Z,32 ENL,1085 us,44.8 kmh,960.32 hPa,959.28 hPa,+0.02 m/s*38
$GNRMC,155713.00,A,4838.29148,N,00858.90829,E,12.06,260.29,230521,,,A*77
$GNGGA,155713.00,4838.29148,N,00858.90829,E,1,12,0.73,501.1,M,47.5,M,,*4C
$GNGSA,A,3,01,08,14,21,27,10,22,,,,,,1.37,0.73,1.16*10
$GNVTG,260.29,T,,M,11.834,N,21.917,K,A*2F
$SMGPS,4.4 m,+1.20 m/s,5.58 VRx,0.808 km,28 m,51.1 °,1:-- ( 41.4 km/h)*C8
$SMGPS2,-0.12 X,+0.13 Y,+1.07 Z,18 ENL,1085 us,43.7 kmh,960.22 hPa,959.18 hPa,+0.37 m/s*3C
$GNRMC,155713.50,A,4838.29022,N,00858.90654,E,13.26,231.03,230521,,,A*74
$GNGGA,155713.50,4838.29022,N,00858.90654,E,1,12,0.73,501.5,M,47.5,M,,*44
$GNGSA,A,3,01,08,14,21,27,10,22,,,,,,1.37,0.73,1.16*10
$GNVTG,231.03,T,,M,13.044,N,24.158,K,A*28
$SMGPS,4.8 m,+1.23 m/s,5.57 VRx,0.811 km,26 m,48.3 °,1:-- ( 41.4 km/h)*C4
$SMGPS2,-0.11 X,+0.11 Y,+0.96 Z,35 ENL,1085 us,41.2 kmh,960.18 hPa,959.28 hPa,+0.26 m/s*36
$GNRMC,155714.00,A,4838.28845,N,00858.90556,E,14.98,204.51,230521,,,A*7C
$GNGGA,155714.00,4838.28845,N,00858.90556,E,1,12,0.73,501.2,M,47.5,M,,*48
$GNGSA,A,3,01,08,14,21,27,10,22,,,,,,1.37,0.73,1.16*10
$GNVTG,204.51,T,,M,14.890,N,27.576,K,A*24
$SMGPS,4.5 m,+0.86 m/s,5.58 VRx,0.814 km,22 m,49.6 °,1:-- ( 41.4 km/h)*CD
$SMGPS2,-0.09 X,+0.12 Y,+0.97 Z,29 ENL,1085 us,39.2 kmh,960.22 hPa,959.35 hPa,-0.32 m/s*39
$GNRMC,155714.50,A,4838.28627,N,00858.90548,E,17.33,175.86,230521,,,A*71
$GNGGA,155714.50,4838.28627,N,00858.90548,E,1,12,0.73,500.6,M,47.5,M,,*4D
$GNGSA,A,3,01,08,14,21,27,10,22,,,,,,1.37,0.73,1.16*10
$GNVTG,175.86,T,,M,17.327,N,32.089,K,A*2E
