$GPSSETUP,8765,2,1,1,0,1,1,0,0,1,1,3,0,0,0,0,6,3,12C,96,1F4,1C2,32,64,7C,64,7D0,5,1,1,1E,100,0,0,0,0,0,1010,4,10,5,6,10,10,10,10,10,10,10,10,10,BC10,0,80,1,108,302,604,0,20F,0,4000,0,4000,0,0,0,0,0,0,0,0,0,0,0,0,0,0,0,0,0,0,0,0,0,0,0,0,0,0,0,0,0,64,12C,DC9C*7E
$GNRMC,141504.00,A,4838.33427,N,00859.02830,E,1.68,,211021,,,A,V*24
$GNGNS,141504.00,4838.33427,N,00859.02830,E,AAAN,16,0.84,488.8,47.5,,,V*12
$GNGSA,A,3,30,05,13,07,20,09,02,,,,,,1.37,0.84,1.08,1*0B
$GNGSA,A,3,79,69,,,,,,,,,,,1.41,0.88,1.10,2*07
$GNGSA,A,3,07,30,02,08,27,26,,,,,,,1.41,0.88,1.10,3*08
$GNVTG,,T,,M,1.542,N,2.855,K,A*35
$SMGPS,-0.5 m,-0.34 m/s,5.53 VRx,0.000 km,4 m,218.8 °,1:-- (  0.0 km/h),489.3 m*B9
$SMGPS2,-0.11 X,-0.14 Y,+0.98 Z,11 ENL,1084 us,0.0 kmh,954.85 hPa,954.55 hPa,-0.32 m/s*0C
$GNRMC,141504.50,A,4838.33439,N,00859.02825,E,1.88,195.57,211021,,,A,V*35
$GNGNS,141504.50,4838.33439,N,00859.02825,E,AAAN,18,0.75,488.9,47.5,,,V*1D
$GNGSA,A,3,30,05,13,07,20,09,02,14,,,,,1.25,0.75,1.00,1*0B
$GNGSA,A,3,79,69,,,,,,,,,,,1.37,0.84,1.08,2*03
$GNGSA,A,3,07,30,02,33,08,27,26,,,,,,1.37,0.84,1.08,3*0C
$GNVTG,195.57,T,,M,1.827,N,3.384,K,A*2C
$SMGPS,-0.4 m,-0.24 m/s,5.55 VRx,0.001 km,1 m,315.3 °,1:-- (  0.0 km/h),489.7 m*B8
$SMGPS2,-0.07 X,+0.00 Y,+0.96 Z,10 ENL,1084 us,0.0 kmh,954.84 hPa,954.50 hPa,-0.03 m/s*01
$GNRMC,141505.00,A,4838.33422,N,00859.02799,E,1.70,196.93,211021,,,A,V*3F
$GNGNS,141505.00,4838.33422,N,00859.02799,E,AAAN,18,0.75,488.7,47.5,,,V*15
$GNGSA,A,3,30,05,13,07,20,09,02,14,,,,,1.25,0.75,1.00,1*0B
$GNGSA,A,3,79,69,85,,,,,,,,,,1.25,0.75,1.00,2*0B
$GNGSA,A,3,07,30,02,33,08,27,26,,,,,,1.25,0.75,1.00,3*09
$GNVTG,196.93,T,,M,1.678,N,3.108,K,A*25
$SMGPS,-0.6 m,-0.15 m/s,5.55 VRx,0.001 km,1 m,313.0 °,1:-- (  0.0 km/h),489.6 m*BC
$SMGPS2,-0.13 X,+0.01 Y,+0.99 Z,3 ENL,1084 us,0.0 kmh,954.86 hPa,954.54 hPa,-0.03 m/s*3E
$GNRMC,141505.50,A,4838.33409,N,00859.02791,E,1.69,184.96,211021,,,A,V*35
$GNGNS,141505.50,4838.33409,N,00859.02791,E,AAAN,18,0.75,488.7,47.5,,,V*11
$GNGSA,A,3,30,05,13,07,20,09,02,14,,,,,1.25,0.75,1.00,1*0B
$GNGSA,A,3,79,69,85,,,,,,,,,,1.25,0.75,1.00,2*0B
$GNGSA,A,3,07,30,02,33,08,27,26,,,,,,1.25,0.75,1.00,3*09
$GNVTG,184.96,T,,M,1.668,N,3.089,K,A*2A
$SMGPS,-0.6 m,-0.13 m/s,5.55 VRx,0.002 km,1 m,270.0 °,1:-- (  0.0 km/h),489.8 m*B3
$SMGPS2,-0.01 X,+0.02 Y,+1.02 Z,9 ENL,1084 us,0.0 kmh,954.86 hPa,954.52 hPa,+0.08 m/s*3C
$GNRMC,141506.00,A,4838.33378,N,00859.02778,E,1.81,187.16,211021,,,A,V*38
$GNGNS,141506.00,4838.33378,N,00859.02778,E,AAAN,18,0.75,488.8,47.5,,,V*1E
$GNGSA,A,3,30,05,13,07,20,09,02,14,,,,,1.25,0.75,1.00,1*0B
$GNGSA,A,3,79,69,85,,,,,,,,,,1.25,0.75,1.00,2*0B
$GNGSA,A,3,07,30,02,33,08,27,26,,,,,,1.25,0.75,1.00,3*09
$GNVTG,187.16,T,,M,1.800,N,3.334,K,A*24
$SMGPS,-0.5 m,-0.09 m/s,5.53 VRx,0.002 km,2 m,270.0 °,1:-- (  0.0 km/h),490.0 m*BE
$SMGPS2,-0.13 X,+0.07 Y,+1.00 Z,10 ENL,1084 us,0.0 kmh,954.85 hPa,954.54 hPa,-0.02 m/s*09
$GNRMC,141506.50,A,4838.33350,N,00859.02768,E,1.37,176.96,211021,,,A,V*3D
$GNGNS,141506.50,4838.33350,N,00859.02768,E,AAAN,18,0.75,488.4,47.5,,,V*1C
$GNGSA,A,3,30,05,13,07,20,09,02,14,,,,,1.25,0.75,1.00,1*0B
$GNGSA,A,3,79,69,85,,,,,,,,,,1.25,0.75,1.00,2*0B
$GNGSA,A,3,07,30,02,33,08,27,26,,,,,,1.25,0.75,1.00,3*09
$GNVTG,176.96,T,,M,1.360,N,2.519,K,A*27
$SMGPS,-0.9 m,-0.07 m/s,5.55 VRx,0.002 km,2 m,270.0 °,1:-- (  0.0 km/h),489.9 m*BB
$SMGPS2,-0.01 X,+0.06 Y,+0.98 Z,17 ENL,1084 us,1.3 kmh,954.89 hPa,954.53 hPa,-0.08 m/s*0F
$GNRMC,141507.00,A,4838.33328,N,00859.02766,E,1.40,180.95,211021,,,A,V*32
$GNGNS,141507.00,4838.33328,N,00859.02766,E,AAAN,18,0.75,488.5,47.5,,,V*18
$GNGSA,A,3,30,05,13,07,20,09,02,14,,,,,1.25,0.75,1.00,1*0B
$GNGSA,A,3,79,69,85,,,,,,,,,,1.25,0.75,1.00,2*0B
$GNGSA,A,3,07,30,02,33,08,27,26,,,,,,1.25,0.75,1.00,3*09
$GNVTG,180.95,T,,M,1.318,N,2.441,K,A*2E
$SMGPS,-0.8 m,-0.24 m/s,5.55 VRx,0.003 km,2 m,242.2 °,1:-- (  0.0 km/h),489.5 m*B5
$SMGPS2,-0.07 X,+0.14 Y,+0.97 Z,21 ENL,1084 us,2.4 kmh,954.88 hPa,954.54 hPa,-0.14 m/s*0F
$GNRMC,141507.50,A,4838.33310,N,00859.02757,E,1.74,180.42,211021,,,A,V*33
$GNGNS,141507.50,4838.33310,N,00859.02757,E,AAAN,19,0.66,488.7,47.5,,,V*15
$GNGSA,A,3,30,05,13,07,20,09,02,14,,,,,1.13,0.66,0.92,1*06
$GNGSA,A,3,79,69,85,,,,,,,,,,1.25,0.75,1.00,2*0B
$GNGSA,A,3,07,30,02,33,08,27,26,,,,,,1.25,0.75,1.00,3*09
$GNVTG,180.42,T,,M,1.717,N,3.180,K,A*26
$SMGPS,-0.6 m,-0.15 m/s,5.54 VRx,0.003 km,2 m,243.2 °,1:-- (  0.0 km/h),489.4 m*B8
$SMGPS2,+0.04 X,+0.17 Y,+1.00 Z,93 ENL,1084 us,0.0 kmh,954.86 hPa,954.57 hPa,-0.16 m/s*06
$GNRMC,141508.00,A,4838.33287,N,00859.02755,E,1.57,180.36,211021,,,A,V*36
$GNGNS,141508.00,4838.33287,N,00859.02755,E,AAAN,19,0.66,488.3,47.5,,,V*16
$GNGSA,A,3,30,05,13,07,20,09,02,14,,,,,1.13,0.66,0.92,1*06
$GNGSA,A,3,79,69,85,,,,,,,,,,1.13,0.66,0.92,2*06
$GNGSA,A,3,07,30,02,33,08,27,26,12,,,,,1.13,0.66,0.92,3*07
$GNVTG,180.36,T,,M,1.570,N,2.907,K,A*20
$SMGPS,-1.0 m,-0.05 m/s,5.54 VRx,0.005 km,3 m,219.6 °,1:-- (  0.0 km/h),489.6 m*B0
$SMGPS2,-0.02 X,+0.18 Y,+0.96 Z,111 ENL,1084 us,0.0 kmh,954.90 hPa,954.57 hPa,-0.23 m/s*3D
$GNRMC,141508.50,A,4838.33259,N,00859.02753,E,1.74,188.60,211021,,,A,V*3C
$GNGNS,141508.50,4838.33259,N,00859.02753,E,AAAN,19,0.66,488.1,47.5,,,V*14
$GNGSA,A,3,30,05,13,07,20,09,02,14,,,,,1.13,0.66,0.92,1*06
$GNGSA,A,3,79,69,85,,,,,,,,,,1.13,0.66,0.92,2*06
$GNGSA,A,3,07,30,02,33,08,27,26,12,,,,,1.13,0.66,0.92,3*07
$GNVTG,188.60,T,,M,1.621,N,3.001,K,A*22
$SMGPS,-1.2 m,-0.32 m/s,5.54 VRx,0.005 km,3 m,220.7 °,1:-- (  0.0 km/h),489.7 m*BC
$SMGPS2,+0.00 X,+0.26 Y,+1.02 Z,29 ENL,1084 us,5.3 kmh,954.93 hPa,954.52 hPa,-0.08 m/s*0B
$GNRMC,141509.00,A,4838.33225,N,00859.02750,E,1.88,180.06,211021,,,A,V*3B
$GNGNS,141509.00,4838.33225,N,00859.02750,E,AAAN,19,0.66,488.4,47.5,,,V*1D
$GNGSA,A,3,30,05,13,07,20,09,02,14,,,,,1.13,0.66,0.92,1*06
$GNGSA,A,3,79,69,85,,,,,,,,,,1.13,0.66,0.92,2*06
$GNGSA,A,3,07,30,02,33,08,27,26,12,,,,,1.13,0.66,0.92,3*07
$GNVTG,180.06,T,,M,1.873,N,3.469,K,A*29
$SMGPS,-0.9 m,-0.09 m/s,5.55 VRx,0.006 km,4 m,211.5 °,1:-- (  0.0 km/h),489.4 m*B8
$SMGPS2,-0.04 X,+0.18 Y,+0.96 Z,12 ENL,1084 us,11.1 kmh,954.90 hPa,954.42 hPa,+0.38 m/s*30
$GNRMC,141509.50,A,4838.33200,N,00859.02742,E,1.82,191.11,211021,,,A,V*36
$GNGNS,141509.50,4838.33200,N,00859.02742,E,AAAN,19,0.66,488.2,47.5,,,V*1A
$GNGSA,A,3,30,05,13,07,20,09,02,14,,,,,1.13,0.66,0.92,1*06
$GNGSA,A,3,79,69,85,,,,,,,,,,1.13,0.66,0.92,2*06
$GNGSA,A,3,07,30,02,33,08,27,26,12,,,,,1.13,0.66,0.92,3*07
$GNVTG,191.11,T,,M,1.823,N,3.376,K,A*23
$SMGPS,-1.1 m,-0.02 m/s,5.55 VRx,0.006 km,4 m,205.5 °,1:-- (  0.0 km/h),489.4 m*BF
$SMGPS2,-0.07 X,+0.17 Y,+0.98 Z,29 ENL,1084 us,17.6 kmh,954.91 hPa,954.41 hPa,+0.81 m/s*3B
$GNRMC,141510.00,A,4838.33169,N,00859.02733,E,1.89,181.68,211021,,,A,V*35
$GNGNS,141510.00,4838.33169,N,00859.02733,E,AAAN,19,0.66,488.7,47.5,,,V*18
$GNGSA,A,3,30,05,13,07,20,09,02,14,,,,,1.13,0.66,0.92,1*06
$GNGSA,A,3,79,69,85,,,,,,,,,,1.13,0.66,0.92,2*06
$GNGSA,A,3,07,30,02,33,08,27,26,12,,,,,1.13,0.66,0.92,3*07
$GNVTG,181.68,T,,M,1.881,N,3.484,K,A*2E
$SMGPS,-0.6 m,+0.10 m/s,5.54 VRx,0.007 km,4 m,207.2 °,1:-- (  0.0 km/h),489.6 m*BB
$SMGPS2,-0.10 X,+0.25 Y,+0.97 Z,29 ENL,1084 us,18.8 kmh,954.85 hPa,954.37 hPa,+0.66 m/s*3F
$GNRMC,141510.50,A,4838.33133,N,00859.02718,E,2.20,197.61,211021,,,A,V*38
$GNGNS,141510.50,4838.33133,N,00859.02718,E,AAAN,19,0.66,489.5,47.5,,,V*18
$GNGSA,A,3,30,05,13,07,20,09,02,14,,,,,1.13,0.66,0.92,1*06
$GNGSA,A,3,79,69,85,,,,,,,,,,1.13,0.66,0.92,2*06
$GNGSA,A,3,07,30,02,33,08,27,26,12,,,,,1.13,0.66,0.92,3*07
$GNVTG,197.61,T,,M,2.037,N,3.772,K,A*2C
$SMGPS,0.2 m,+0.43 m/s,5.55 VRx,0.007 km,5 m,203.5 °,1:-- (  0.0 km/h),489.8 m*99
$SMGPS2,-0.08 X,+0.26 Y,+1.07 Z,34 ENL,1084 us,14.8 kmh,954.77 hPa,954.38 hPa,+0.33 m/s*3F
$GNRMC,141511.00,A,4838.33102,N,00859.02703,E,2.42,195.04,211021,,,A,V*31
$GNGNS,141511.00,4838.33102,N,00859.02703,E,AAAN,19,0.66,489.5,47.5,,,V*14
$GNGSA,A,3,30,05,13,07,20,09,02,14,,,,,1.13,0.66,0.92,1*06
$GNGSA,A,3,79,69,85,,,,,,,,,,1.13,0.66,0.92,2*06
$GNGSA,A,3,07,30,02,33,08,27,26,12,,,,,1.13,0.66,0.92,3*07
$GNVTG,195.04,T,,M,2.022,N,3.745,K,A*2D
$SMGPS,0.2 m,+0.69 m/s,5.54 VRx,0.008 km,5 m,206.4 °,1:-- (  0.0 km/h),490.2 m*99
$SMGPS2,-0.11 X,+0.21 Y,+0.73 Z,35 ENL,1084 us,11.9 kmh,954.77 hPa,954.40 hPa,+0.32 m/s*39
$GNRMC,141511.50,A,4838.33082,N,00859.02691,E,0.99,,211021,,,A,V*24
$GNGNS,141511.50,4838.33082,N,00859.02691,E,AAAN,19,0.66,488.8,47.5,,,V*1E
$GNGSA,A,3,30,05,13,07,20,09,02,14,,,,,1.13,0.66,0.92,1*06
$GNGSA,A,3,79,69,85,,,,,,,,,,1.13,0.66,0.92,2*06
$GNGSA,A,3,07,30,02,33,08,27,26,12,,,,,1.13,0.66,0.92,3*07
$GNVTG,,T,,M,0.924,N,1.711,K,A*34
$SMGPS,-0.5 m,+0.18 m/s,5.53 VRx,0.009 km,6 m,204.0 °,1:-- (  0.0 km/h),490.2 m*B6
$SMGPS2,-0.61 X,+0.06 Y,+0.82 Z,61 ENL,1084 us,3.7 kmh,954.85 hPa,954.50 hPa,-0.18 m/s*0B
$GNRMC,141512.00,A,4838.33075,N,00859.02688,E,0.51,,211021,,,A,V*26
$GNGNS,141512.00,4838.33075,N,00859.02688,E,AAAN,19,0.66,489.0,47.5,,,V*11
$GNGSA,A,3,30,05,13,07,20,09,02,14,,,,,1.13,0.66,0.92,1*06
$GNGSA,A,3,79,69,85,,,,,,,,,,1.13,0.66,0.92,2*06
$GNGSA,A,3,07,30,02,33,08,27,26,12,,,,,1.13,0.66,0.92,3*07
$GNVTG,,T,,M,0.495,N,0.917,K,A*3A
$SMGPS,-0.3 m,-0.06 m/s,5.55 VRx,0.009 km,6 m,205.2 °,1:-- (  0.0 km/h),490.2 m*BC
$SMGPS2,-0.52 X,+0.05 Y,+0.82 Z,196 ENL,1084 us,0.0 kmh,954.83 hPa,954.52 hPa,-0.45 m/s*39
$GNRMC,141512.50,A,4838.33062,N,00859.02688,E,0.44,,211021,,,A,V*21
$GNGNS,141512.50,4838.33062,N,00859.02688,E,AAAN,19,0.66,489.1,47.5,,,V*13
$GNGSA,A,3,30,05,13,07,20,09,02,14,,,,,1.13,0.66,0.92,1*06
$GNGSA,A,3,79,69,85,,,,,,,,,,1.13,0.66,0.92,2*06
$GNGSA,A,3,07,30,02,33,08,27,26,12,,,,,1.13,0.66,0.92,3*07
$GNVTG,,T,,M,0.427,N,0.791,K,A*33
$SMGPS,-0.2 m,+0.05 m/s,5.55 VRx,0.009 km,7 m,202.7 °,1:-- (  0.0 km/h),490.1 m*B8
$SMGPS2,-0.55 X,+0.13 Y,+0.83 Z,26 ENL,1084 us,0.0 kmh,954.82 hPa,954.49 hPa,-0.37 m/s*0C
$GNRMC,141513.00,A,4838.33051,N,00859.02683,E,0.52,,211021,,,A,V*29
$GNGNS,141513.00,4838.33051,N,00859.02683,E,AAAN,19,0.66,488.9,47.5,,,V*15
$GNGSA,A,3,30,05,13,07,20,09,02,14,,,,,1.13,0.66,0.92,1*06
$GNGSA,A,3,79,69,85,,,,,,,,,,1.13,0.66,0.92,2*06
$GNGSA,A,3,07,30,02,33,08,27,26,12,,,,,1.13,0.66,0.92,3*07
$GNVTG,,T,,M,0.517,N,0.957,K,A*35
$SMGPS,-0.4 m,-0.02 m/s,5.54 VRx,0.009 km,7 m,202.7 °,1:-- (  0.0 km/h),490.2 m*BD
$SMGPS2,-0.51 X,-0.05 Y,+0.87 Z,160 ENL,1085 us,0.0 kmh,954.83 hPa,954.55 hPa,-0.26 m/s*33
$GNRMC,141513.50,A,4838.33040,N,00859.02675,E,0.69,,211021,,,A,V*2D
$GNGNS,141513.50,4838.33040,N,00859.02675,E,AAAN,19,0.66,488.9,47.5,,,V*19
$GNGSA,A,3,30,05,13,07,20,09,02,14,,,,,1.13,0.66,0.92,1*06
$GNGSA,A,3,79,69,85,,,,,,,,,,1.13,0.66,0.92,2*06
$GNGSA,A,3,07,30,02,33,08,27,26,12,,,,,1.13,0.66,0.92,3*07
$GNVTG,,T,,M,0.688,N,1.274,K,A*3B
$SMGPS,-0.4 m,-0.03 m/s,5.54 VRx,0.009 km,7 m,202.7 °,1:-- (  0.0 km/h),490.1 m*BF
$SMGPS2,-0.43 X,-0.05 Y,+0.90 Z,63 ENL,1085 us,0.0 kmh,954.83 hPa,954.52 hPa,-0.24 m/s*01
$GNRMC,141514.00,A,4838.33031,N,00859.02653,E,1.63,203.97,211021,,,A,V*37
$GNGNS,141514.00,4838.33031,N,00859.02653,E,AAAN,19,0.66,488.9,47.5,,,V*19
$GNGSA,A,3,30,05,13,07,20,09,02,14,,,,,1.13,0.66,0.92,1*06
$GNGSA,A,3,79,69,85,,,,,,,,,,1.13,0.66,0.92,2*06
$GNGSA,A,3,07,30,02,33,08,27,26,12,,,,,1.13,0.66,0.92,3*07
$GNVTG,203.97,T,,M,1.632,N,3.022,K,A*29
$SMGPS,-0.4 m,-0.05 m/s,5.55 VRx,0.009 km,7 m,203.8 °,1:-- (  0.0 km/h),490.4 m*B3
$SMGPS2,-0.30 X,-0.07 Y,+0.85 Z,11 ENL,1084 us,1.9 kmh,954.84 hPa,954.49 hPa,-0.02 m/s*06
$GNRMC,141514.50,A,4838.33005,N,00859.02625,E,2.25,214.49,211021,,,A,V*30
$GNGNS,141514.50,4838.33005,N,00859.02625,E,AAAN,19,0.66,488.7,47.5,,,V*14
$GNGSA,A,3,30,05,13,07,20,09,02,14,,,,,1.13,0.66,0.92,1*06
$GNGSA,A,3,79,69,85,,,,,,,,,,1.13,0.66,0.92,2*06
$GNGSA,A,3,07,30,02,33,08,27,26,12,,,,,1.13,0.66,0.92,3*07
$GNVTG,214.49,T,,M,2.238,N,4.144,K,A*27
$SMGPS,-0.6 m,-0.11 m/s,5.55 VRx,0.009 km,8 m,202.7 °,1:-- (  0.0 km/h),490.7 m*B6
$SMGPS2,-0.35 X,-0.02 Y,+0.94 Z,5 ENL,1084 us,5.7 kmh,954.86 hPa,954.50 hPa,+0.07 m/s*30
$GNRMC,141515.00,A,4838.32976,N,00859.02596,E,1.96,214.43,211021,,,A,V*32
$GNGNS,141515.00,4838.32976,N,00859.02596,E,AAAN,19,0.66,488.6,47.5,,,V*16
$GNGSA,A,3,30,05,13,07,20,09,02,14,,,,,1.13,0.66,0.92,1*06
$GNGSA,A,3,79,69,85,,,,,,,,,,1.13,0.66,0.92,2*06
$GNGSA,A,3,07,30,02,33,08,27,26,12,,,,,1.13,0.66,0.92,3*07
$GNVTG,214.43,T,,M,1.928,N,3.571,K,A*21
$SMGPS,-0.7 m,-0.19 m/s,5.55 VRx,0.010 km,8 m,205.5 °,1:-- (  0.0 km/h),490.8 m*BD
$SMGPS2,-0.53 X,+0.13 Y,+0.92 Z,9 ENL,1084 us,0.0 kmh,954.87 hPa,954.54 hPa,-0.03 m/s*39
$GNRMC,141515.50,A,4838.32959,N,00859.02576,E,1.76,216.85,211021,,,A,V*32
$GNGNS,141515.50,4838.32959,N,00859.02576,E,AAAN,19,0.66,488.3,47.5,,,V*15
$GNGSA,A,3,30,05,13,07,20,09,02,14,,,,,1.13,0.66,0.92,1*06
$GNGSA,A,3,79,69,85,,,,,,,,,,1.13,0.66,0.92,2*06
$GNGSA,A,3,07,30,02,33,08,27,26,12,,,,,1.13,0.66,0.92,3*07
$GNVTG,216.85,T,,M,1.693,N,3.135,K,A*22
$SMGPS,-1.0 m,-0.26 m/s,5.55 VRx,0.011 km,9 m,205.2 °,1:2  (  0.3 km/h),491.1 m*A9
$SMGPS2,-0.41 X,-0.06 Y,+0.84 Z,13 ENL,1084 us,3.2 kmh,954.90 hPa,954.54 hPa,-0.22 m/s*00
$GNRMC,141516.00,A,4838.32941,N,00859.02545,E,2.50,227.73,211021,,,A,V*31
$GNGNS,141516.00,4838.32941,N,00859.02545,E,AAAN,19,0.66,488.2,47.5,,,V*1B
$GNGSA,A,3,30,05,13,07,20,09,02,14,,,,,1.13,0.66,0.92,1*06
$GNGSA,A,3,79,69,85,,,,,,,,,,1.13,0.66,0.92,2*06
$GNGSA,A,3,07,30,02,33,08,27,26,12,,,,,1.13,0.66,0.92,3*07
$GNVTG,227.73,T,,M,2.433,N,4.507,K,A*20
$SMGPS,-1.1 m,-0.29 m/s,5.55 VRx,0.011 km,9 m,206.4 °,1:2  (  0.3 km/h),491.3 m*A0
$SMGPS2,-0.41 X,+0.03 Y,+0.88 Z,10 ENL,1084 us,10.2 kmh,954.92 hPa,954.52 hPa,+0.02 m/s*3E
$GNRMC,141516.50,A,4838.32928,N,00859.02515,E,1.66,233.41,211021,,,A,V*3C
$GNGNS,141516.50,4838.32928,N,00859.02515,E,AAAN,19,0.66,488.0,47.5,,,V*16
$GNGSA,A,3,30,05,13,07,20,09,02,14,,,,,1.13,0.66,0.92,1*06
$GNGSA,A,3,79,69,85,,,,,,,,,,1.13,0.66,0.92,2*06
$GNGSA,A,3,07,30,02,33,08,27,26,12,,,,,1.13,0.66,0.92,3*07
$GNVTG,233.41,T,,M,1.515,N,2.806,K,A*28
$SMGPS,-1.3 m,-0.35 m/s,5.54 VRx,0.011 km,9 m,208.3 °,1:2  (  0.3 km/h),491.5 m*A1
$SMGPS2,-0.49 X,-0.10 Y,+0.85 Z,9 ENL,1084 us,14.0 kmh,954.93 hPa,954.49 hPa,+0.11 m/s*08
$GNRMC,141517.00,A,4838.32916,N,00859.02486,E,1.94,239.06,211021,,,A,V*3A
$GNGNS,141517.00,4838.32916,N,00859.02486,E,AAAN,19,0.66,487.9,47.5,,,V*12
$GNGSA,A,3,30,05,13,07,20,09,02,14,,,,,1.13,0.66,0.92,1*06
$GNGSA,A,3,79,69,85,,,,,,,,,,1.13,0.66,0.92,2*06
$GNGSA,A,3,07,30,02,33,08,27,26,12,,,,,1.13,0.66,0.92,3*07
$GNVTG,239.06,T,,M,1.854,N,3.434,K,A*25
$SMGPS,-1.4 m,-0.30 m/s,5.54 VRx,0.013 km,11 m,207.0 °,1:2  (  0.3 km/h),491.4 m*95
$SMGPS2,-0.33 X,-0.01 Y,+0.88 Z,19 ENL,1085 us,16.4 kmh,954.95 hPa,954.55 hPa,+0.18 m/s*3C
$GNRMC,141517.50,A,4838.32902,N,00859.02457,E,2.14,242.56,211021,,,A,V*34
$GNGNS,141517.50,4838.32902,N,00859.02457,E,AAAN,19,0.66,487.7,47.5,,,V*10
$GNGSA,A,3,30,05,13,07,20,09,02,14,,,,,1.13,0.66,0.92,1*06
$GNGSA,A,3,79,69,85,,,,,,,,,,1.13,0.66,0.92,2*06
$GNGSA,A,3,07,30,02,33,08,27,26,12,,,,,1.13,0.66,0.92,3*07
$GNVTG,242.56,T,,M,2.071,N,3.835,K,A*2D
$SMGPS,-1.6 m,-0.27 m/s,5.55 VRx,0.013 km,11 m,208.7 °,1:2  (  0.3 km/h),491.4 m*98
$SMGPS2,-0.40 X,-0.06 Y,+0.97 Z,12 ENL,1084 us,13.9 kmh,954.97 hPa,954.55 hPa,-0.23 m/s*3F
$GNRMC,141518.00,A,4838.32883,N,00859.02420,E,2.73,232.10,211021,,,A,V*32
$GNGNS,141518.00,4838.32883,N,00859.02420,E,AAAN,19,0.66,487.9,47.5,,,V*1C
$GNGSA,A,3,30,05,13,07,20,09,02,14,,,,,1.13,0.66,0.92,1*06
$GNGSA,A,3,79,69,85,,,,,,,,,,1.13,0.66,0.92,2*06
$GNGSA,A,3,07,30,02,33,08,27,26,12,,,,,1.13,0.66,0.92,3*07
$GNVTG,232.10,T,,M,2.691,N,4.984,K,A*2C
$SMGPS,-1.4 m,-0.23 m/s,5.55 VRx,0.013 km,11 m,210.0 °,1:2  (  0.3 km/h),491.5 m*91
$SMGPS2,-0.25 X,+0.05 Y,+0.91 Z,4 ENL,1084 us,14.8 kmh,954.95 hPa,954.50 hPa,-0.19 m/s*00
$GNRMC,141518.50,A,4838.32853,N,00859.02376,E,2.55,230.44,211021,,,A,V*39
$GNGNS,141518.50,4838.32853,N,00859.02376,E,AAAN,19,0.66,487.5,47.5,,,V*1C
$GNGSA,A,3,30,05,13,07,20,09,02,14,,,,,1.13,0.66,0.92,1*06
$GNGSA,A,3,79,69,85,,,,,,,,,,1.13,0.66,0.92,2*06
$GNGSA,A,3,07,30,02,33,08,27,26,12,,,,,1.13,0.66,0.92,3*07
$GNVTG,230.44,T,,M,2.514,N,4.656,K,A*21
$SMGPS,-1.8 m,-0.23 m/s,5.55 VRx,0.014 km,12 m,210.3 °,1:2  (  0.3 km/h),491.4 m*9B
$SMGPS2,-0.27 X,-0.08 Y,+0.91 Z,14 ENL,1085 us,18.0 kmh,954.99 hPa,954.52 hPa,+0.13 m/s*3F
$GNRMC,141519.00,A,4838.32818,N,00859.02335,E,3.80,215.84,211021,,,A,V*37
$GNGNS,141519.00,4838.32818,N,00859.02335,E,AAAN,19,0.66,487.3,47.5,,,V*16
$GNGSA,A,3,30,05,13,07,20,09,02,14,,,,,1.13,0.66,0.92,1*06
$GNGSA,A,3,79,69,85,,,,,,,,,,1.13,0.66,0.92,2*06
$GNGSA,A,3,07,30,02,33,08,27,26,12,,,,,1.13,0.66,0.92,3*07
$GNVTG,215.84,T,,M,3.744,N,6.934,K,A*25
$SMGPS,-2.0 m,-0.33 m/s,5.55 VRx,0.015 km,12 m,212.3 °,1:2  (  0.3 km/h),491.4 m*92
$SMGPS2,-0.19 X,+0.17 Y,+1.07 Z,9 ENL,1084 us,18.5 kmh,955.02 hPa,954.57 hPa,+0.10 m/s*09
$GNRMC,141519.50,A,4838.32732,N,00859.02254,E,10.75,213.07,211021,,,A,V*06
$GNGNS,141519.50,4838.32732,N,00859.02254,E,AAAN,19,0.66,486.1,47.5,,,V*11
$GNGSA,A,3,30,05,13,07,20,09,02,14,,,,,1.13,0.66,0.92,1*06
$GNGSA,A,3,79,69,85,,,,,,,,,,1.13,0.66,0.92,2*06
$GNGSA,A,3,07,30,02,33,08,27,26,12,,,,,1.13,0.66,0.92,3*07
$GNVTG,213.07,T,,M,10.706,N,19.828,K,A*2E
$SMGPS,-3.2 m,-0.50 m/s,5.55 VRx,0.016 km,13 m,212.2 °,1:2  (  0.3 km/h),491.2 m*91
$SMGPS2,+1.32 X,+0.31 Y,+1.23 Z,26 ENL,1084 us,26.0 kmh,955.15 hPa,953.93 hPa,+0.60 m/s*3E
$GNRMC,141520.00,A,4838.32547,N,00859.02094,E,19.97,209.02,211021,,,A,V*0C
$GNGNS,141520.00,4838.32547,N,00859.02094,E,AAAN,19,0.66,487.4,47.5,,,V*14
$GNGSA,A,3,30,05,13,07,20,09,02,14,,,,,1.13,0.66,0.92,1*06
$GNGSA,A,3,79,69,85,,,,,,,,,,1.13,0.66,0.92,2*06
$GNGSA,A,3,07,30,02,33,08,27,26,12,,,,,1.13,0.66,0.92,3*07
$GNVTG,209.02,T,,M,19.953,N,36.953,K,A*27
$SMGPS,-1.9 m,-0.47 m/s,5.54 VRx,0.018 km,15 m,212.1 °,1:2  (  0.3 km/h),491.1 m*97
$SMGPS2,-0.19 X,+0.03 Y,+1.45 Z,44 ENL,1085 us,37.5 kmh,955.01 hPa,953.94 hPa,+3.21 m/s*35
$GNRMC,141520.50,A,4838.32302,N,00859.01912,E,18.84,203.38,211021,,,A,V*0A
$GNGNS,141520.50,4838.32302,N,00859.01912,E,AAAN,19,0.66,488.1,47.5,,,V*18
$GNGSA,A,3,30,05,13,07,20,09,02,14,,,,,1.13,0.66,0.92,1*06
$GNGSA,A,3,79,69,85,,,,,,,,,,1.13,0.66,0.92,2*06
$GNGSA,A,3,07,30,02,33,08,27,26,12,,,,,1.13,0.66,0.92,3*07
$GNVTG,203.38,T,,M,18.834,N,34.881,K,A*29
$SMGPS,-1.2 m,+0.28 m/s,5.55 VRx,0.021 km,19 m,212.2 °,1:2  (  1.0 km/h),491.3 m*97
$SMGPS2,-0.15 X,+0.02 Y,+0.95 Z,18 ENL,1084 us,38.9 kmh,954.93 hPa,954.05 hPa,+2.20 m/s*3A
$GNRMC,141521.00,A,4838.32053,N,00859.01790,E,18.80,193.05,211021,,,A,V*0D
$GNGNS,141521.00,4838.32053,N,00859.01790,E,AAAN,19,0.66,488.6,47.5,,,V*18
$GNGSA,A,3,30,05,13,07,20,09,02,14,,,,,1.13,0.66,0.92,1*06
$GNGSA,A,3,79,69,85,,,,,,,,,,1.13,0.66,0.92,2*06
$GNGSA,A,3,07,30,02,33,08,27,26,12,,,,,1.13,0.66,0.92,3*07
$GNVTG,193.05,T,,M,18.747,N,34.720,K,A*22
$SMGPS,-0.7 m,+0.70 m/s,5.53 VRx,0.026 km,23 m,211.3 °,1:2  (  1.0 km/h),491.9 m*9E
$SMGPS2,-0.15 X,+0.01 Y,+1.14 Z,102 ENL,1084 us,37.3 kmh,954.87 hPa,953.92 hPa,+1.09 m/s*0A
$GNRMC,141521.50,A,4838.31807,N,00859.01692,E,17.49,195.50,211021,,,A,V*0D
$GNGNS,141521.50,4838.31807,N,00859.01692,E,AAAN,19,0.66,489.3,47.5,,,V*10
$GNGSA,A,3,30,05,13,07,20,09,02,14,,,,,1.13,0.66,0.91,1*05
$GNGSA,A,3,79,69,85,,,,,,,,,,1.13,0.66,0.92,2*06
$GNGSA,A,3,07,30,02,33,08,27,26,12,,,,,1.13,0.66,0.92,3*07
$GNVTG,195.50,T,,M,17.406,N,32.236,K,A*29
$SMGPS,0.0 m,+0.86 m/s,5.54 VRx,0.032 km,29 m,208.2 °,1:-- (  1.0 km/h),492.5 m*A1
$SMGPS2,-0.13 X,+0.04 Y,+0.90 Z,47 ENL,1084 us,36.9 kmh,954.79 hPa,953.79 hPa,+0.99 m/s*33
$GNRMC,141522.00,A,4838.31584,N,00859.01584,E,16.30,199.39,211021,,,A,V*05
$GNGNS,141522.00,4838.31584,N,00859.01584,E,AAAN,19,0.66,490.0,47.5,,,V*1F
$GNGSA,A,3,30,05,13,07,20,09,02,14,,,,,1.13,0.66,0.91,1*05
$GNGSA,A,3,79,69,85,,,,,,,,,,1.13,0.66,0.91,2*05
$GNGSA,A,3,07,30,02,33,08,27,26,12,,,,,1.13,0.66,0.91,3*04
$GNVTG,199.39,T,,M,16.171,N,29.949,K,A*27
$SMGPS,0.7 m,+1.06 m/s,5.52 VRx,0.037 km,34 m,206.3 °,1:-- (  1.0 km/h),493.2 m*A9
$SMGPS2,-0.13 X,+0.07 Y,+0.86 Z,48 ENL,1084 us,38.7 kmh,954.72 hPa,953.68 hPa,+1.72 m/s*37
$GNRMC,141522.50,A,4838.31384,N,00859.01455,E,15.06,203.88,211021,,,A,V*07
$GNGNS,141522.50,4838.31384,N,00859.01455,E,AAAN,19,0.66,489.9,47.5,,,V*10
$GNGSA,A,3,30,05,13,07,20,09,02,14,,,,,1.13,0.66,0.91,1*05
$GNGSA,A,3,79,69,85,,,,,,,,,,1.13,0.66,0.91,2*05
$GNGSA,A,3,07,30,02,33,08,27,26,12,,,,,1.13,0.66,0.91,3*04
$GNVTG,203.88,T,,M,14.957,N,27.700,K,A*2E
$SMGPS,0.6 m,+0.91 m/s,5.55 VRx,0.040 km,37 m,205.7 °,1:-- (  1.0 km/h),493.8 m*AE
$SMGPS2,-0.14 X,-0.00 Y,+0.77 Z,26 ENL,1085 us,35.8 kmh,954.72 hPa,953.90 hPa,+0.71 m/s*31
$GNRMC,141523.00,A,4838.31211,N,00859.01290,E,14.69,211.83,211021,,,A,V*01
$GNGNS,141523.00,4838.31211,N,00859.01290,E,AAAN,19,0.66,490.4,47.5,,,V*13
$GNGSA,A,3,30,05,13,07,20,09,02,14,,,,,1.13,0.66,0.91,1*05
$GNGSA,A,3,79,69,85,,,,,,,,,,1.13,0.66,0.91,2*05
$GNGSA,A,3,07,30,02,33,08,27,26,12,,,,,1.13,0.66,0.91,3*04
$GNVTG,211.83,T,,M,14.614,N,27.066,K,A*29
$SMGPS,1.1 m,+0.76 m/s,5.54 VRx,0.044 km,41 m,205.4 °,1:-- (  1.0 km/h),493.8 m*A6
$SMGPS2,-0.14 X,-0.03 Y,+1.25 Z,22 ENL,1084 us,33.7 kmh,954.67 hPa,953.77 hPa,+0.01 m/s*32
$GNRMC,141523.50,A,4838.31061,N,00859.01092,E,14.29,219.21,211021,,,A,V*05
$GNGNS,141523.50,4838.31061,N,00859.01092,E,AAAN,19,0.66,489.4,47.5,,,V*1B
$GNGSA,A,3,30,05,13,07,20,09,02,14,,,,,1.13,0.66,0.91,1*05
$GNGSA,A,3,79,69,85,,,,,,,,,,1.13,0.66,0.91,2*05
$GNGSA,A,3,07,30,02,33,08,27,26,12,,,,,1.13,0.66,0.91,3*04
$GNVTG,219.21,T,,M,14.286,N,26.458,K,A*2E
$SMGPS,0.1 m,+0.24 m/s,5.55 VRx,0.048 km,45 m,205.9 °,1:-- (  1.0 km/h),493.5 m*A9
$SMGPS2,-0.09 X,-0.02 Y,+0.73 Z,41 ENL,1085 us,34.0 kmh,954.78 hPa,953.91 hPa,-0.05 m/s*3D
$GNRMC,141524.00,A,4838.30923,N,00859.00856,E,15.39,231.27,211021,,,A,V*04
$GNGNS,141524.00,4838.30923,N,00859.00856,E,AAAN,19,0.66,488.8,47.5,,,V*1B
$GNGSA,A,3,30,05,13,07,20,09,02,14,,,,,1.13,0.66,0.91,1*05
$GNGSA,A,3,79,69,85,,,,,,,,,,1.13,0.66,0.91,2*05
$GNGSA,A,3,07,30,02,33,08,27,26,12,,,,,1.13,0.66,0.91,3*04
$GNVTG,231.27,T,,M,15.379,N,28.483,K,A*2A
$SMGPS,-0.5 m,-0.33 m/s,5.55 VRx,0.052 km,49 m,206.9 °,1:-- (  1.0 km/h),493.0 m*81
$SMGPS2,-0.16 X,+0.03 Y,+0.92 Z,14 ENL,1084 us,38.3 kmh,954.85 hPa,953.76 hPa,+0.36 m/s*38
$GNRMC,141524.50,A,4838.30791,N,00859.00581,E,16.82,236.57,211021,,,A,V*02
$GNGNS,141524.50,4838.30791,N,00859.00581,E,AAAN,19,0.66,488.4,47.5,,,V*12
$GNGSA,A,3,30,05,13,07,20,09,02,14,,,,,1.13,0.66,0.91,1*05
$GNGSA,A,3,79,69,85,,,,,,,,,,1.13,0.66,0.91,2*05
$GNGSA,A,3,07,30,02,33,08,27,26,12,,,,,1.13,0.66,0.91,3*04
$GNVTG,236.57,T,,M,16.769,N,31.057,K,A*29
$SMGPS,-0.9 m,-0.66 m/s,5.54 VRx,0.056 km,53 m,208.5 °,1:1  (  3.7 km/h),492.4 m*90
$SMGPS2,-0.20 X,+0.04 Y,+1.35 Z,40 ENL,1085 us,41.7 kmh,954.90 hPa,953.78 hPa,+0.81 m/s*3A
$GNRMC,141525.00,A,4838.30679,N,00859.00272,E,16.95,246.52,211021,,,A,V*0E
$GNGNS,141525.00,4838.30679,N,00859.00272,E,AAAN,19,0.66,488.8,47.5,,,V*16
$GNGSA,A,3,30,05,13,07,20,09,02,14,,,,,1.13,0.66,0.91,1*05
$GNGSA,A,3,79,69,85,,,,,,,,,,1.13,0.66,0.91,2*05
$GNGSA,A,3,07,30,02,33,08,27,26,12,,,,,1.13,0.66,0.91,3*04
$GNVTG,246.52,T,,M,16.918,N,31.332,K,A*23
$SMGPS,-0.5 m,-0.50 m/s,5.54 VRx,0.060 km,56 m,210.7 °,1:1  (  3.7 km/h),492.1 m*97
$SMGPS2,-0.19 X,+0.00 Y,+1.26 Z,38 ENL,1084 us,40.6 kmh,954.85 hPa,953.85 hPa,+0.01 m/s*36
$GNRMC,141525.50,A,4838.30604,N,00858.99939,E,16.94,256.46,211021,,,A,V*01
$GNGNS,141525.50,4838.30604,N,00858.99939,E,AAAN,19,0.66,489.2,47.5,,,V*17
$GNGSA,A,3,30,05,13,07,20,09,02,14,,,,,1.13,0.66,0.91,1*05
$GNGSA,A,3,79,69,85,,,,,,,,,,1.13,0.66,0.91,2*05
$GNGSA,A,3,07,30,02,33,08,27,26,12,,,,,1.13,0.66,0.91,3*04
$GNVTG,256.46,T,,M,16.938,N,31.370,K,A*23
$SMGPS,-0.1 m,+0.08 m/s,5.55 VRx,0.065 km,60 m,212.3 °,1:1  (  3.7 km/h),492.4 m*9A
$SMGPS2,-0.16 X,-0.03 Y,+0.90 Z,29 ENL,1084 us,40.9 kmh,954.80 hPa,953.69 hPa,+0.16 m/s*3E
$GNRMC,141526.00,A,4838.30552,N,00858.99594,E,16.80,258.53,211021,,,A,V*03
$GNGNS,141526.00,4838.30552,N,00858.99594,E,AAAN,19,0.66,489.9,47.5,,,V*11
$GNGSA,A,3,30,05,13,07,20,09,02,14,,,,,1.13,0.66,0.91,1*05
$GNGSA,A,3,79,69,85,,,,,,,,,,1.13,0.66,0.91,2*05
$GNGSA,A,3,07,30,02,33,08,27,26,12,,,,,1.13,0.66,0.91,3*04
$GNVTG,258.53,T,,M,16.782,N,31.081,K,A*2B
$SMGPS,0.6 m,+0.38 m/s,5.53 VRx,0.069 km,63 m,215.0 °,1:-- (  3.7 km/h),492.8 m*A3
$SMGPS2,-0.18 X,-0.02 Y,+1.14 Z,56 ENL,1084 us,40.6 kmh,954.73 hPa,953.79 hPa,+0.60 m/s*37
$GNRMC,141526.50,A,4838.30506,N,00858.99251,E,16.42,259.39,211021,,,A,V*0A
$GNGNS,141526.50,4838.30506,N,00858.99251,E,AAAN,19,0.66,490.5,47.5,,,V*1F
$GNGSA,A,3,30,05,13,07,20,09,02,14,,,,,1.13,0.66,0.91,1*05
$GNGSA,A,3,79,69,85,,,,,,,,,,1.13,0.66,0.91,2*05
$GNGSA,A,3,07,30,02,33,08,27,26,12,,,,,1.13,0.66,0.91,3*04
$GNVTG,259.39,T,,M,16.350,N,30.281,K,A*2E
$SMGPS,1.2 m,+0.76 m/s,5.55 VRx,0.073 km,66 m,217.6 °,1:-- (  3.7 km/h),493.2 m*AB
$SMGPS2,-0.16 X,-0.02 Y,+1.01 Z,34 ENL,1084 us,38.7 kmh,954.66 hPa,953.70 hPa,+0.21 m/s*3F
$GNRMC,141527.00,A,4838.30469,N,00858.98917,E,15.69,262.70,211021,,,A,V*01
$GNGNS,141527.00,4838.30469,N,00858.98917,E,AAAN,19,0.66,491.0,47.5,,,V*1F
$GNGSA,A,3,30,05,13,07,20,09,02,14,,,,,1.13,0.66,0.91,1*05
$GNGSA,A,3,79,69,85,,,,,,,,,,1.13,0.66,0.91,2*05
$GNGSA,A,3,07,30,02,33,08,27,26,12,,,,,1.13,0.66,0.91,3*04
$GNVTG,262.70,T,,M,15.588,N,28.869,K,A*2E
$SMGPS,1.7 m,+0.91 m/s,5.54 VRx,0.077 km,70 m,219.9 °,1:-- (  3.7 km/h),494.0 m*A1
$SMGPS2,-0.13 X,+0.00 Y,+0.66 Z,24 ENL,1084 us,40.7 kmh,954.59 hPa,953.55 hPa,+1.09 m/s*30
$GNRMC,141527.50,A,4838.30431,N,00858.98601,E,15.60,256.08,211021,,,A,V*00
$GNGNS,141527.50,4838.30431,N,00858.98601,E,AAAN,19,0.66,491.3,47.5,,,V*1C
$GNGSA,A,3,30,05,13,07,20,09,02,14,,,,,1.13,0.66,0.91,1*05
$GNGSA,A,3,79,69,85,,,,,,,,,,1.13,0.66,0.91,2*05
$GNGSA,A,3,07,30,02,33,08,27,26,12,,,,,1.13,0.66,0.91,3*04
$GNVTG,256.08,T,,M,15.513,N,28.731,K,A*26
$SMGPS,2.0 m,+0.85 m/s,5.53 VRx,0.082 km,73 m,221.9 °,1:-- (  3.7 km/h),494.5 m*A0
$SMGPS2,-0.14 X,-0.03 Y,+0.79 Z,43 ENL,1084 us,39.6 kmh,954.57 hPa,953.57 hPa,+0.95 m/s*3A
$GNRMC,141528.00,A,4838.30363,N,00858.98282,E,16.30,248.75,211021,,,A,V*06
$GNGNS,141528.00,4838.30363,N,00858.98282,E,AAAN,19,0.66,490.9,47.5,,,V*12
$GNGSA,A,3,30,05,13,07,20,09,02,14,,,,,1.13,0.66,0.91,1*05
$GNGSA,A,3,79,69,85,,,,,,,,,,1.13,0.66,0.91,2*05
$GNGSA,A,3,07,30,02,33,08,27,26,12,,,,,1.13,0.66,0.91,3*04
$GNVTG,248.75,T,,M,16.262,N,30.117,K,A*2A
$SMGPS,1.6 m,+0.56 m/s,5.53 VRx,0.086 km,76 m,223.7 °,1:-- (  3.7 km/h),494.2 m*A1
$SMGPS2,-0.18 X,-0.04 Y,+1.34 Z,82 ENL,1085 us,41.0 kmh,954.61 hPa,953.55 hPa,+0.76 m/s*36
$GNRMC,141528.50,A,4838.30277,N,00858.97975,E,16.05,244.99,211021,,,A,V*03
$GNGNS,141528.50,4838.30277,N,00858.97975,E,AAAN,19,0.66,491.1,47.5,,,V*16
$GNGSA,A,3,30,05,13,07,20,09,02,14,,,,,1.13,0.66,0.91,1*05
$GNGSA,A,3,79,69,85,,,,,,,,,,1.13,0.66,0.91,2*05
$GNGSA,A,3,07,30,02,33,08,27,26,12,,,,,1.13,0.66,0.91,3*04
$GNVTG,244.99,T,,M,16.045,N,29.715,K,A*2F
$SMGPS,1.8 m,+0.27 m/s,5.55 VRx,0.090 km,80 m,225.1 °,1:-- (  3.7 km/h),494.2 m*A1
$SMGPS2,-0.17 X,+0.04 Y,+1.05 Z,40 ENL,1085 us,41.3 kmh,954.58 hPa,953.46 hPa,+0.55 m/s*39
$GNRMC,141529.00,A,4838.30172,N,00858.97684,E,15.85,238.77,211021,,,A,V*00
$GNGNS,141529.00,4838.30172,N,00858.97684,E,AAAN,19,0.66,491.5,47.5,,,V*11
$GNGSA,A,3,30,05,13,07,20,09,02,14,,,,,1.13,0.66,0.91,1*05
$GNGSA,A,3,79,69,85,,,,,,,,,,1.13,0.66,0.91,2*05
$GNGSA,A,3,07,30,02,33,08,27,26,12,,,,,1.13,0.66,0.91,3*04
$GNVTG,238.77,T,,M,15.832,N,29.320,K,A*2D
$SMGPS,2.2 m,+0.41 m/s,5.55 VRx,0.094 km,84 m,226.1 °,1:-- (  3.7 km/h),494.7 m*AE
$SMGPS2,-0.17 X,+0.03 Y,+1.10 Z,28 ENL,1084 us,42.2 kmh,954.54 hPa,953.57 hPa,+0.94 m/s*36
$GNRMC,141529.50,A,4838.30053,N,00858.97412,E,15.40,236.27,211021,,,A,V*08
$GNGNS,141529.50,4838.30053,N,00858.97412,E,AAAN,19,0.66,492.1,47.5,,,V*1C
$GNGSA,A,3,30,05,13,07,20,09,02,14,,,,,1.13,0.66,0.91,1*05
$GNGSA,A,3,79,69,85,,,,,,,,,,1.13,0.66,0.91,2*05
$GNGSA,A,3,07,30,02,33,08,27,26,12,,,,,1.13,0.66,0.91,3*04
$GNVTG,236.27,T,,M,15.354,N,28.435,K,A*2F
$SMGPS,2.8 m,+0.62 m/s,5.55 VRx,0.098 km,88 m,226.9 °,1:-- (  3.7 km/h),495.3 m*A8
$SMGPS2,-0.15 X,-0.01 Y,+0.80 Z,27 ENL,1085 us,38.3 kmh,954.47 hPa,953.63 hPa,-0.18 m/s*3D
$GNRMC,141530.00,A,4838.29930,N,00858.97157,E,14.96,234.79,211021,,,A,V*06
$GNGNS,141530.00,4838.29930,N,00858.97157,E,AAAN,18,0.67,492.1,47.5,,,V*11
$GNGSA,A,3,30,05,13,07,20,09,02,14,,,,,1.15,0.67,0.93,1*00
$GNGSA,A,3,79,69,85,,,,,,,,,,1.13,0.66,0.91,2*05
$GNGSA,A,3,07,30,02,33,08,27,26,12,,,,,1.13,0.66,0.91,3*04
$GNVTG,234.79,T,,M,14.916,N,27.625,K,A*27
$SMGPS,2.8 m,+0.58 m/s,5.55 VRx,0.102 km,92 m,227.2 °,1:-- (  3.7 km/h),495.7 m*A6
$SMGPS2,-0.15 X,+0.02 Y,+0.92 Z,11 ENL,1084 us,37.6 kmh,954.47 hPa,953.56 hPa,-0.17 m/s*3C
$GNRMC,141530.50,A,4838.29817,N,00858.96904,E,14.26,236.74,211021,,,A,V*0C
$GNGNS,141530.50,4838.29817,N,00858.96904,E,AAAN,19,0.66,492.2,47.5,,,V*1C
$GNGSA,A,3,30,05,13,07,20,09,02,14,,,,,1.13,0.66,0.91,1*05
$GNGSA,A,3,79,69,,,,,,,,,,,1.15,0.67,0.93,2*0D
$GNGSA,A,3,07,30,02,33,08,27,26,12,,,,,1.15,0.67,0.93,3*01
$GNVTG,236.74,T,,M,14.244,N,26.381,K,A*2E
$SMGPS,2.9 m,+0.39 m/s,5.55 VRx,0.106 km,96 m,227.5 °,1:-- (  3.7 km/h),495.7 m*A7
$SMGPS2,-0.14 X,+0.03 Y,+0.97 Z,20 ENL,1084 us,37.1 kmh,954.46 hPa,953.57 hPa,-0.04 m/s*3E
$GNRMC,141531.00,A,4838.29718,N,00858.96644,E,14.35,239.44,211021,,,A,V*0D
$GNGNS,141531.00,4838.29718,N,00858.96644,E,AAAN,19,0.66,492.2,47.5,,,V*13
$GNGSA,A,3,30,05,13,07,20,09,02,14,,,,,1.13,0.66,0.91,1*05
$GNGSA,A,3,79,69,85,,,,,,,,,,1.13,0.66,0.91,2*05
$GNGSA,A,3,07,30,02,33,08,27,26,12,,,,,1.13,0.66,0.91,3*04
$GNVTG,239.44,T,,M,14.335,N,26.549,K,A*27
$SMGPS,2.9 m,+0.31 m/s,5.55 VRx,0.109 km,99 m,228.0 °,1:-- (  3.7 km/h),495.7 m*A5
$SMGPS2,-0.13 X,+0.02 Y,+0.96 Z,23 ENL,1084 us,36.1 kmh,954.46 hPa,953.61 hPa,-0.16 m/s*3D
$GNRMC,141531.50,A,4838.29636,N,00858.96370,E,14.29,245.32,211021,,,A,V*00
$GNGNS,141531.50,4838.29636,N,00858.96370,E,AAAN,19,0.66,492.2,47.5,,,V*19
$GNGSA,A,3,30,05,13,07,20,09,02,14,,,,,1.13,0.66,0.91,1*05
$GNGSA,A,3,79,69,85,,,,,,,,,,1.13,0.66,0.91,2*05
$GNGSA,A,3,07,30,02,33,08,27,26,12,,,,,1.13,0.66,0.91,3*04
$GNVTG,245.32,T,,M,14.289,N,26.462,K,A*23
$SMGPS,2.9 m,+0.16 m/s,5.55 VRx,0.113 km,103 m,228.5 °,1:-- (  3.7 km/h),495.6 m*9D
$SMGPS2,-0.15 X,-0.00 Y,+1.05 Z,31 ENL,1085 us,34.9 kmh,954.46 hPa,953.61 hPa,-0.40 m/s*3F
$GNRMC,141532.00,A,4838.29584,N,00858.96083,E,14.51,252.31,211021,,,A,V*09
$GNGNS,141532.00,4838.29584,N,00858.96083,E,AAAN,19,0.66,492.2,47.5,,,V*1A
$GNGSA,A,3,30,05,13,07,20,09,02,14,,,,,1.13,0.66,0.91,1*05
$GNGSA,A,3,79,69,85,,,,,,,,,,1.13,0.66,0.91,2*05
$GNGSA,A,3,07,30,02,33,08,27,26,12,,,,,1.13,0.66,0.91,3*04
$GNVTG,252.31,T,,M,14.504,N,26.862,K,A*28
$SMGPS,2.9 m,+0.13 m/s,5.55 VRx,0.117 km,106 m,228.8 °,1:-- (  3.7 km/h),495.6 m*94
$SMGPS2,-0.15 X,-0.02 Y,+1.02 Z,3 ENL,1084 us,35.2 kmh,954.46 hPa,953.56 hPa,-0.13 m/s*02
$GNRMC,141532.50,A,4838.29553,N,00858.95781,E,14.73,259.26,211021,,,A,V*0D
$GNGNS,141532.50,4838.29553,N,00858.95781,E,AAAN,18,0.67,492.3,47.5,,,V*12
$GNGSA,A,3,30,05,13,07,20,09,02,14,,,,,1.15,0.67,0.93,1*00
$GNGSA,A,3,79,69,85,,,,,,,,,,1.13,0.66,0.91,2*05
$GNGSA,A,3,07,30,02,33,08,27,26,12,,,,,1.13,0.66,0.91,3*04
$GNVTG,259.26,T,,M,14.731,N,27.282,K,A*24
$SMGPS,3.0 m,+0.12 m/s,5.54 VRx,0.121 km,110 m,229.7 °,1:-- (  3.7 km/h),495.8 m*9E
$SMGPS2,-0.16 X,-0.02 Y,+1.14 Z,17 ENL,1084 us,35.4 kmh,954.44 hPa,953.58 hPa,+0.04 m/s*39
$GNRMC,141533.00,A,4838.29543,N,00858.95475,E,14.68,265.02,211021,,,A,V*03
$GNGNS,141533.00,4838.29543,N,00858.95475,E,AAAN,19,0.66,492.7,47.5,,,V*1B
$GNGSA,A,3,30,05,13,07,20,09,02,14,,,,,1.13,0.66,0.91,1*05
$GNGSA,A,3,79,69,,,,,,,,,,,1.15,0.67,0.93,2*0D
$GNGSA,A,3,07,30,02,33,08,27,26,12,,,,,1.15,0.67,0.93,3*01
$GNVTG,265.02,T,,M,14.673,N,27.175,K,A*21
$SMGPS,3.4 m,+0.25 m/s,5.54 VRx,0.124 km,113 m,230.6 °,1:-- (  3.7 km/h),496.0 m*9A
$SMGPS2,-0.14 X,-0.02 Y,+0.93 Z,32 ENL,1085 us,34.3 kmh,954.40 hPa,953.61 hPa,-0.00 m/s*39
$GNRMC,141533.50,A,4838.29526,N,00858.95169,E,14.83,263.22,211021,,,A,V*0C
$GNGNS,141533.50,4838.29526,N,00858.95169,E,AAAN,19,0.66,493.1,47.5,,,V*12
$GNGSA,A,3,30,05,13,07,20,09,02,14,,,,,1.13,0.66,0.91,1*05
$GNGSA,A,3,79,69,85,,,,,,,,,,1.13,0.66,0.91,2*05
$GNGSA,A,3,07,30,02,33,08,27,26,12,,,,,1.13,0.66,0.91,3*04
$GNVTG,263.22,T,,M,14.808,N,27.425,K,A*27
$SMGPS,3.8 m,+0.45 m/s,5.55 VRx,0.128 km,116 m,231.8 °,1:-- (  3.7 km/h),496.5 m*92
$SMGPS2,-0.13 X,-0.02 Y,+1.07 Z,42 ENL,1085 us,32.7 kmh,954.36 hPa,953.54 hPa,-0.11 m/s*30
$GNRMC,141534.00,A,4838.29489,N,00858.94867,E,14.99,258.81,211021,,,A,V*06
$GNGNS,141534.00,4838.29489,N,00858.94867,E,AAAN,19,0.66,493.3,47.5,,,V*10
$GNGSA,A,3,30,05,13,07,20,09,02,14,,,,,1.13,0.66,0.91,1*05
$GNGSA,A,3,79,69,85,,,,,,,,,,1.13,0.66,0.91,2*05
$GNGSA,A,3,07,30,02,33,08,27,26,12,,,,,1.13,0.66,0.91,3*04
$GNVTG,258.81,T,,M,14.949,N,27.685,K,A*2A
$SMGPS,4.0 m,+0.54 m/s,5.55 VRx,0.132 km,119 m,232.9 °,1:-- (  3.7 km/h),496.8 m*96
$SMGPS2,-0.15 X,-0.02 Y,+0.99 Z,37 ENL,1085 us,35.5 kmh,954.33 hPa,953.40 hPa,+0.81 m/s*38
$GNRMC,141534.50,A,4838.29432,N,00858.94564,E,15.13,255.57,211021,,,A,V*08
$GNGNS,141534.50,4838.29432,N,00858.94564,E,AAAN,19,0.66,493.3,47.5,,,V*1B
$GNGSA,A,3,30,05,13,07,20,09,02,14,,,,,1.13,0.66,0.91,1*05
$GNGSA,A,3,79,69,85,,,,,,,,,,1.13,0.66,0.91,2*05
$GNGSA,A,3,07,30,02,33,08,27,26,12,,,,,1.13,0.66,0.91,3*04
$GNVTG,255.57,T,,M,15.096,N,27.958,K,A*29
$SMGPS,4.0 m,+0.50 m/s,5.55 VRx,0.136 km,122 m,233.6 °,1:-- (  3.7 km/h),497.2 m*9B
$SMGPS2,-0.12 X,-0.01 Y,+0.62 Z,21 ENL,1085 us,36.2 kmh,954.34 hPa,953.42 hPa,+0.94 m/s*3A
$GNRMC,141535.00,A,4838.29356,N,00858.94263,E,15.82,244.79,211021,,,A,V*0D
$GNGNS,141535.00,4838.29356,N,00858.94263,E,AAAN,19,0.66,493.2,47.5,,,V*1B
$GNGSA,A,3,30,05,13,07,20,09,02,14,,,,,1.13,0.66,0.91,1*05
$GNGSA,A,3,79,69,85,,,,,,,,,,1.13,0.66,0.91,2*05
$GNGSA,A,3,07,30,02,33,08,27,26,12,,,,,1.13,0.66,0.91,3*04
$GNVTG,244.79,T,,M,15.814,N,29.287,K,A*20
$SMGPS,3.9 m,+0.20 m/s,5.54 VRx,0.139 km,126 m,234.3 °,1:-- (  3.7 km/h),497.0 m*98
$SMGPS2,-0.15 X,-0.00 Y,+1.42 Z,30 ENL,1084 us,36.6 kmh,954.34 hPa,953.52 hPa,+0.47 m/s*35
$GNRMC,141535.50,A,4838.29243,N,00858.93984,E,16.16,232.31,211021,,,A,V*0B
$GNGNS,141535.50,4838.29243,N,00858.93984,E,AAAN,19,0.66,493.7,47.5,,,V*1B
$GNGSA,A,3,30,05,13,07,20,09,02,14,,,,,1.13,0.66,0.91,1*05
$GNGSA,A,3,79,69,85,,,,,,,,,,1.13,0.66,0.91,2*05
$GNGSA,A,3,07,30,02,33,08,27,26,12,,,,,1.13,0.66,0.91,3*04
$GNVTG,232.31,T,,M,16.157,N,29.922,K,A*24
$SMGPS,4.4 m,+0.24 m/s,5.54 VRx,0.143 km,130 m,234.6 °,1:-- (  3.7 km/h),497.0 m*99
$SMGPS2,-0.16 X,-0.05 Y,+0.98 Z,51 ENL,1084 us,38.1 kmh,954.29 hPa,953.29 hPa,+0.56 m/s*3B
$GNRMC,141536.00,A,4838.29094,N,00858.93733,E,16.29,224.04,211021,,,A,V*0A
$GNGNS,141536.00,4838.29094,N,00858.93733,E,AAAN,19,0.66,493.8,47.5,,,V*18
$GNGSA,A,3,30,05,13,07,20,09,02,14,,,,,1.13,0.66,0.91,1*05
$GNGSA,A,3,79,69,85,,,,,,,,,,1.13,0.66,0.91,2*05
$GNGSA,A,3,07,30,02,33,08,27,26,12,,,,,1.13,0.66,0.91,3*04
$GNVTG,224.04,T,,M,16.278,N,30.148,K,A*27
$SMGPS,4.5 m,+0.26 m/s,5.54 VRx,0.148 km,134 m,234.8 °,1:-- (  3.7 km/h),497.3 m*98
$SMGPS2,-0.15 X,+0.02 Y,+0.92 Z,37 ENL,1084 us,37.8 kmh,954.27 hPa,953.35 hPa,+0.61 m/s*32
$GNRMC,141536.50,A,4838.28922,N,00858.93508,E,16.43,218.22,211021,,,A,V*07
$GNGNS,141536.50,4838.28922,N,00858.93508,E,AAAN,19,0.66,494.3,47.5,,,V*1E
$GNGSA,A,3,30,05,13,07,20,09,02,14,,,,,1.13,0.66,0.91,1*05
$GNGSA,A,3,79,69,85,,,,,,,,,,1.13,0.66,0.91,2*05
$GNGSA,A,3,07,30,02,33,08,27,26,12,,,,,1.13,0.66,0.91,3*04
$GNVTG,218.22,T,,M,16.411,N,30.393,K,A*21
$SMGPS,5.0 m,+0.37 m/s,5.55 VRx,0.152 km,138 m,234.6 °,1:-- (  3.7 km/h),497.6 m*91
$SMGPS2,-0.17 X,+0.06 Y,+1.19 Z,23 ENL,1085 us,39.7 kmh,954.22 hPa,953.20 hPa,+0.97 m/s*3B
$GNRMC,141537.00,A,4838.28738,N,00858.93304,E,16.38,215.92,211021,,,A,V*06
$GNGNS,141537.00,4838.28738,N,00858.93304,E,AAAN,19,0.66,494.4,47.5,,,V*12
$GNGSA,A,3,30,05,13,07,20,09,02,14,,,,,1.13,0.66,0.91,1*05
$GNGSA,A,3,79,69,85,,,,,,,,,,1.13,0.66,0.91,2*05
$GNGSA,A,3,07,30,02,33,08,27,26,12,,,,,1.13,0.66,0.91,3*04
$GNVTG,215.92,T,,M,16.347,N,30.274,K,A*2B
$SMGPS,5.1 m,+0.55 m/s,5.55 VRx,0.156 km,142 m,234.0 °,1:-- (  3.7 km/h),498.0 m*92
$SMGPS2,-0.17 X,+0.04 Y,+0.91 Z,19 ENL,1084 us,41.7 kmh,954.20 hPa,953.18 hPa,+1.34 m/s*3E
$GNRMC,141537.50,A,4838.28554,N,00858.93101,E,16.05,218.45,211021,,,A,V*05
$GNGNS,141537.50,4838.28554,N,00858.93101,E,AAAN,19,0.66,494.7,47.5,,,V*1B
$GNGSA,A,3,30,05,13,07,20,09,02,14,,,,,1.13,0.66,0.91,1*05
$GNGSA,A,3,79,69,85,,,,,,,,,,1.13,0.66,0.91,2*05
$GNGSA,A,3,07,30,02,33,08,27,26,12,,,,,1.13,0.66,0.91,3*04
$GNVTG,218.45,T,,M,16.013,N,29.656,K,A*22
$SMGPS,5.4 m,+0.56 m/s,5.55 VRx,0.160 km,146 m,233.8 °,1:-- (  3.7 km/h),498.4 m*9E
$SMGPS2,-0.17 X,+0.01 Y,+0.96 Z,34 ENL,1084 us,40.3 kmh,954.17 hPa,953.13 hPa,+0.54 m/s*3E
$GNRMC,141538.00,A,4838.28395,N,00858.92887,E,14.30,222.29,211021,,,A,V*05
$GNGNS,141538.00,4838.28395,N,00858.92887,E,AAAN,19,0.66,495.1,47.5,,,V*1B
$GNGSA,A,3,30,05,13,07,20,09,02,14,,,,,1.13,0.66,0.91,1*05
$GNGSA,A,3,79,69,85,,,,,,,,,,1.13,0.66,0.91,2*05
$GNGSA,A,3,07,30,02,33,08,27,26,12,,,,,1.13,0.66,0.91,3*04
$GNVTG,222.29,T,,M,14.257,N,26.404,K,A*2B
$SMGPS,5.8 m,+0.58 m/s,5.53 VRx,0.164 km,150 m,233.3 °,1:-- (  3.7 km/h),498.7 m*91
$SMGPS2,-0.16 X,+0.04 Y,+0.95 Z,27 ENL,1084 us,39.9 kmh,954.13 hPa,953.17 hPa,+0.47 m/s*3D
$GNRMC,141538.50,A,4838.28283,N,00858.92659,E,12.98,230.95,211021,,,A,V*0B
$GNGNS,141538.50,4838.28283,N,00858.92659,E,AAAN,19,0.66,495.2,47.5,,,V*16
$GNGSA,A,3,30,05,13,07,20,09,02,14,,,,,1.13,0.66,0.91,1*05
$GNGSA,A,3,79,69,85,,,,,,,,,,1.13,0.66,0.91,2*05
$GNGSA,A,3,07,30,02,33,08,27,26,12,,,,,1.13,0.66,0.91,3*04
$GNVTG,230.95,T,,M,12.941,N,23.966,K,A*29
$SMGPS,5.9 m,+0.54 m/s,5.55 VRx,0.168 km,154 m,233.0 °,1:-- (  3.7 km/h),498.9 m*9F
$SMGPS2,-0.15 X,+0.03 Y,+1.04 Z,15 ENL,1084 us,37.9 kmh,954.11 hPa,953.24 hPa,-0.14 m/s*3D
$GNRMC,141539.00,A,4838.28202,N,00858.92416,E,12.71,245.05,211021,,,A,V*03
$GNGNS,141539.00,4838.28202,N,00858.92416,E,AAAN,18,0.67,495.2,47.5,,,V*12
$GNGSA,A,3,30,05,13,07,20,09,02,14,,,,,1.13,0.67,0.92,1*07
$GNGSA,A,3,79,69,85,,,,,,,,,,1.13,0.66,0.91,2*05
$GNGSA,A,3,07,30,02,33,08,27,26,12,,,,,1.13,0.66,0.91,3*04
$GNVTG,245.05,T,,M,12.686,N,23.494,K,A*26
$SMGPS,5.9 m,+0.42 m/s,5.54 VRx,0.172 km,158 m,232.9 °,1:-- (  3.7 km/h),499.1 m*9F
$SMGPS2,-0.16 X,+0.02 Y,+1.15 Z,41 ENL,1085 us,36.8 kmh,954.12 hPa,953.08 hPa,-0.23 m/s*36
$GNRMC,141539.50,A,4838.28199,N,00858.92156,E,12.91,262.12,211021,,,A,V*0B
$GNGNS,141539.50,4838.28199,N,00858.92156,E,AAAN,19,0.66,495.6,47.5,,,V*13
$GNGSA,A,3,30,05,13,07,20,09,02,14,,,,,1.13,0.66,0.91,1*05
$GNGSA,A,3,79,69,85,,,,,,,,,,1.13,0.67,0.92,2*07
$GNGSA,A,3,07,02,33,08,27,26,12,,,,,,1.13,0.67,0.92,3*05
$GNVTG,262.12,T,,M,12.896,N,23.884,K,A*27
$SMGPS,6.3 m,+0.34 m/s,5.55 VRx,0.175 km,161 m,233.3 °,1:-- (  3.7 km/h),499.3 m*92
$SMGPS2,-0.16 X,+0.02 Y,+1.14 Z,20 ENL,1084 us,36.7 kmh,954.07 hPa,953.14 hPa,+0.12 m/s*33
$GNRMC,141540.00,A,4838.28268,N,00858.91893,E,14.04,285.44,211021,,,A,V*0E
$GNGNS,141540.00,4838.28268,N,00858.91893,E,AAAN,19,0.66,495.7,47.5,,,V*17
$GNGSA,A,3,30,05,13,07,20,09,02,14,,,,,1.13,0.66,0.91,1*05
$GNGSA,A,3,79,69,85,,,,,,,,,,1.13,0.66,0.91,2*05
$GNGSA,A,3,07,30,02,33,08,27,26,12,,,,,1.13,0.66,0.91,3*04
$GNVTG,285.44,T,,M,14.017,N,25.960,K,A*27
$SMGPS,6.4 m,+0.44 m/s,5.54 VRx,0.178 km,163 m,233.9 °,1:-- (  3.7 km/h),499.5 m*90
$SMGPS2,-0.14 X,+0.00 Y,+0.95 Z,34 ENL,1084 us,35.3 kmh,954.06 hPa,953.22 hPa,-0.03 m/s*3B
$GNRMC,141540.50,A,4838.28390,N,00858.91642,E,15.78,310.68,211021,,,A,V*06
$GNGNS,141540.50,4838.28390,N,00858.91642,E,AAAN,19,0.66,495.5,47.5,,,V*14
$GNGSA,A,3,30,05,13,07,20,09,02,14,,,,,1.13,0.66,0.91,1*05
$GNGSA,A,3,79,69,85,,,,,,,,,,1.13,0.66,0.91,2*05
$GNGSA,A,3,07,30,02,33,08,27,26,12,,,,,1.13,0.66,0.91,3*04
$GNVTG,310.68,T,,M,15.770,N,29.206,K,A*24
$SMGPS,6.2 m,+0.27 m/s,5.55 VRx,0.181 km,165 m,234.8 °,1:-- (  3.7 km/h),499.6 m*97
$SMGPS2,-0.14 X,-0.03 Y,+0.86 Z,24 ENL,1084 us,35.5 kmh,954.09 hPa,953.21 hPa,-0.01 m/s*35
$GNRMC,141541.00,A,4838.28531,N,00858.91393,E,15.56,309.22,211021,,,A,V*0C
$GNGNS,141541.00,4838.28531,N,00858.91393,E,AAAN,19,0.66,495.1,47.5,,,V*10
$GNGSA,A,3,30,05,13,07,20,09,02,14,,,,,1.13,0.66,0.91,1*05
$GNGSA,A,3,79,69,85,,,,,,,,,,1.13,0.66,0.91,2*05
$GNGSA,A,3,07,30,02,33,08,27,26,12,,,,,1.13,0.66,0.91,3*04
$GNVTG,309.22,T,,M,15.564,N,28.824,K,A*2E
$SMGPS,5.8 m,-0.08 m/s,5.54 VRx,0.185 km,167 m,235.9 °,1:-- (  3.7 km/h),499.2 m*96
$SMGPS2,-0.14 X,-0.06 Y,+1.05 Z,40 ENL,1084 us,35.8 kmh,954.13 hPa,953.23 hPa,-0.19 m/s*35
$GNRMC,141541.50,A,4838.28646,N,00858.91135,E,14.33,303.35,211021,,,A,V*0A
$GNGNS,141541.50,4838.28646,N,00858.91135,E,AAAN,19,0.66,495.0,47.5,,,V*19
$GNGSA,A,3,30,05,13,07,20,09,02,14,,,,,1.13,0.66,0.91,1*05
$GNGSA,A,3,79,69,85,,,,,,,,,,1.13,0.66,0.91,2*05
$GNGSA,A,3,07,30,02,33,08,27,26,12,,,,,1.13,0.66,0.91,3*04
$GNVTG,303.35,T,,M,14.326,N,26.531,K,A*24
$SMGPS,5.7 m,-0.20 m/s,5.55 VRx,0.189 km,168 m,237.2 °,1:-- (  3.7 km/h),498.7 m*9C
$SMGPS2,-0.15 X,-0.08 Y,+1.09 Z,59 ENL,1085 us,36.1 kmh,954.14 hPa,953.24 hPa,-0.19 m/s*35
$GNRMC,141542.00,A,4838.28701,N,00858.90872,E,12.47,289.20,211021,,,A,V*07
$GNGNS,141542.00,4838.28701,N,00858.90872,E,AAAN,19,0.66,494.5,47.5,,,V*12
$GNGSA,A,3,30,05,13,07,20,09,02,14,,,,,1.13,0.66,0.91,1*05
$GNGSA,A,3,79,69,85,,,,,,,,,,1.13,0.66,0.91,2*05
$GNGSA,A,3,07,30,02,33,08,27,26,12,,,,,1.13,0.66,0.91,3*04
$GNVTG,289.20,T,,M,12.448,N,23.055,K,A*28
$SMGPS,5.2 m,-0.40 m/s,5.55 VRx,0.193 km,169 m,238.6 °,1:-- (  3.7 km/h),498.5 m*9C
$SMGPS2,-0.17 X,-0.02 Y,+1.16 Z,24 ENL,1084 us,35.9 kmh,954.20 hPa,953.27 hPa,-0.40 m/s*3B
$GNRMC,141542.50,A,4838.28680,N,00858.90629,E,11.44,267.35,211021,,,A,V*0E
$GNGNS,141542.50,4838.28680,N,00858.90629,E,AAAN,19,0.66,494.5,47.5,,,V*1F
$GNGSA,A,3,30,05,13,07,20,09,02,14,,,,,1.13,0.66,0.91,1*05
$GNGSA,A,3,79,69,85,,,,,,,,,,1.13,0.66,0.91,2*05
$GNGSA,A,3,07,30,02,33,08,27,26,12,,,,,1.13,0.66,0.91,3*04
$GNVTG,267.35,T,,M,11.404,N,21.120,K,A*26
$SMGPS,5.2 m,-0.45 m/s,5.55 VRx,0.197 km,171 m,239.5 °,1:1  (  6.2 km/h),498.3 m*81
$SMGPS2,-0.18 X,+0.04 Y,+1.25 Z,32 ENL,1084 us,39.6 kmh,954.20 hPa,953.01 hPa,+0.28 m/s*3C
$GNRMC,141543.00,A,4838.28580,N,00858.90448,E,11.81,234.50,211021,,,A,V*00
$GNGNS,141543.00,4838.28580,N,00858.90448,E,AAAN,19,0.66,494.3,47.5,,,V*1B
$GNGSA,A,3,30,05,13,07,20,09,02,14,,,,,1.13,0.66,0.91,1*05
$GNGSA,A,3,79,69,85,,,,,,,,,,1.13,0.66,0.91,2*05
$GNGSA,A,3,07,30,02,33,08,27,26,12,,,,,1.13,0.66,0.91,3*04
$GNVTG,234.50,T,,M,11.791,N,21.836,K,A*22
$SMGPS,5.0 m,-0.34 m/s,5.55 VRx,0.200 km,174 m,239.7 °,1:1  (  6.2 km/h),498.2 m*8E
$SMGPS2,-0.16 X,+0.02 Y,+1.18 Z,34 ENL,1085 us,39.0 kmh,954.22 hPa,953.28 hPa,+0.26 m/s*3C
$GNRMC,141543.50,A,4838.28415,N,00858.90361,E,13.79,202.89,211021,,,A,V*00
$GNGNS,141543.50,4838.28415,N,00858.90361,E,AAAN,19,0.66,493.8,47.5,,,V*13
$GNGSA,A,3,30,05,13,07,20,09,02,14,,,,,1.13,0.66,0.91,1*05
$GNGSA,A,3,79,69,85,,,,,,,,,,1.13,0.66,0.91,2*05
$GNGSA,A,3,07,30,02,33,08,27,26,12,,,,,1.13,0.66,0.91,3*04
$GNVTG,202.89,T,,M,13.770,N,25.502,K,A*20
$SMGPS,4.5 m,-0.42 m/s,5.54 VRx,0.202 km,177 m,239.6 °,1:1  (  6.2 km/h),498.1 m*89
$SMGPS2,-0.16 X,-0.01 Y,+1.10 Z,18 ENL,1084 us,35.2 kmh,954.27 hPa,953.44 hPa,-1.05 m/s*39
$GNRMC,141544.00,A,4838.28198,N,00858.90396,E,17.81,163.27,211021,,,A,V*09
$GNGNS,141544.00,4838.28198,N,00858.90396,E,AAAN,19,0.66,493.4,47.5,,,V*15
$GNGSA,A,3,30,05,13,07,20,09,02,14,,,,,1.13,0.66,0.91,1*05
$GNGSA,A,3,79,69,85,,,,,,,,,,1.13,0.66,0.91,2*05
$GNGSA,A,3,07,30,02,33,08,27,26,12,,,,,1.13,0.66,0.91,3*04
$GNVTG,163.27,T,,M,17.766,N,32.903,K,A*28
$SMGPS,4.1 m,-0.61 m/s,5.55 VRx,0.206 km,180 m,239.0 °,1:1  (  6.2 km/h),497.7 m*8E
$SMGPS2,-0.17 X,+0.01 Y,+1.29 Z,8 ENL,1084 us,35.2 kmh,954.32 hPa,953.41 hPa,-1.15 m/s*05
$GNRMC,141544.50,A,4838.27951,N,00858.90567,E,21.32,147.85,211021,,,A,V*05
$GNGNS,141544.50,4838.27951,N,00858.90567,E,AAAN,19,0.66,493.2,47.5,,,V*1C
$GNGSA,A,3,30,05,13,07,20,09,02,14,,,,,1.13,0.66,0.91,1*05
$GNGSA,A,3,79,69,85,,,,,,,,,,1.13,0.66,0.91,2*05
$GNGSA,A,3,07,30,02,33,08,27,26,12,,,,,1.13,0.66,0.91,3*04
$GNVTG,147.85,T,,M,21.284,N,39.418,K,A*26
$SMGPS,3.9 m,-0.63 m/s,5.55 VRx,0.210 km,182 m,237.6 °,1:2  (  8.0 km/h),497.1 m*87
$SMGPS2,-0.15 X,+0.06 Y,+1.19 Z,31 ENL,1084 us,39.4 kmh,954.35 hPa,953.21 hPa,+0.17 m/s*37
$GNRMC,141545.00,A,4838.27707,N,00858.90873,E,24.78,132.73,211021,,,A,V*04
$GNGNS,141545.00,4838.27707,N,00858.90873,E,AAAN,19,0.66,492.7,47.5,,,V*19
$GNGSA,A,3,30,05,13,07,20,09,02,14,,,,,1.13,0.66,0.91,1*05
$GNGSA,A,3,79,69,85,,,,,,,,,,1.13,0.66,0.91,2*05
$GNGSA,A,3,07,30,02,33,08,27,26,12,,,,,1.13,0.66,0.91,3*04
$GNVTG,132.73,T,,M,24.751,N,45.838,K,A*20
$SMGPS,3.4 m,-0.64 m/s,5.55 VRx,0.215 km,182 m,236.1 °,1:2  (  8.0 km/h),496.6 m*88
$SMGPS2,-0.16 X,+0.05 Y,+1.36 Z,33 ENL,1084 us,40.8 kmh,954.40 hPa,953.43 hPa,+0.33 m/s*3A
$GNRMC,141545.50,A,4838.27489,N,00858.91297,E,26.99,121.85,211021,,,A,V*03
$GNGNS,141545.50,4838.27489,N,00858.91297,E,AAAN,19,0.66,492.8,47.5,,,V*17
$GNGSA,A,3,30,05,13,07,20,09,02,14,,,,,1.13,0.66,0.91,1*05
$GNGSA,A,3,79,69,85,,,,,,,,,,1.13,0.66,0.91,2*05
$GNGSA,A,3,07,30,02,33,08,27,26,12,,,,,1.13,0.66,0.91,3*04
$GNVTG,121.85,T,,M,26.963,N,49.936,K,A*25
$SMGPS,3.5 m,-0.58 m/s,5.55 VRx,0.221 km,182 m,234.2 °,1:4  ( 11.1 km/h),496.4 m*9D
$SMGPS2,-0.17 X,-0.01 Y,+1.23 Z,36 ENL,1085 us,37.4 kmh,954.39 hPa,953.47 hPa,-1.05 m/s*3D
$GNRMC,141546.00,A,4838.27325,N,00858.91817,E,28.85,108.22,211021,,,A,V*03
$GNGNS,141546.00,4838.27325,N,00858.91817,E,AAAN,19,0.66,493.4,47.5,,,V*1F
$GNGSA,A,3,30,05,13,07,20,09,02,14,,,,,1.13,0.66,0.91,1*05
$GNGSA,A,3,79,69,85,,,,,,,,,,1.13,0.66,0.91,2*05
$GNGSA,A,3,07,30,02,33,08,27,26,12,,,,,1.13,0.66,0.91,3*04
$GNVTG,108.22,T,,M,28.845,N,53.422,K,A*2B
$SMGPS,4.1 m,-0.15 m/s,5.55 VRx,0.227 km,180 m,232.4 °,1:4  ( 11.1 km/h),496.6 m*91
$SMGPS2,-0.17 X,+0.03 Y,+1.41 Z,25 ENL,1084 us,39.6 kmh,954.32 hPa,953.27 hPa,+0.01 m/s*3C
$GNRMC,141546.50,A,4838.27242,N,00858.92418,E,30.44,94.95,211021,,,A,V*3A
$GNGNS,141546.50,4838.27242,N,00858.92418,E,AAAN,19,0.66,493.9,47.5,,,V*17
$GNGSA,A,3,30,05,13,07,20,09,02,14,,,,,1.13,0.66,0.91,1*05
$GNGSA,A,3,79,69,85,,,,,,,,,,1.13,0.66,0.91,2*05
$GNGSA,A,3,07,30,02,33,08,27,26,12,,,,,1.13,0.66,0.91,3*04
$GNVTG,94.95,T,,M,30.435,N,56.366,K,A*13
$SMGPS,4.6 m,+0.34 m/s,5.54 VRx,0.234 km,177 m,230.4 °,1:-- ( 11.1 km/h),497.0 m*89
$SMGPS2,-0.15 X,+0.02 Y,+1.18 Z,33 ENL,1084 us,38.3 kmh,954.26 hPa,953.37 hPa,+0.34 m/s*32
$GNRMC,141547.00,A,4838.27250,N,00858.93066,E,32.03,83.04,211021,,,A,V*3E
$GNGNS,141547.00,4838.27250,N,00858.93066,E,AAAN,19,0.66,494.1,47.5,,,V*13
$GNGSA,A,3,30,05,13,07,20,09,02,14,,,,,1.13,0.66,0.91,1*05
$GNGSA,A,3,79,69,85,,,,,,,,,,1.13,0.66,0.91,2*05
$GNGSA,A,3,07,30,02,33,08,27,26,12,,,,,1.13,0.66,0.91,3*04
$GNVTG,83.04,T,,M,32.013,N,59.288,K,A*11
$SMGPS,4.8 m,+0.49 m/s,5.54 VRx,0.242 km,172 m,228.4 °,1:-- ( 11.1 km/h),497.6 m*86
$SMGPS2,-0.13 X,+0.01 Y,+0.91 Z,35 ENL,1084 us,34.6 kmh,954.24 hPa,953.53 hPa,-0.43 m/s*3E
$GNRMC,141547.50,A,4838.27334,N,00858.93732,E,33.14,75.96,211021,,,A,V*3B
$GNGNS,141547.50,4838.27334,N,00858.93732,E,AAAN,19,0.66,493.5,47.5,,,V*10
$GNGSA,A,3,30,05,13,07,20,09,02,14,,,,,1.13,0.66,0.91,1*05
$GNGSA,A,3,79,69,85,,,,,,,,,,1.13,0.66,0.91,2*05
$GNGSA,A,3,07,30,02,33,08,27,26,12,,,,,1.13,0.66,0.91,3*04
$GNVTG,75.96,T,,M,33.138,N,61.372,K,A*15
$SMGPS,4.2 m,+0.25 m/s,5.54 VRx,0.250 km,166 m,226.6 °,1:-- ( 11.1 km/h),497.7 m*8D
$SMGPS2,-0.12 X,-0.04 Y,+0.73 Z,46 ENL,1084 us,32.9 kmh,954.31 hPa,953.51 hPa,-0.80 m/s*34
$GNRMC,141548.00,A,4838.27491,N,00858.94401,E,35.22,65.82,211021,,,A,V*3A
$GNGNS,141548.00,4838.27491,N,00858.94401,E,AAAN,19,0.66,491.8,47.5,,,V*19
$GNGSA,A,3,30,05,13,07,20,09,02,14,,,,,1.13,0.66,0.91,1*05
$GNGSA,A,3,79,69,85,,,,,,,,,,1.13,0.66,0.91,2*05
$GNGSA,A,3,07,30,02,33,08,27,26,12,,,,,1.13,0.66,0.91,3*04
$GNVTG,65.82,T,,M,35.193,N,65.178,K,A*1A
$SMGPS,2.5 m,-0.68 m/s,5.55 VRx,0.258 km,159 m,225.0 °,1:-- ( 11.1 km/h),496.9 m*8C
$SMGPS2,-0.17 X,-0.02 Y,+1.17 Z,26 ENL,1085 us,33.7 kmh,954.51 hPa,953.68 hPa,-0.98 m/s*39
$GNRMC,141548.50,A,4838.27748,N,00858.95052,E,37.72,53.83,211021,,,A,V*38
$GNGNS,141548.50,4838.27748,N,00858.95052,E,AAAN,19,0.66,490.5,47.5,,,V*14
$GNGSA,A,3,30,05,13,07,20,09,02,14,,,,,1.13,0.66,0.91,1*05
$GNGSA,A,3,79,69,85,,,,,,,,,,1.13,0.66,0.91,2*05
$GNGSA,A,3,07,30,02,33,08,27,26,12,,,,,1.13,0.66,0.91,3*04
$GNVTG,53.83,T,,M,37.599,N,69.633,K,A*16
$SMGPS,1.2 m,-1.56 m/s,5.53 VRx,0.267 km,151 m,223.6 °,1:1  ( 16.1 km/h),495.4 m*9E
$SMGPS2,-0.20 X,+0.01 Y,+1.48 Z,37 ENL,1084 us,37.1 kmh,954.65 hPa,953.58 hPa,-1.03 m/s*36
$GNRMC,141549.00,A,4838.28092,N,00858.95636,E,37.90,42.74,211021,,,A,V*33
$GNGNS,141549.00,4838.28092,N,00858.95636,E,AAAN,19,0.66,489.5,47.5,,,V*13
$GNGSA,A,3,30,05,13,07,20,09,02,14,,,,,1.13,0.66,0.91,1*05
$GNGSA,A,3,79,69,85,,,,,,,,,,1.13,0.66,0.91,2*05
$GNGSA,A,3,07,30,02,33,08,27,26,12,,,,,1.13,0.66,0.91,3*04
$GNVTG,42.74,T,,M,37.726,N,69.869,K,A*19
$SMGPS,0.2 m,-1.86 m/s,5.54 VRx,0.276 km,143 m,222.4 °,1:1  ( 16.1 km/h),494.1 m*91
$SMGPS2,-0.21 X,+0.01 Y,+1.23 Z,27 ENL,1084 us,41.3 kmh,954.77 hPa,953.64 hPa,-0.37 m/s*32
$GNRMC,141549.50,A,4838.28508,N,00858.96058,E,35.91,24.56,211021,,,A,V*3E
$GNGNS,141549.50,4838.28508,N,00858.96058,E,AAAN,19,0.66,488.7,47.5,,,V*1E
$GNGSA,A,3,30,05,13,07,20,09,02,14,,,,,1.13,0.66,0.91,1*05
$GNGSA,A,3,79,69,85,,,,,,,,,,1.13,0.66,0.91,2*05
$GNGSA,A,3,07,30,02,33,08,27,26,12,,,,,1.13,0.66,0.91,3*04
$GNVTG,24.56,T,,M,35.717,N,66.148,K,A*1C
$SMGPS,-0.6 m,-1.92 m/s,5.55 VRx,0.285 km,133 m,222.0 °,1:1  ( 21.2 km/h),493.2 m*B0
$SMGPS2,-0.26 X,+0.02 Y,+1.79 Z,29 ENL,1085 us,44.6 kmh,954.87 hPa,953.61 hPa,-0.29 m/s*33
$GNRMC,141550.00,A,4838.28955,N,00858.96266,E,32.62,8.32,211021,,,A,V*0F
$GNGNS,141550.00,4838.28955,N,00858.96266,E,AAAN,19,0.66,488.4,47.5,,,V*1B
$GNGSA,A,3,30,05,13,07,20,09,02,14,,,,,1.13,0.66,0.91,1*05
$GNGSA,A,3,79,69,85,,,,,,,,,,1.13,0.66,0.91,2*05
$GNGSA,A,3,07,30,02,33,08,27,26,12,,,,,1.13,0.66,0.91,3*04
$GNVTG,8.32,T,,M,32.471,N,60.136,K,A*2B
$SMGPS,-0.9 m,-1.62 m/s,5.54 VRx,0.295 km,124 m,222.7 °,1:1  ( 21.2 km/h),492.5 m*B7
$SMGPS2,-0.26 X,+0.03 Y,+1.58 Z,40 ENL,1084 us,46.4 kmh,954.89 hPa,953.61 hPa,-0.14 m/s*3F
$GNRMC,141550.50,A,4838.29367,N,00858.96259,E,27.52,349.07,211021,,,A,V*0B
$GNGNS,141550.50,4838.29367,N,00858.96259,E,AAAN,19,0.66,488.9,47.5,,,V*15
$GNGSA,A,3,30,05,13,07,20,09,02,14,,,,,1.13,0.66,0.91,1*05
$GNGSA,A,3,79,69,85,,,,,,,,,,1.13,0.66,0.91,2*05
$GNGSA,A,3,07,30,02,33,08,27,26,12,,,,,1.13,0.66,0.91,3*04
$GNVTG,349.07,T,,M,27.457,N,50.850,K,A*21
$SMGPS,-0.4 m,-0.99 m/s,5.55 VRx,0.304 km,116 m,224.6 °,1:3  ( 25.7 km/h),492.3 m*B4
$SMGPS2,-0.25 X,+0.05 Y,+1.81 Z,28 ENL,1084 us,46.6 kmh,954.84 hPa,953.67 hPa,-0.16 m/s*3B
$GNRMC,141551.00,A,4838.29687,N,00858.96093,E,21.72,331.77,211021,,,A,V*0C
$GNGNS,141551.00,4838.29687,N,00858.96093,E,AAAN,19,0.66,490.3,47.5,,,V*1D
$GNGSA,A,3,30,05,13,07,20,09,02,14,,,,,1.13,0.66,0.91,1*05
$GNGSA,A,3,79,69,85,,,,,,,,,,1.13,0.66,0.91,2*05
$GNGSA,A,3,07,30,02,33,08,27,26,12,,,,,1.13,0.66,0.91,3*04
$GNVTG,331.77,T,,M,21.723,N,40.231,K,A*23
$SMGPS,1.0 m,+0.02 m/s,5.54 VRx,0.311 km,111 m,227.3 °,1:3  ( 25.7 km/h),492.7 m*98
$SMGPS2,-0.21 X,+0.03 Y,+1.55 Z,43 ENL,1084 us,43.8 kmh,954.68 hPa,953.56 hPa,-0.38 m/s*3A
$GNRMC,141551.50,A,4838.29896,N,00858.95856,E,16.34,312.55,211021,,,A,V*02
$GNGNS,141551.50,4838.29896,N,00858.95856,E,AAAN,19,0.66,491.8,47.5,,,V*1E
$GNGSA,A,3,30,05,13,07,20,09,02,14,,,,,1.13,0.66,0.91,1*05
$GNGSA,A,3,79,69,85,,,,,,,,,,1.13,0.66,0.91,2*05
$GNGSA,A,3,07,30,02,33,08,27,26,12,,,,,1.13,0.66,0.91,3*04
$GNVTG,312.55,T,,M,16.210,N,30.020,K,A*26
$SMGPS,2.5 m,+1.08 m/s,5.55 VRx,0.318 km,108 m,230.5 °,1:-- ( 25.7 km/h),494.0 m*87
$SMGPS2,-0.17 X,+0.03 Y,+1.36 Z,12 ENL,1085 us,41.8 kmh,954.50 hPa,953.47 hPa,+0.30 m/s*38
$GNRMC,141552.00,A,4838.29991,N,00858.95604,E,12.65,301.25,211021,,,A,V*0E
$GNGNS,141552.00,4838.29991,N,00858.95604,E,AAAN,19,0.66,493.1,47.5,,,V*1C
$GNGSA,A,3,30,05,13,07,20,09,02,14,,,,,1.13,0.66,0.91,1*05
$GNGSA,A,3,79,69,85,,,,,,,,,,1.13,0.66,0.91,2*05
$GNGSA,A,3,07,30,02,33,08,27,26,12,,,,,1.13,0.66,0.91,3*04
$GNVTG,301.25,T,,M,12.153,N,22.508,K,A*2F
$SMGPS,3.8 m,+1.80 m/s,5.55 VRx,0.322 km,108 m,232.9 °,1:-- ( 25.7 km/h),495.7 m*8A
$SMGPS2,-0.16 X,+0.01 Y,+1.14 Z,7 ENL,1084 us,39.3 kmh,954.36 hPa,953.49 hPa,+0.82 m/s*0D
$GNRMC,141552.50,A,4838.29990,N,00858.95367,E,11.22,279.90,211021,,,A,V*0A
$GNGNS,141552.50,4838.29990,N,00858.95367,E,AAAN,19,0.66,493.9,47.5,,,V*10
$GNGSA,A,3,30,05,13,07,20,09,02,14,,,,,1.13,0.66,0.91,1*05
$GNGSA,A,3,79,69,85,,,,,,,,,,1.13,0.66,0.91,2*05
$GNGSA,A,3,07,30,02,33,08,27,26,12,,,,,1.13,0.66,0.91,3*04
$GNVTG,279.90,T,,M,10.569,N,19.574,K,A*23
$SMGPS,4.6 m,+1.94 m/s,5.55 VRx,0.326 km,110 m,234.5 °,1:-- ( 25.7 km/h),497.1 m*85
$SMGPS2,-0.15 X,+0.02 Y,+0.91 Z,27 ENL,1085 us,37.6 kmh,954.26 hPa,953.32 hPa,+0.90 m/s*37
$GNRMC,141553.00,A,4838.29919,N,00858.95177,E,11.44,245.29,211021,,,A,V*01
$GNGNS,141553.00,4838.29919,N,00858.95177,E,AAAN,19,0.66,494.4,47.5,,,V*1C
$GNGSA,A,3,30,05,13,07,20,09,02,14,,,,,1.13,0.66,0.91,1*05
$GNGSA,A,3,79,69,85,,,,,,,,,,1.13,0.66,0.91,2*05
$GNGSA,A,3,07,30,02,33,08,27,26,12,,,,,1.13,0.66,0.91,3*04
$GNVTG,245.29,T,,M,10.922,N,20.228,K,A*29
$SMGPS,5.1 m,+1.75 m/s,5.55 VRx,0.329 km,112 m,235.4 °,1:-- ( 25.7 km/h),498.1 m*8E
$SMGPS2,-0.14 X,+0.04 Y,+1.02 Z,19 ENL,1085 us,38.6 kmh,954.21 hPa,953.27 hPa,+1.49 m/s*3F
$GNRMC,141553.50,A,4838.29774,N,00858.95064,E,13.60,209.55,211021,,,A,V*05
$GNGNS,141553.50,4838.29774,N,00858.95064,E,AAAN,19,0.66,494.4,47.5,,,V*1F
$GNGSA,A,3,30,05,13,07,20,09,02,14,,,,,1.13,0.66,0.91,1*05
$GNGSA,A,3,79,69,85,,,,,,,,,,1.13,0.66,0.91,2*05
$GNGSA,A,3,07,30,02,33,08,27,26,12,,,,,1.13,0.66,0.91,3*04
$GNVTG,209.55,T,,M,13.368,N,24.758,K,A*2B
$SMGPS,5.1 m,+1.29 m/s,5.55 VRx,0.331 km,115 m,235.7 °,1:-- ( 25.7 km/h),498.3 m*88
$SMGPS2,-0.15 X,+0.01 Y,+1.26 Z,37 ENL,1084 us,37.4 kmh,954.21 hPa,953.33 hPa,+0.81 m/s*3D
$GNRMC,141554.00,A,4838.29578,N,00858.95030,E,15.43,192.67,211021,,,A,V*0F
$GNGNS,141554.00,4838.29578,N,00858.95030,E,AAAN,18,0.68,494.6,47.5,,,V*1F
$GNGSA,A,3,30,05,13,07,20,09,14,,,,,,1.14,0.68,0.92,1*0D
$GNGSA,A,3,79,69,85,,,,,,,,,,1.13,0.66,0.91,2*05
$GNGSA,A,3,07,30,02,33,08,27,26,12,,,,,1.13,0.66,0.91,3*04
$GNVTG,192.67,T,,M,15.336,N,28.403,K,A*27
$SMGPS,5.3 m,+0.86 m/s,5.53 VRx,0.334 km,117 m,235.1 °,1:-- ( 25.7 km/h),498.3 m*89
$SMGPS2,-0.16 X,+0.02 Y,+1.06 Z,34 ENL,1085 us,39.1 kmh,954.18 hPa,953.08 hPa,+0.81 m/s*34
$GNRMC,141554.50,A,4838.29354,N,00858.95094,E,18.37,161.26,211021,,,A,V*0B
$GNGNS,141554.50,4838.29354,N,00858.95094,E,AAAN,19,0.66,494.8,47.5,,,V*1D
$GNGSA,A,3,30,05,13,07,20,09,02,14,,,,,1.13,0.66,0.91,1*05
$GNGSA,A,3,79,69,85,,,,,,,,,,1.14,0.68,0.92,2*0F
$GNGSA,A,3,07,30,02,33,08,27,26,12,,,,,1.14,0.68,0.92,3*0E
$GNVTG,161.26,T,,M,18.316,N,33.921,K,A*26
$SMGPS,5.5 m,+0.70 m/s,5.55 VRx,0.338 km,120 m,233.7 °,1:-- ( 25.7 km/h),498.3 m*88
$SMGPS2,-0.15 X,+0.04 Y,+1.25 Z,40 ENL,1085 us,40.3 kmh,954.16 hPa,953.18 hPa,+1.30 m/s*3B
$GNRMC,141555.00,A,4838.29113,N,00858.95291,E,21.70,143.47,211021,,,A,V*07
$GNGNS,141555.00,4838.29113,N,00858.95291,E,AAAN,19,0.66,494.8,47.5,,,V*1F
$GNGSA,A,3,30,05,13,07,20,09,02,14,,,,,1.13,0.66,0.91,1*05
$GNGSA,A,3,79,69,85,,,,,,,,,,1.13,0.66,0.91,2*05
$GNGSA,A,3,07,30,02,33,08,27,26,12,,,,,1.13,0.66,0.91,3*04
$GNVTG,143.47,T,,M,21.677,N,40.147,K,A*25
$SMGPS,5.5 m,+0.46 m/s,5.54 VRx,0.342 km,122 m,231.9 °,1:-- ( 25.7 km/h),498.3 m*8F
$SMGPS2,-0.17 X,-0.00 Y,+1.21 Z,32 ENL,1084 us,37.8 kmh,954.16 hPa,953.29 hPa,+0.01 m/s*31
$GNRMC,141555.50,A,4838.28891,N,00858.95651,E,25.82,123.66,211021,,,A,V*04
$GNGNS,141555.50,4838.28891,N,00858.95651,E,AAAN,19,0.66,495.0,47.5,,,V*19
$GNGSA,A,3,30,05,13,07,20,09,02,14,,,,,1.13,0.66,0.91,1*05
$GNGSA,A,3,79,69,85,,,,,,,,,,1.13,0.66,0.91,2*05
$GNGSA,A,3,07,30,02,33,08,27,26,12,,,,,1.13,0.66,0.91,3*04
$GNVTG,123.66,T,,M,25.810,N,47.800,K,A*26
$SMGPS,5.7 m,+0.40 m/s,5.55 VRx,0.348 km,123 m,229.5 °,1:-- ( 25.7 km/h),498.4 m*83
$SMGPS2,-0.16 X,+0.02 Y,+1.39 Z,39 ENL,1084 us,38.1 kmh,954.13 hPa,953.19 hPa,+0.14 m/s*32
$GNRMC,141556.00,A,4838.28740,N,00858.96173,E,29.35,105.47,211021,,,A,V*02
$GNGNS,141556.00,4838.28740,N,00858.96173,E,AAAN,19,0.66,495.0,47.5,,,V*18
$GNGSA,A,3,30,05,13,07,20,09,02,14,,,,,1.13,0.66,0.91,1*05
$GNGSA,A,3,79,69,85,,,,,,,,,,1.13,0.66,0.91,2*05
$GNGSA,A,3,07,30,02,33,08,27,26,12,,,,,1.13,0.66,0.91,3*04
$GNVTG,105.47,T,,M,29.337,N,54.332,K,A*2B
$SMGPS,5.7 m,+0.36 m/s,5.54 VRx,0.353 km,122 m,226.8 °,1:-- ( 25.7 km/h),498.5 m*8B
$SMGPS2,-0.15 X,+0.03 Y,+1.29 Z,35 ENL,1085 us,38.5 kmh,954.14 hPa,953.18 hPa,+0.40 m/s*3F
$GNRMC,141556.50,A,4838.28684,N,00858.96813,E,33.06,90.70,211021,,,A,V*33
$GNGNS,141556.50,4838.28684,N,00858.96813,E,AAAN,18,0.67,494.5,47.5,,,V*1F
$GNGSA,A,3,30,05,07,20,09,02,14,,,,,,1.13,0.67,0.91,1*06
$GNGSA,A,3,79,69,85,,,,,,,,,,1.13,0.66,0.91,2*05
$GNGSA,A,3,07,30,02,33,08,27,26,12,,,,,1.13,0.66,0.91,3*04
$GNVTG,90.70,T,,M,33.061,N,61.228,K,A*15
$SMGPS,5.2 m,+0.05 m/s,5.55 VRx,0.360 km,119 m,223.7 °,1:-- ( 25.7 km/h),498.2 m*8A
$SMGPS2,-0.16 X,+0.03 Y,+1.27 Z,31 ENL,1085 us,38.9 kmh,954.20 hPa,953.18 hPa,+0.15 m/s*3D
$GNRMC,141557.00,A,4838.28742,N,00858.97527,E,36.29,75.44,211021,,,A,V*33
$GNGNS,141557.00,4838.28742,N,00858.97527,E,AAAN,19,0.66,494.0,47.5,,,V*1E
$GNGSA,A,3,30,05,13,07,20,09,02,14,,,,,1.13,0.66,0.91,1*05
$GNGSA,A,3,79,69,85,,,,,,,,,,1.13,0.67,0.91,2*04
$GNGSA,A,3,07,30,02,33,08,27,26,12,,,,,1.13,0.67,0.91,3*05
$GNVTG,75.44,T,,M,36.289,N,67.208,K,A*1C
$SMGPS,4.7 m,-0.32 m/s,5.54 VRx,0.368 km,115 m,220.3 °,1:3  ( 28.5 km/h),497.8 m*97
$SMGPS2,-0.16 X,+0.03 Y,+1.51 Z,40 ENL,1084 us,39.8 kmh,954.25 hPa,953.19 hPa,-0.06 m/s*3B
$GNRMC,141557.50,A,4838.28932,N,00858.98230,E,36.82,60.82,211021,,,A,V*3E
$GNGNS,141557.50,4838.28932,N,00858.98230,E,AAAN,19,0.66,493.5,47.5,,,V*1E
$GNGSA,A,3,30,05,13,07,20,09,02,14,,,,,1.13,0.66,0.91,1*05
$GNGSA,A,3,79,69,85,,,,,,,,,,1.13,0.66,0.91,2*05
$GNGSA,A,3,07,30,02,33,08,27,26,12,,,,,1.13,0.66,0.91,3*04
$GNVTG,60.82,T,,M,36.807,N,68.167,K,A*1B
$SMGPS,4.2 m,-0.59 m/s,5.55 VRx,0.377 km,109 m,217.4 °,1:3  ( 28.5 km/h),497.2 m*94
$SMGPS2,-0.18 X,+0.03 Y,+1.36 Z,35 ENL,1084 us,41.2 kmh,954.31 hPa,953.22 hPa,-0.07 m/s*3F
$GNRMC,141558.00,A,4838.29234,N,00858.98835,E,36.43,45.33,211021,,,A,V*37
$GNGNS,141558.00,4838.29234,N,00858.98835,E,AAAN,19,0.66,492.7,47.5,,,V*14
$GNGSA,A,3,30,05,13,07,20,09,02,14,,,,,1.13,0.66,0.91,1*05
$GNGSA,A,3,79,69,85,,,,,,,,,,1.13,0.66,0.91,2*05
$GNGSA,A,3,07,30,02,33,08,27,26,12,,,,,1.13,0.66,0.91,3*04
$GNVTG,45.33,T,,M,36.390,N,67.394,K,A*12
$SMGPS,3.4 m,-0.85 m/s,5.55 VRx,0.387 km,100 m,214.8 °,1:4  ( 32.3 km/h),496.5 m*91
$SMGPS2,-0.20 X,+0.03 Y,+1.30 Z,32 ENL,1085 us,42.2 kmh,954.40 hPa,953.26 hPa,-0.27 m/s*37
$GNRMC,141558.50,A,4838.29624,N,00858.99280,E,34.75,28.87,211021,,,A,V*31
$GNGNS,141558.50,4838.29624,N,00858.99280,E,AAAN,19,0.66,491.7,47.5,,,V*12
$GNGSA,A,3,30,05,13,07,20,09,02,14,,,,,1.13,0.66,0.91,1*05
$GNGSA,A,3,79,69,85,,,,,,,,,,1.13,0.66,0.91,2*05
$GNGSA,A,3,07,30,02,33,08,27,26,12,,,,,1.13,0.66,0.91,3*04
$GNVTG,28.87,T,,M,34.676,N,64.220,K,A*14
$SMGPS,2.4 m,-1.18 m/s,5.54 VRx,0.396 km,92 m,212.8 °,1:4  ( 32.3 km/h),495.5 m*AB
$SMGPS2,-0.22 X,+0.04 Y,+1.53 Z,32 ENL,1084 us,45.1 kmh,954.51 hPa,953.18 hPa,-0.14 m/s*3F
$GNRMC,141559.00,A,4838.30044,N,00858.99500,E,30.22,8.57,211021,,,A,V*0B
$GNGNS,141559.00,4838.30044,N,00858.99500,E,AAAN,19,0.66,491.0,47.5,,,V*16
$GNGSA,A,3,30,05,13,07,20,09,02,14,,,,,1.13,0.66,0.91,1*05
$GNGSA,A,3,79,69,85,,,,,,,,,,1.13,0.66,0.91,2*05
$GNGSA,A,3,07,30,02,33,08,27,26,12,,,,,1.13,0.66,0.91,3*04
$GNVTG,8.57,T,,M,30.092,N,55.729,K,A*2D
