$GPSSETUP,8765,2,1,1,0,1,1,0,0,1,1,3,0,0,0,0,6,3,12C,96,1F4,1C2,32,64,7C,64,7D0,5,1,2,1E,0,0,0,0,0,0,1010,4,10,5,6,10,10,10,10,10,10,10,10,10,BC10,0,7E,1,108,302,604,0,20F,0,4000,0,4000,0,0,0,0,0,0,0,0,0,0,0,0,0,0,0,0,0,0,0,0,0,0,0,0,0,0,0,0,0,20,12C,DC0C*0F
$GNRMC,082151.00,A,4838.32932,N,00859.02781,E,0.33,,220521,,,A*51
$GNGGA,082151.00,4838.32932,N,00859.02781,E,1,06,1.39,497.5,M,47.5,M,,*4F
$GNGSA,A,3,12,29,32,25,31,,,,,,,,2.71,1.39,2.33*1D
$GNVTG,,T,,M,0.333,N,0.617,K,A*3E
$SMGPS,-0.1 m,-0.00 m/s,5.58 VRx,0.000 km,1 m,13.9 °,1:-- (  0.0 km/h)*C5
$SMGPS2,-0.22 X,+0.07 Y,+0.98 Z,0 ENL,1085 us,8.4 kmh,953.45 hPa,953.15 hPa,-0.12 m/s*3F
$GNRMC,082151.50,A,4838.32927,N,00859.02776,E,0.36,,220521,,,A*5D
$GNGGA,082151.50,4838.32927,N,00859.02776,E,1,06,1.39,497.5,M,47.5,M,,*46
$GNGSA,A,3,12,29,32,25,31,,,,,,,,2.72,1.39,2.34*19
$GNVTG,,T,,M,0.356,N,0.660,K,A*3D
$SMGPS,-0.1 m,+0.03 m/s,5.58 VRx,0.000 km,0 m,90.0 °,1:-- (  0.0 km/h)*C3
$SMGPS2,-0.22 X,+0.07 Y,+0.98 Z,0 ENL,1085 us,7.6 kmh,953.45 hPa,953.17 hPa,-0.11 m/s*33
$GNRMC,082152.00,A,4838.32940,N,00859.02773,E,0.29,,220521,,,A*51
$GNGGA,082152.00,4838.32940,N,00859.02773,E,1,06,1.39,497.5,M,47.5,M,,*44
$GNGSA,A,3,12,29,32,25,31,,,,,,,,2.72,1.39,2.34*19
$GNVTG,,T,,M,0.258,N,0.477,K,A*36
$SMGPS,-0.1 m,+0.06 m/s,5.58 VRx,0.000 km,0 m,90.0 °,1:-- (  0.0 km/h)*C6
$SMGPS2,-0.22 X,+0.07 Y,+0.98 Z,0 ENL,1084 us,6.6 kmh,953.44 hPa,953.16 hPa,-0.04 m/s*37
$GNRMC,082152.50,A,4838.32945,N,00859.02773,E,0.40,,220521,,,A*5E
$GNGGA,082152.50,4838.32945,N,00859.02773,E,1,06,1.39,497.5,M,47.5,M,,*44
$GNGSA,A,3,12,29,32,25,31,,,,,,,,2.72,1.39,2.34*19
$GNVTG,,T,,M,0.375,N,0.694,K,A*37
$SMGPS,-0.1 m,+0.08 m/s,5.58 VRx,0.000 km,1 m,3.2 °,1:-- (  0.0 km/h)*F1
$SMGPS2,-0.22 X,+0.07 Y,+0.98 Z,0 ENL,1084 us,7.3 kmh,953.44 hPa,953.16 hPa,+0.07 m/s*36
$GNRMC,082153.00,A,4838.32956,N,00859.02774,E,0.29,,220521,,,A*50
$GNGGA,082153.00,4838.32956,N,00859.02774,E,1,06,1.39,497.4,M,47.5,M,,*44
$GNGSA,A,3,12,29,32,25,31,,,,,,,,2.72,1.39,2.34*19
$GNVTG,,T,,M,0.290,N,0.538,K,A*38
$SMGPS,-0.2 m,-0.01 m/s,5.58 VRx,0.000 km,1 m,3.2 °,1:-- (  0.0 km/h)*FD
$SMGPS2,-0.22 X,+0.07 Y,+0.98 Z,0 ENL,1084 us,8.0 kmh,953.45 hPa,953.15 hPa,+0.03 m/s*3C
$GNRMC,082153.50,A,4838.32976,N,00859.02774,E,0.36,,220521,,,A*59
$GNGGA,082153.50,4838.32976,N,00859.02774,E,1,06,1.39,497.5,M,47.5,M,,*42
$GNGSA,A,3,12,29,32,25,31,,,,,,,,2.72,1.39,2.34*19
$GNVTG,,T,,M,0.359,N,0.665,K,A*37
$SMGPS,-0.1 m,-0.03 m/s,5.58 VRx,0.000 km,1 m,3.2 °,1:-- (  0.0 km/h)*FC
$SMGPS2,-0.21 X,+0.07 Y,+0.98 Z,0 ENL,1084 us,10.1 kmh,953.45 hPa,953.12 hPa,+0.17 m/s*05
$GNRMC,082154.00,A,4838.32986,N,00859.02774,E,0.14,,220521,,,A*54
$GNGGA,082154.00,4838.32986,N,00859.02774,E,1,06,1.39,497.5,M,47.5,M,,*4F
$GNGSA,A,3,12,29,32,25,31,,,,,,,,2.72,1.39,2.34*19
$GNVTG,,T,,M,0.100,N,0.185,K,A*30
$SMGPS,-0.1 m,+0.05 m/s,5.58 VRx,0.000 km,1 m,3.2 °,1:-- (  0.0 km/h)*FC
$SMGPS2,-0.22 X,+0.07 Y,+0.98 Z,0 ENL,1084 us,10.2 kmh,953.44 hPa,953.14 hPa,+0.09 m/s*0D
$GNRMC,082154.50,A,4838.32964,N,00859.02778,E,0.09,,220521,,,A*5D
$GNGGA,082154.50,4838.32964,N,00859.02778,E,1,06,1.39,497.5,M,47.5,M,,*4A
$GNGSA,A,3,12,29,32,25,31,,,,,,,,2.72,1.39,2.34*19
$GNVTG,,T,,M,0.059,N,0.110,K,A*31
$SMGPS,-0.1 m,+0.04 m/s,5.58 VRx,0.000 km,2 m,1.9 °,1:-- (  0.0 km/h)*F7
$SMGPS2,-0.22 X,+0.07 Y,+0.98 Z,0 ENL,1084 us,9.4 kmh,953.44 hPa,953.15 hPa,-0.01 m/s*3C
$GNRMC,082155.00,A,4838.32986,N,00859.02780,E,0.29,,220521,,,A*50
$GNGGA,082155.00,4838.32986,N,00859.02780,E,1,06,1.39,497.5,M,47.5,M,,*45
$GNGSA,A,3,12,29,32,25,31,,,,,,,,2.72,1.39,2.34*19
$GNVTG,,T,,M,0.291,N,0.538,K,A*39
$SMGPS,-0.1 m,+0.00 m/s,5.58 VRx,0.000 km,1 m,6.3 °,1:-- (  0.0 km/h)*FD
$SMGPS2,-0.22 X,+0.07 Y,+0.98 Z,0 ENL,1084 us,8.7 kmh,953.45 hPa,953.14 hPa,-0.05 m/s*3A
$GNRMC,082155.50,A,4838.33014,N,00859.02784,E,0.25,,220521,,,A*5E
$GNGGA,082155.50,4838.33014,N,00859.02784,E,1,06,1.39,497.4,M,47.5,M,,*46
$GNGSA,A,3,12,29,32,25,31,,,,,,,,2.72,1.39,2.34*19
$GNVTG,,T,,M,0.238,N,0.441,K,A*35
$SMGPS,-0.2 m,-0.03 m/s,5.58 VRx,0.000 km,2 m,3.8 °,1:-- (  0.0 km/h)*F6
$SMGPS2,-0.22 X,+0.07 Y,+0.98 Z,0 ENL,1084 us,7.7 kmh,953.45 hPa,953.18 hPa,-0.14 m/s*39
$GNRMC,082156.00,A,4838.33026,N,00859.02791,E,0.14,,220521,,,A*5F
$GNGGA,082156.00,4838.33026,N,00859.02791,E,1,06,1.39,497.5,M,47.5,M,,*44
$GNGSA,A,3,12,29,32,25,31,,,,,,,,2.72,1.39,2.34*19
$GNVTG,,T,,M,0.071,N,0.132,K,A*3B
$SMGPS,-0.1 m,-0.06 m/s,5.58 VRx,0.000 km,2 m,5.7 °,1:-- (  0.0 km/h)*F9
$SMGPS2,-0.22 X,+0.07 Y,+0.97 Z,0 ENL,1084 us,7.7 kmh,953.45 hPa,953.14 hPa,-0.06 m/s*39
$GNRMC,082156.50,A,4838.33045,N,00859.02791,E,0.07,,220521,,,A*5D
$GNGGA,082156.50,4838.33045,N,00859.02791,E,1,06,1.39,497.4,M,47.5,M,,*45
$GNGSA,A,3,12,29,32,25,31,,,,,,,,2.72,1.39,2.34*19
$GNVTG,,T,,M,0.039,N,0.072,K,A*32
$SMGPS,-0.2 m,-0.03 m/s,5.58 VRx,0.000 km,2 m,7.5 °,1:-- (  0.0 km/h)*FF
$SMGPS2,-0.22 X,+0.07 Y,+0.98 Z,0 ENL,1085 us,8.5 kmh,953.46 hPa,953.17 hPa,-0.02 m/s*3E
$GNRMC,082157.00,A,4838.33043,N,00859.02792,E,0.41,,220521,,,A*5E
$GNGGA,082157.00,4838.33043,N,00859.02792,E,1,06,1.39,497.5,M,47.5,M,,*45
$GNGSA,A,3,12,29,32,25,31,,,,,,,,2.72,1.39,2.34*19
$GNVTG,,T,,M,0.411,N,0.761,K,A*39
$SMGPS,-0.1 m,+0.01 m/s,5.58 VRx,0.000 km,3 m,5.4 °,1:-- (  0.0 km/h)*FA
$SMGPS2,-0.22 X,+0.07 Y,+0.98 Z,0 ENL,1085 us,8.3 kmh,953.45 hPa,953.14 hPa,+0.01 m/s*3D
$GNRMC,082157.50,A,4838.33017,N,00859.02793,E,0.20,,220521,,,A*5C
$GNGGA,082157.50,4838.33017,N,00859.02793,E,1,06,1.39,497.5,M,47.5,M,,*40
$GNGSA,A,3,12,29,32,25,31,,,,,,,,2.72,1.39,2.34*19
$GNVTG,,T,,M,0.188,N,0.348,K,A*33
$SMGPS,-0.1 m,+0.03 m/s,5.58 VRx,0.000 km,3 m,5.4 °,1:-- (  0.0 km/h)*F8
$SMGPS2,-0.22 X,+0.07 Y,+0.98 Z,0 ENL,1085 us,9.4 kmh,953.44 hPa,953.14 hPa,+0.10 m/s*3A
$GNRMC,082158.00,A,4838.33002,N,00859.02798,E,0.24,,220521,,,A*5D
$GNGGA,082158.00,4838.33002,N,00859.02798,E,1,06,1.39,497.5,M,47.5,M,,*45
$GNGSA,A,3,12,29,32,25,31,,,,,,,,2.72,1.39,2.34*19
$GNVTG,,T,,M,0.222,N,0.411,K,A*3B
$SMGPS,-0.1 m,+0.04 m/s,5.58 VRx,0.000 km,2 m,9.4 °,1:-- (  0.0 km/h)*F2
$SMGPS2,-0.22 X,+0.07 Y,+0.98 Z,0 ENL,1085 us,8.8 kmh,953.44 hPa,953.15 hPa,+0.01 m/s*36
$GNRMC,082158.50,A,4838.32990,N,00859.02805,E,0.46,,220521,,,A*54
$GNGGA,082158.50,4838.32990,N,00859.02805,E,1,06,1.39,497.5,M,47.5,M,,*48
$GNGSA,A,3,12,29,32,25,31,,,,,,,,2.72,1.39,2.34*19
$GNVTG,,T,,M,0.446,N,0.826,K,A*37
$SMGPS,-0.1 m,+0.06 m/s,5.58 VRx,0.000 km,2 m,9.4 °,1:-- (  0.0 km/h)*F0
$SMGPS2,-0.22 X,+0.07 Y,+0.98 Z,0 ENL,1085 us,7.6 kmh,953.44 hPa,953.15 hPa,-0.01 m/s*31
$GNRMC,082159.00,A,4838.32999,N,00859.02810,E,0.14,,220521,,,A*5A
$GNGGA,082159.00,4838.32999,N,00859.02810,E,1,06,1.39,497.5,M,47.5,M,,*41
$GNGSA,A,3,12,29,32,25,31,,,,,,,,2.72,1.39,2.34*19
$GNVTG,,T,,M,0.143,N,0.265,K,A*3A
$SMGPS,-0.1 m,+0.01 m/s,5.58 VRx,0.000 km,2 m,13.0 °,1:-- (  0.0 km/h)*C8
$SMGPS2,-0.22 X,+0.07 Y,+0.98 Z,0 ENL,1085 us,6.9 kmh,953.44 hPa,953.16 hPa,-0.07 m/s*3A
$GNRMC,082159.50,A,4838.33034,N,00859.02815,E,0.22,,220521,,,A*50
$GNGGA,082159.50,4838.33034,N,00859.02815,E,1,06,1.39,497.6,M,47.5,M,,*4D
$GNGSA,A,3,12,29,32,25,31,,,,,,,,2.72,1.39,2.34*19
$GNVTG,,T,,M,0.215,N,0.399,K,A*38
$SMGPS,-0.0 m,+0.01 m/s,5.58 VRx,0.000 km,2 m,13.0 °,1:-- (  0.0 km/h)*C9
$SMGPS2,-0.22 X,+0.07 Y,+0.98 Z,0 ENL,1085 us,7.5 kmh,953.44 hPa,953.16 hPa,+0.02 m/s*34
$GNRMC,082200.00,A,4838.33017,N,00859.02817,E,0.25,,220521,,,A*5E
$GNGGA,082200.00,4838.33017,N,00859.02817,E,1,06,1.39,497.6,M,47.5,M,,*44
$GNGSA,A,3,12,29,32,25,31,,,,,,,,2.72,1.39,2.34*19
$GNVTG,,T,,M,0.215,N,0.397,K,A*36
$SMGPS,0.0 m,+0.07 m/s,5.58 VRx,0.000 km,3 m,10.7 °,1:-- (  0.0 km/h)*E7
$SMGPS2,-0.22 X,+0.07 Y,+0.98 Z,0 ENL,1084 us,5.7 kmh,953.42 hPa,953.16 hPa,+0.00 m/s*31
$GNRMC,082200.50,A,4838.33002,N,00859.02822,E,0.23,,220521,,,A*5F
$GNGGA,082200.50,4838.33002,N,00859.02822,E,1,06,1.39,497.6,M,47.5,M,,*43
$GNGSA,A,3,12,29,32,25,31,,,,,,,,2.72,1.39,2.34*19
$GNVTG,,T,,M,0.201,N,0.372,K,A*38
$SMGPS,-0.0 m,+0.05 m/s,5.59 VRx,0.000 km,2 m,18.3 °,1:-- (  0.0 km/h)*C4
$SMGPS2,-0.22 X,+0.07 Y,+0.98 Z,0 ENL,1085 us,6.6 kmh,953.43 hPa,953.14 hPa,+0.02 m/s*33
$GNRMC,082201.00,A,4838.32993,N,00859.02834,E,0.13,,220521,,,A*5F
$GNGGA,082201.00,4838.32993,N,00859.02834,E,1,06,1.39,497.6,M,47.5,M,,*40
$GNGSA,A,3,12,29,32,25,31,,,,,,,,2.72,1.39,2.34*19
$GNVTG,,T,,M,0.093,N,0.173,K,A*32
$SMGPS,-0.0 m,-0.05 m/s,5.58 VRx,0.000 km,2 m,18.3 °,1:-- (  0.0 km/h)*C3
$SMGPS2,-0.22 X,+0.07 Y,+0.98 Z,0 ENL,1085 us,6.9 kmh,953.44 hPa,953.16 hPa,-0.03 m/s*3E
$GNRMC,082201.50,A,4838.32992,N,00859.02840,E,0.30,,220521,,,A*59
$GNGGA,082201.50,4838.32992,N,00859.02840,E,1,06,1.39,497.6,M,47.5,M,,*47
$GNGSA,A,3,12,29,32,25,31,,,,,,,,2.72,1.39,2.34*19
$GNVTG,,T,,M,0.285,N,0.527,K,A*32
$SMGPS,-0.0 m,-0.05 m/s,5.58 VRx,0.000 km,2 m,21.6 °,1:-- (  0.0 km/h)*CC
$SMGPS2,-0.22 X,+0.07 Y,+0.98 Z,0 ENL,1084 us,7.0 kmh,953.44 hPa,953.17 hPa,-0.06 m/s*33
$GNRMC,082202.00,A,4838.32977,N,00859.02843,E,0.31,,220521,,,A*56
$GNGGA,082202.00,4838.32977,N,00859.02843,E,1,06,1.39,497.5,M,47.5,M,,*4A
$GNGSA,A,3,12,29,32,25,31,,,,,,,,2.72,1.39,2.34*19
$GNVTG,,T,,M,0.285,N,0.528,K,A*3D
$SMGPS,-0.1 m,-0.06 m/s,5.58 VRx,0.000 km,2 m,23.2 °,1:-- (  0.0 km/h)*C8
$SMGPS2,-0.22 X,+0.07 Y,+0.98 Z,0 ENL,1085 us,6.6 kmh,953.46 hPa,953.17 hPa,-0.07 m/s*36
$GNRMC,082202.50,A,4838.32986,N,00859.02846,E,0.41,,220521,,,A*5F
$GNGGA,082202.50,4838.32986,N,00859.02846,E,1,06,1.39,497.6,M,47.5,M,,*47
$GNGSA,A,3,12,29,32,25,31,,,,,,,,2.72,1.39,2.34*19
$GNVTG,,T,,M,0.374,N,0.693,K,A*31
$SMGPS,-0.0 m,-0.09 m/s,5.58 VRx,0.000 km,2 m,37.6 °,1:-- (  0.0 km/h)*C7
$SMGPS2,-0.22 X,+0.07 Y,+0.98 Z,0 ENL,1084 us,5.9 kmh,953.46 hPa,953.18 hPa,-0.12 m/s*30
$GNRMC,082203.00,A,4838.32974,N,00859.02849,E,0.44,,220521,,,A*5C
$GNGGA,082203.00,4838.32974,N,00859.02849,E,1,06,1.39,497.6,M,47.5,M,,*41
$GNGSA,A,3,12,29,32,25,31,,,,,,,,2.72,1.39,2.34*19
$GNVTG,,T,,M,0.423,N,0.783,K,A*34
$SMGPS,0.0 m,-0.05 m/s,5.58 VRx,0.000 km,2 m,24.8 °,1:-- (  0.0 km/h)*EA
$SMGPS2,-0.22 X,+0.07 Y,+0.97 Z,0 ENL,1084 us,5.2 kmh,953.45 hPa,953.18 hPa,-0.10 m/s*35
$GNRMC,082203.50,A,4838.32975,N,00859.02856,E,0.38,,220521,,,A*5D
$GNGGA,082203.50,4838.32975,N,00859.02856,E,1,06,1.39,497.6,M,47.5,M,,*4B
$GNGSA,A,3,12,29,32,25,31,,,,,,,,2.72,1.39,2.34*19
$GNVTG,,T,,M,0.377,N,0.698,K,A*39
$SMGPS,-0.0 m,-0.00 m/s,5.58 VRx,0.000 km,2 m,39.6 °,1:-- (  0.0 km/h)*C0
$SMGPS2,-0.21 X,+0.07 Y,+0.98 Z,0 ENL,1085 us,5.5 kmh,953.45 hPa,953.17 hPa,-0.03 m/s*32
$GNRMC,082204.00,A,4838.32978,N,00859.02863,E,0.15,,220521,,,A*5B
$GNGGA,082204.00,4838.32978,N,00859.02863,E,1,06,1.39,497.6,M,47.5,M,,*42
$GNGSA,A,3,12,29,32,25,31,,,,,,,,2.72,1.39,2.34*19
$GNVTG,,T,,M,0.145,N,0.269,K,A*30
$SMGPS,-0.0 m,-0.02 m/s,5.58 VRx,0.000 km,2 m,41.4 °,1:-- (  0.0 km/h)*CF
$SMGPS2,-0.22 X,+0.07 Y,+0.98 Z,0 ENL,1084 us,6.0 kmh,953.45 hPa,953.16 hPa,+0.01 m/s*33
$GNRMC,082204.50,A,4838.32967,N,00859.02865,E,0.24,,220521,,,A*54
$GNGGA,082204.50,4838.32967,N,00859.02865,E,1,06,1.39,497.6,M,47.5,M,,*4F
$GNGSA,A,3,12,29,32,25,31,,,,,,,,2.72,1.39,2.34*19
$GNVTG,,T,,M,0.233,N,0.432,K,A*3A
$SMGPS,-0.0 m,-0.02 m/s,5.58 VRx,0.000 km,2 m,43.1 °,1:-- (  0.0 km/h)*C8
$SMGPS2,-0.22 X,+0.07 Y,+0.98 Z,0 ENL,1085 us,6.8 kmh,953.46 hPa,953.17 hPa,+0.05 m/s*3C
$GNRMC,082205.00,A,4838.32971,N,00859.02861,E,0.24,,220521,,,A*53
$GNGGA,082205.00,4838.32971,N,00859.02861,E,1,06,1.38,497.6,M,47.5,M,,*49
$GNGSA,A,3,12,29,32,25,31,,,,,,,,2.72,1.38,2.34*18
$GNVTG,,T,,M,0.241,N,0.445,K,A*3F
$SMGPS,0.0 m,+0.01 m/s,5.58 VRx,0.000 km,2 m,43.1 °,1:-- (  0.0 km/h)*E0
$SMGPS2,-0.22 X,+0.07 Y,+0.98 Z,0 ENL,1085 us,6.1 kmh,953.45 hPa,953.18 hPa,+0.00 m/s*3C
$GNRMC,082205.50,A,4838.32993,N,00859.02856,E,0.23,,220521,,,A*59
$GNGGA,082205.50,4838.32993,N,00859.02856,E,1,06,1.38,497.7,M,47.5,M,,*45
$GNGSA,A,3,12,29,32,25,31,,,,,,,,2.72,1.38,2.34*18
$GNVTG,,T,,M,0.218,N,0.403,K,A*31
$SMGPS,0.1 m,+0.04 m/s,5.58 VRx,0.000 km,2 m,43.1 °,1:-- (  0.0 km/h)*E4
$SMGPS2,-0.22 X,+0.07 Y,+0.98 Z,0 ENL,1085 us,7.5 kmh,953.44 hPa,953.16 hPa,+0.07 m/s*31
$GNRMC,082206.00,A,4838.32989,N,00859.02851,E,0.37,,220521,,,A*56
$GNGGA,082206.00,4838.32989,N,00859.02851,E,1,06,1.38,497.6,M,47.5,M,,*4E
$GNGSA,A,3,12,29,32,25,31,,,,,,,,2.72,1.38,2.34*18
$GNVTG,,T,,M,0.342,N,0.633,K,A*3E
$SMGPS,0.0 m,+0.07 m/s,5.58 VRx,0.000 km,2 m,27.9 °,1:-- (  0.0 km/h)*EC
$SMGPS2,-0.22 X,+0.07 Y,+0.98 Z,0 ENL,1084 us,9.1 kmh,953.44 hPa,953.13 hPa,+0.19 m/s*30
$GNRMC,082206.50,A,4838.32986,N,00859.02854,E,0.35,,220521,,,A*5B
$GNGGA,082206.50,4838.32986,N,00859.02854,E,1,06,1.38,497.5,M,47.5,M,,*42
$GNGSA,A,3,12,29,32,25,31,,,,,,,,2.72,1.38,2.34*18
$GNVTG,,T,,M,0.349,N,0.645,K,A*34
$SMGPS,-0.1 m,+0.01 m/s,5.58 VRx,0.000 km,2 m,26.4 °,1:-- (  0.0 km/h)*CA
$SMGPS2,-0.22 X,+0.07 Y,+0.98 Z,0 ENL,1085 us,9.7 kmh,953.45 hPa,953.13 hPa,+0.12 m/s*3D
$GNRMC,082207.00,A,4838.32990,N,00859.02848,E,0.50,,220521,,,A*56
$GNGGA,082207.00,4838.32990,N,00859.02848,E,1,06,1.38,497.3,M,47.5,M,,*4A
$GNGSA,A,3,12,29,32,25,31,,,,,,,,2.72,1.38,2.34*18
$GNVTG,,T,,M,0.449,N,0.831,K,A*3E
$SMGPS,-0.3 m,-0.11 m/s,5.58 VRx,0.000 km,2 m,27.9 °,1:-- (  0.0 km/h)*C3
$SMGPS2,-0.22 X,+0.07 Y,+0.98 Z,0 ENL,1085 us,11.5 kmh,953.48 hPa,953.16 hPa,+0.09 m/s*04
$GNRMC,082207.50,A,4838.32981,N,00859.02845,E,0.22,,220521,,,A*5B
$GNGGA,082207.50,4838.32981,N,00859.02845,E,1,06,1.38,497.6,M,47.5,M,,*47
$GNGSA,A,3,12,29,32,25,31,,,,,,,,2.72,1.38,2.34*18
$GNVTG,,T,,M,0.204,N,0.377,K,A*38
$SMGPS,0.0 m,-0.05 m/s,5.58 VRx,0.000 km,2 m,26.4 °,1:-- (  0.0 km/h)*E4
$SMGPS2,-0.22 X,+0.07 Y,+0.97 Z,0 ENL,1084 us,8.8 kmh,953.44 hPa,953.15 hPa,-0.09 m/s*36
$GNRMC,082208.00,A,4838.32994,N,00859.02841,E,0.36,,220521,,,A*54
$GNGGA,082208.00,4838.32994,N,00859.02841,E,1,06,1.38,497.6,M,47.5,M,,*4D
$GNGSA,A,3,12,29,32,25,31,,,,,,,,2.72,1.38,2.34*18
$GNVTG,,T,,M,0.307,N,0.569,K,A*33
$SMGPS,0.0 m,+0.10 m/s,5.58 VRx,0.000 km,2 m,37.6 °,1:-- (  0.0 km/h)*E4
$SMGPS2,-0.21 X,+0.07 Y,+0.98 Z,0 ENL,1085 us,8.6 kmh,953.44 hPa,953.13 hPa,+0.00 m/s*3C
$GNRMC,082208.50,A,4838.33013,N,00859.02844,E,0.37,,220521,,,A*52
$GNGGA,082208.50,4838.33013,N,00859.02844,E,1,06,1.38,497.5,M,47.5,M,,*49
$GNGSA,A,3,12,29,32,25,31,,,,,,,,2.72,1.38,2.34*18
$GNVTG,,T,,M,0.360,N,0.668,K,A*30
$SMGPS,-0.1 m,+0.05 m/s,5.58 VRx,0.000 km,2 m,23.2 °,1:-- (  0.0 km/h)*CD
$SMGPS2,-0.22 X,+0.07 Y,+0.98 Z,0 ENL,1084 us,10.0 kmh,953.45 hPa,953.15 hPa,+0.12 m/s*05
$GNRMC,082209.00,A,4838.33016,N,00859.02844,E,0.45,,220521,,,A*56
$GNGGA,082209.00,4838.33016,N,00859.02844,E,1,06,1.38,497.5,M,47.5,M,,*48
$GNGSA,A,3,12,29,32,25,31,,,,,,,,2.72,1.38,2.34*18
$GNVTG,,T,,M,0.438,N,0.811,K,A*3A
$SMGPS,-0.1 m,-0.06 m/s,5.58 VRx,0.000 km,2 m,24.8 °,1:-- (  0.0 km/h)*C5
$SMGPS2,-0.22 X,+0.07 Y,+0.98 Z,0 ENL,1085 us,11.8 kmh,953.45 hPa,953.10 hPa,+0.13 m/s*09
$GNRMC,082209.50,A,4838.33019,N,00859.02842,E,0.29,,220521,,,A*50
$GNGGA,082209.50,4838.33019,N,00859.02842,E,1,06,1.38,497.5,M,47.5,M,,*44
$GNGSA,A,3,12,29,32,25,31,,,,,,,,2.72,1.38,2.34*18
$GNVTG,,T,,M,0.273,N,0.506,K,A*38
$SMGPS,-0.1 m,-0.05 m/s,5.58 VRx,0.000 km,2 m,24.8 °,1:-- (  0.0 km/h)*C6
$SMGPS2,-0.22 X,+0.06 Y,+0.98 Z,0 ENL,1085 us,12.2 kmh,953.45 hPa,953.12 hPa,+0.18 m/s*08
$GNRMC,082210.00,A,4838.33013,N,00859.02845,E,0.29,,220521,,,A*50
$GNGGA,082210.00,4838.33013,N,00859.02845,E,1,06,1.38,497.4,M,47.5,M,,*45
$GNGSA,A,3,12,29,32,25,31,,,,,,,,2.72,1.38,2.35*19
$GNVTG,,T,,M,0.272,N,0.503,K,A*3C
$SMGPS,-0.2 m,-0.05 m/s,5.58 VRx,0.000 km,2 m,24.8 °,1:-- (  0.0 km/h)*C5
$SMGPS2,-0.22 X,+0.07 Y,+0.97 Z,0 ENL,1085 us,14.6 kmh,953.45 hPa,953.12 hPa,+0.18 m/s*04
$GNRMC,082210.50,A,4838.33004,N,00859.02842,E,0.65,,220521,,,A*5C
$GNGGA,082210.50,4838.33004,N,00859.02842,E,1,06,1.38,497.6,M,47.5,M,,*43
$GNGSA,A,3,12,29,32,25,31,,,,,,,,2.72,1.38,2.35*19
$GNVTG,,T,,M,0.641,N,1.187,K,A*31
$SMGPS,0.0 m,-0.06 m/s,5.58 VRx,0.000 km,2 m,24.8 °,1:-- (  0.0 km/h)*E9
$SMGPS2,-0.22 X,+0.07 Y,+0.98 Z,0 ENL,1085 us,13.4 kmh,953.44 hPa,953.15 hPa,+0.09 m/s*08
$GNRMC,082211.00,A,4838.32999,N,00859.02841,E,0.47,,220521,,,A*57
$GNGGA,082211.00,4838.32999,N,00859.02841,E,1,06,1.38,497.7,M,47.5,M,,*49
$GNGSA,A,3,12,29,32,25,31,,,,,,,,2.72,1.38,2.35*19
$GNVTG,,T,,M,0.407,N,0.753,K,A*3F
$SMGPS,0.1 m,+0.12 m/s,5.58 VRx,0.000 km,2 m,24.8 °,1:-- (  0.0 km/h)*EB
$SMGPS2,-0.22 X,+0.07 Y,+0.98 Z,0 ENL,1085 us,0.0 kmh,953.43 hPa,953.17 hPa,-0.28 m/s*3E
$GNRMC,082211.50,A,4838.32985,N,00859.02846,E,0.41,,220521,,,A*5E
$GNGGA,082211.50,4838.32985,N,00859.02846,E,1,06,1.38,497.7,M,47.5,M,,*46
$GNGSA,A,3,12,29,32,25,31,,,,,,,,2.72,1.38,2.35*19
$GNVTG,,T,,M,0.316,N,0.585,K,A*31
$SMGPS,0.1 m,+0.13 m/s,5.58 VRx,0.000 km,2 m,23.2 °,1:-- (  0.0 km/h)*E7
$SMGPS2,-0.22 X,+0.07 Y,+0.97 Z,0 ENL,1085 us,3.3 kmh,953.43 hPa,953.15 hPa,-0.23 m/s*38
$GNRMC,082212.00,A,4838.32979,N,00859.02853,E,0.65,,220521,,,A*59
$GNGGA,082212.00,4838.32979,N,00859.02853,E,1,06,1.38,497.7,M,47.5,M,,*47
$GNGSA,A,3,12,29,32,25,31,,,,,,,,2.72,1.38,2.35*19
$GNVTG,,T,,M,0.636,N,1.178,K,A*31
$SMGPS,0.1 m,+0.07 m/s,5.58 VRx,0.000 km,2 m,24.8 °,1:-- (  0.0 km/h)*EF
$SMGPS2,-0.22 X,+0.07 Y,+0.97 Z,0 ENL,1084 us,5.7 kmh,953.43 hPa,953.15 hPa,-0.08 m/s*32
$GNRMC,082212.50,A,4838.32966,N,00859.02852,E,0.43,,220521,,,A*57
$GNGGA,082212.50,4838.32966,N,00859.02852,E,1,06,1.38,497.6,M,47.5,M,,*4C
$GNGSA,A,3,12,29,32,25,31,,,,,,,,2.72,1.38,2.35*19
$GNVTG,,T,,M,0.428,N,0.793,K,A*3E
$SMGPS,0.0 m,+0.02 m/s,5.58 VRx,0.000 km,2 m,39.6 °,1:-- (  0.0 km/h)*E9
$SMGPS2,-0.22 X,+0.07 Y,+0.98 Z,0 ENL,1084 us,5.7 kmh,953.44 hPa,953.16 hPa,-0.09 m/s*38
$GNRMC,082213.00,A,4838.32978,N,00859.02853,E,0.33,,220521,,,A*5A
$GNGGA,082213.00,4838.32978,N,00859.02853,E,1,06,1.38,497.7,M,47.5,M,,*47
$GNGSA,A,3,12,29,32,25,31,,,,,,,,2.72,1.38,2.35*19
$GNVTG,,T,,M,0.333,N,0.616,K,A*3F
$SMGPS,0.1 m,-0.02 m/s,5.58 VRx,0.000 km,2 m,39.6 °,1:-- (  0.0 km/h)*EE
$SMGPS2,-0.22 X,+0.07 Y,+0.98 Z,0 ENL,1084 us,7.5 kmh,953.43 hPa,953.15 hPa,-0.04 m/s*31
$GNRMC,082213.50,A,4838.32990,N,00859.02858,E,0.53,,220521,,,A*54
$GNGGA,082213.50,4838.32990,N,00859.02858,E,1,06,1.38,497.7,M,47.5,M,,*4F
$GNGSA,A,3,12,29,32,25,31,,,,,,,,2.73,1.38,2.35*18
$GNVTG,,T,,M,0.519,N,0.961,K,A*3E
$SMGPS,0.1 m,+0.06 m/s,5.58 VRx,0.000 km,2 m,39.6 °,1:-- (  0.0 km/h)*EC
$SMGPS2,-0.22 X,+0.07 Y,+0.98 Z,0 ENL,1085 us,9.8 kmh,953.43 hPa,953.09 hPa,+0.20 m/s*3E
$GNRMC,082214.00,A,4838.32991,N,00859.02856,E,0.46,,220521,,,A*5D
$GNGGA,082214.00,4838.32991,N,00859.02856,E,1,06,1.38,497.7,M,47.5,M,,*42
$GNGSA,A,3,12,29,32,25,31,,,,,,,,2.73,1.38,2.35*18
$GNVTG,,T,,M,0.459,N,0.850,K,A*38
$SMGPS,0.1 m,+0.01 m/s,5.58 VRx,0.000 km,2 m,27.9 °,1:-- (  0.0 km/h)*EB
$SMGPS2,-0.22 X,+0.07 Y,+0.98 Z,0 ENL,1085 us,9.1 kmh,953.44 hPa,953.14 hPa,+0.06 m/s*38
$GNRMC,082214.50,A,4838.33006,N,00859.02860,E,0.46,,220521,,,A*5B
$GNGGA,082214.50,4838.33006,N,00859.02860,E,1,06,1.38,497.8,M,47.5,M,,*4B
$GNGSA,A,3,12,29,32,25,31,,,,,,,,2.73,1.38,2.35*18
$GNVTG,,T,,M,0.462,N,0.856,K,A*36
$SMGPS,0.2 m,+0.02 m/s,5.58 VRx,0.000 km,2 m,27.9 °,1:-- (  0.0 km/h)*EB
$SMGPS2,-0.22 X,+0.07 Y,+0.99 Z,0 ENL,1085 us,10.1 kmh,953.41 hPa,953.11 hPa,+0.07 m/s*00
$GNRMC,082215.00,A,4838.32985,N,00859.02863,E,0.29,,220521,,,A*56
$GNGGA,082215.00,4838.32985,N,00859.02863,E,1,06,1.38,497.9,M,47.5,M,,*4E
$GNGSA,A,3,12,29,32,25,31,,,,,,,,2.73,1.38,2.35*18
$GNVTG,,T,,M,0.253,N,0.468,K,A*33
$SMGPS,0.3 m,+0.08 m/s,5.58 VRx,0.000 km,2 m,29.3 °,1:-- (  0.0 km/h)*E4
$SMGPS2,-0.22 X,+0.07 Y,+0.98 Z,0 ENL,1084 us,10.1 kmh,953.41 hPa,953.12 hPa,+0.15 m/s*00
$GNRMC,082215.50,A,4838.32980,N,00859.02868,E,0.33,,220521,,,A*56
$GNGGA,082215.50,4838.32980,N,00859.02868,E,1,06,1.38,497.9,M,47.5,M,,*45
$GNGSA,A,3,12,29,32,25,31,,,,,,,,2.73,1.38,2.35*18
$GNVTG,,T,,M,0.272,N,0.504,K,A*3B
$SMGPS,0.3 m,+0.10 m/s,5.58 VRx,0.000 km,2 m,29.3 °,1:-- (  0.0 km/h)*ED
$SMGPS2,-0.22 X,+0.07 Y,+0.97 Z,0 ENL,1085 us,9.8 kmh,953.41 hPa,953.12 hPa,+0.05 m/s*3E
$GNRMC,082216.00,A,4838.32982,N,00859.02867,E,0.56,,220521,,,A*5E
$GNGGA,082216.00,4838.32982,N,00859.02867,E,1,06,1.38,497.8,M,47.5,M,,*4F
$GNGSA,A,3,12,29,32,25,31,,,,,,,,2.73,1.38,2.35*18
$GNVTG,,T,,M,0.554,N,1.027,K,A*3D
$SMGPS,0.2 m,+0.03 m/s,5.58 VRx,0.000 km,2 m,44.7 °,1:-- (  0.0 km/h)*E1
$SMGPS2,-0.22 X,+0.07 Y,+0.97 Z,0 ENL,1085 us,9.0 kmh,953.42 hPa,953.13 hPa,-0.03 m/s*34
$GNRMC,082216.50,A,4838.32983,N,00859.02864,E,0.49,,220521,,,A*57
$GNGGA,082216.50,4838.32983,N,00859.02864,E,1,06,1.38,497.7,M,47.5,M,,*47
$GNGSA,A,3,12,29,32,25,31,,,,,,,,2.73,1.38,2.35*18
$GNVTG,,T,,M,0.486,N,0.901,K,A*3F
$SMGPS,0.1 m,-0.01 m/s,5.58 VRx,0.000 km,2 m,44.7 °,1:-- (  0.0 km/h)*E6
$SMGPS2,-0.22 X,+0.07 Y,+0.98 Z,0 ENL,1084 us,8.7 kmh,953.43 hPa,953.11 hPa,-0.04 m/s*38
$GNRMC,082217.00,A,4838.32994,N,00859.02861,E,0.54,,220521,,,A*5C
$GNGGA,082217.00,4838.32994,N,00859.02861,E,1,06,1.38,497.5,M,47.5,M,,*42
$GNGSA,A,3,12,29,32,25,31,,,,,,,,2.73,1.38,2.35*18
$GNVTG,,T,,M,0.509,N,0.943,K,A*3F
$SMGPS,-0.1 m,-0.09 m/s,5.58 VRx,0.000 km,2 m,43.1 °,1:-- (  0.0 km/h)*C2
$SMGPS2,-0.22 X,+0.07 Y,+0.98 Z,0 ENL,1084 us,9.8 kmh,953.45 hPa,953.11 hPa,-0.04 m/s*30
$GNRMC,082217.50,A,4838.33003,N,00859.02859,E,0.31,,220521,,,A*57
$GNGGA,082217.50,4838.33003,N,00859.02859,E,1,06,1.38,497.7,M,47.5,M,,*48
$GNGSA,A,3,12,29,32,25,31,,,,,,,,2.73,1.38,2.35*18
$GNVTG,,T,,M,0.233,N,0.432,K,A*3A
$SMGPS,0.1 m,-0.10 m/s,5.58 VRx,0.000 km,2 m,29.3 °,1:-- (  0.0 km/h)*E9
$SMGPS2,-0.22 X,+0.07 Y,+0.98 Z,0 ENL,1085 us,8.4 kmh,953.43 hPa,953.16 hPa,-0.09 m/s*30
$GNRMC,082218.00,A,4838.32995,N,00859.02867,E,0.27,,220521,,,A*50
$GNGGA,082218.00,4838.32995,N,00859.02867,E,1,06,1.38,497.7,M,47.5,M,,*48
$GNGSA,A,3,12,29,32,25,31,,,,,,,,2.73,1.38,2.35*18
$GNVTG,,T,,M,0.269,N,0.497,K,A*3A
$SMGPS,0.1 m,+0.01 m/s,5.58 VRx,0.000 km,2 m,27.9 °,1:-- (  0.0 km/h)*EB
$SMGPS2,-0.22 X,+0.07 Y,+0.98 Z,0 ENL,1085 us,8.3 kmh,953.43 hPa,953.13 hPa,-0.09 m/s*32
$GNRMC,082218.50,A,4838.32998,N,00859.02872,E,0.45,,220521,,,A*58
$GNGGA,082218.50,4838.32998,N,00859.02872,E,1,06,1.38,497.6,M,47.5,M,,*45
$GNGSA,A,3,12,29,32,25,31,,,,,,,,2.73,1.38,2.35*18
$GNVTG,,T,,M,0.449,N,0.831,K,A*3E
$SMGPS,0.0 m,-0.02 m/s,5.58 VRx,0.000 km,2 m,30.7 °,1:-- (  0.0 km/h)*E7
$SMGPS2,-0.22 X,+0.07 Y,+0.98 Z,0 ENL,1085 us,9.3 kmh,953.43 hPa,953.13 hPa,+0.02 m/s*3E
$GNRMC,082219.00,A,4838.33005,N,00859.02874,E,0.31,,220521,,,A*55
$GNGGA,082219.00,4838.33005,N,00859.02874,E,1,06,1.38,497.6,M,47.5,M,,*4B
$GNGSA,A,3,12,29,32,25,31,,,,,,,,2.73,1.38,2.35*18
$GNVTG,,T,,M,0.313,N,0.581,K,A*30
$SMGPS,0.0 m,-0.02 m/s,5.58 VRx,0.000 km,3 m,32.1 °,1:-- (  0.0 km/h)*E2
$SMGPS2,-0.22 X,+0.07 Y,+0.98 Z,0 ENL,1084 us,9.1 kmh,953.44 hPa,953.12 hPa,-0.01 m/s*3E
$GNRMC,082219.50,A,4838.33015,N,00859.02873,E,0.22,,220521,,,A*54
$GNGGA,082219.50,4838.33015,N,00859.02873,E,1,06,1.38,497.6,M,47.5,M,,*48
$GNGSA,A,3,12,29,32,25,31,,,,,,,,2.73,1.38,2.35*18
$GNVTG,,T,,M,0.219,N,0.406,K,A*35
$SMGPS,0.0 m,-0.02 m/s,5.59 VRx,0.000 km,3 m,32.1 °,1:-- (  0.0 km/h)*E3
$SMGPS2,-0.22 X,+0.07 Y,+0.98 Z,0 ENL,1084 us,8.6 kmh,953.44 hPa,953.13 hPa,-0.05 m/s*3D
$GNRMC,082220.00,A,4838.33033,N,00859.02882,E,0.31,,220521,,,A*53
$GNGGA,082220.00,4838.33033,N,00859.02882,E,1,06,1.38,497.6,M,47.5,M,,*4D
$GNGSA,A,3,12,29,32,25,31,,,,,,,,2.73,1.38,2.35*18
$GNVTG,,T,,M,0.306,N,0.567,K,A*3C
$SMGPS,0.0 m,-0.01 m/s,5.58 VRx,0.000 km,3 m,32.1 °,1:-- (  0.0 km/h)*E1
$SMGPS2,-0.22 X,+0.07 Y,+0.98 Z,0 ENL,1084 us,8.0 kmh,953.44 hPa,953.16 hPa,-0.04 m/s*3F
$GNRMC,082220.50,A,4838.33028,N,00859.02886,E,0.30,,220521,,,A*59
$GNGGA,082220.50,4838.33028,N,00859.02886,E,1,06,1.38,497.6,M,47.5,M,,*46
$GNGSA,A,3,12,29,32,25,31,,,,,,,,2.73,1.38,2.35*18
$GNVTG,,T,,M,0.303,N,0.560,K,A*3E
$SMGPS,-0.0 m,+0.00 m/s,5.58 VRx,0.000 km,3 m,25.3 °,1:-- (  0.0 km/h)*CF
$SMGPS2,-0.22 X,+0.07 Y,+0.98 Z,0 ENL,1085 us,6.6 kmh,953.43 hPa,953.16 hPa,-0.09 m/s*3C
$GNRMC,082221.00,A,4838.33005,N,00859.02886,E,0.42,,220521,,,A*57
$GNGGA,082221.00,4838.33005,N,00859.02886,E,1,06,1.38,497.6,M,47.5,M,,*4D
$GNGSA,A,3,12,29,32,25,31,,,,,,,,2.73,1.38,2.35*18
$GNVTG,,T,,M,0.418,N,0.774,K,A*34
$SMGPS,-0.0 m,+0.01 m/s,5.58 VRx,0.000 km,3 m,34.8 °,1:-- (  0.0 km/h)*C5
$SMGPS2,-0.22 X,+0.07 Y,+0.98 Z,0 ENL,1085 us,6.0 kmh,953.44 hPa,953.16 hPa,-0.08 m/s*3C
$GNRMC,082221.50,A,4838.32990,N,00859.02885,E,0.14,,220521,,,A*56
$GNGGA,082221.50,4838.32990,N,00859.02885,E,1,06,1.38,497.6,M,47.5,M,,*4F
$GNGSA,A,3,12,29,32,25,31,,,,,,,,2.73,1.38,2.35*18
$GNVTG,,T,,M,0.139,N,0.258,K,A*39
$SMGPS,-0.0 m,+0.00 m/s,5.58 VRx,0.000 km,3 m,34.8 °,1:-- (  0.0 km/h)*C4
$SMGPS2,-0.22 X,+0.07 Y,+0.98 Z,0 ENL,1084 us,0.9 kmh,953.44 hPa,953.16 hPa,-0.08 m/s*32
$GNRMC,082222.00,A,4838.33008,N,00859.02891,E,0.60,,220521,,,A*5F
$GNGGA,082222.00,4838.33008,N,00859.02891,E,1,06,1.38,497.6,M,47.5,M,,*45
$GNGSA,A,3,12,29,32,25,31,,,,,,,,2.73,1.38,2.35*18
$GNVTG,,T,,M,0.594,N,1.101,K,A*34
$SMGPS,-0.0 m,-0.02 m/s,5.58 VRx,0.000 km,3 m,34.8 °,1:-- (  0.0 km/h)*C0
$SMGPS2,-0.22 X,+0.08 Y,+0.98 Z,0 ENL,1085 us,3.9 kmh,953.44 hPa,953.16 hPa,-0.06 m/s*31
$GNRMC,082222.50,A,4838.32994,N,00859.02893,E,0.37,,220521,,,A*57
$GNGGA,082222.50,4838.32994,N,00859.02893,E,1,06,1.38,497.6,M,47.5,M,,*4F
$GNGSA,A,3,12,29,32,25,31,,,,,,,,2.73,1.38,2.35*18
$GNVTG,,T,,M,0.368,N,0.682,K,A*3C
$SMGPS,0.0 m,-0.03 m/s,5.58 VRx,0.000 km,3 m,36.0 °,1:-- (  0.0 km/h)*E6
$SMGPS2,-0.22 X,+0.07 Y,+0.98 Z,3 ENL,1084 us,4.6 kmh,953.43 hPa,953.17 hPa,-0.05 m/s*31
$GNRMC,082223.00,A,4838.32997,N,00859.02891,E,0.65,,220521,,,A*55
$GNGGA,082223.00,4838.32997,N,00859.02891,E,1,06,1.38,497.7,M,47.5,M,,*4B
$GNGSA,A,3,12,29,32,25,31,,,,,,,,2.73,1.38,2.35*18
$GNVTG,,T,,M,0.650,N,1.204,K,A*39
$SMGPS,0.1 m,+0.03 m/s,5.58 VRx,0.000 km,3 m,36.0 °,1:-- (  0.0 km/h)*E1
$SMGPS2,-0.22 X,+0.07 Y,+0.97 Z,0 ENL,1084 us,4.7 kmh,953.42 hPa,953.15 hPa,+0.00 m/s*3C
$GNRMC,082223.50,A,4838.33003,N,00859.02890,E,0.55,,220521,,,A*57
$GNGGA,082223.50,4838.33003,N,00859.02890,E,1,06,1.38,497.6,M,47.5,M,,*4B
$GNGSA,A,3,12,29,32,25,31,,,,,,,,2.73,1.38,2.35*18
$GNVTG,,T,,M,0.524,N,0.970,K,A*30
$SMGPS,0.0 m,+0.08 m/s,5.58 VRx,0.000 km,3 m,36.0 °,1:-- (  0.0 km/h)*EB
$SMGPS2,-0.21 X,+0.07 Y,+0.98 Z,0 ENL,1084 us,1.0 kmh,953.42 hPa,953.16 hPa,+0.02 m/s*33
$GNRMC,082224.00,A,4838.33002,N,00859.02890,E,0.42,,220521,,,A*52
$GNGGA,082224.00,4838.33002,N,00859.02890,E,1,06,1.38,497.6,M,47.5,M,,*48
$GNGSA,A,3,12,29,32,25,31,,,,,,,,2.73,1.38,2.35*18
$GNVTG,,T,,M,0.408,N,0.757,K,A*34
$SMGPS,0.0 m,+0.05 m/s,5.58 VRx,0.000 km,3 m,34.8 °,1:-- (  0.0 km/h)*EC
$SMGPS2,-0.22 X,+0.07 Y,+0.98 Z,0 ENL,1085 us,7.2 kmh,953.42 hPa,953.09 hPa,+0.22 m/s*39
$GNRMC,082224.50,A,4838.33003,N,00859.02884,E,0.43,,220521,,,A*52
$GNGGA,082224.50,4838.33003,N,00859.02884,E,1,06,1.38,497.5,M,47.5,M,,*4A
$GNGSA,A,3,12,29,32,25,31,,,,,,,,2.73,1.38,2.35*18
$GNVTG,,T,,M,0.425,N,0.786,K,A*37
$SMGPS,-0.1 m,-0.01 m/s,5.58 VRx,0.000 km,3 m,34.8 °,1:-- (  0.0 km/h)*C2
$SMGPS2,-0.22 X,+0.07 Y,+0.98 Z,0 ENL,1085 us,7.5 kmh,953.43 hPa,953.15 hPa,+0.10 m/s*33
$GNRMC,082225.00,A,4838.32998,N,00859.02881,E,0.50,,220521,,,A*5B
$GNGGA,082225.00,4838.32998,N,00859.02881,E,1,06,1.38,497.4,M,47.5,M,,*40
$GNGSA,A,3,12,29,32,25,31,,,,,,,,2.73,1.38,2.35*18
$GNVTG,,T,,M,0.493,N,0.913,K,A*38
$SMGPS,-0.2 m,-0.03 m/s,5.58 VRx,0.000 km,3 m,34.8 °,1:-- (  0.0 km/h)*C3
$SMGPS2,-0.22 X,+0.07 Y,+0.98 Z,0 ENL,1084 us,7.3 kmh,953.44 hPa,953.14 hPa,-0.06 m/s*33
$GNRMC,082225.50,A,4838.32987,N,00859.02883,E,0.19,,220521,,,A*5F
$GNGGA,082225.50,4838.32987,N,00859.02883,E,1,06,1.38,497.5,M,47.5,M,,*48
$GNGSA,A,3,12,29,32,25,31,,,,,,,,2.73,1.38,2.35*18
$GNVTG,,T,,M,0.162,N,0.299,K,A*3A
$SMGPS,-0.1 m,-0.05 m/s,5.58 VRx,0.000 km,3 m,33.5 °,1:-- (  0.0 km/h)*CC
$SMGPS2,-0.22 X,+0.07 Y,+0.97 Z,0 ENL,1085 us,8.4 kmh,953.44 hPa,953.14 hPa,-0.01 m/s*32
$GNRMC,082226.00,A,4838.32988,N,00859.02887,E,0.27,,220521,,,A*5F
$GNGGA,082226.00,4838.32988,N,00859.02887,E,1,06,1.38,497.4,M,47.5,M,,*44
$GNGSA,A,3,12,29,32,25,31,,,,,,,,2.73,1.38,2.35*18
$GNVTG,,T,,M,0.261,N,0.483,K,A*37
$SMGPS,-0.2 m,-0.03 m/s,5.58 VRx,0.000 km,3 m,33.5 °,1:-- (  0.0 km/h)*C9
$SMGPS2,-0.22 X,+0.07 Y,+0.98 Z,0 ENL,1085 us,7.7 kmh,953.44 hPa,953.16 hPa,-0.05 m/s*37
$GNRMC,082226.50,A,4838.32994,N,00859.02886,E,0.25,,220521,,,A*54
$GNGGA,082226.50,4838.32994,N,00859.02886,E,1,06,1.38,497.4,M,47.5,M,,*4D
$GNGSA,A,3,12,29,32,25,31,,,,,,,,2.73,1.38,2.35*18
$GNVTG,,T,,M,0.227,N,0.421,K,A*3D
$SMGPS,-0.2 m,-0.05 m/s,5.58 VRx,0.000 km,3 m,34.8 °,1:-- (  0.0 km/h)*C5
$SMGPS2,-0.22 X,+0.07 Y,+0.97 Z,0 ENL,1085 us,7.5 kmh,953.44 hPa,953.16 hPa,-0.08 m/s*37
$GNRMC,082227.00,A,4838.33006,N,00859.02890,E,0.20,,220521,,,A*51
$GNGGA,082227.00,4838.33006,N,00859.02890,E,1,06,1.38,497.6,M,47.5,M,,*4F
$GNGSA,A,3,12,29,32,25,31,,,,,,,,2.73,1.38,2.35*18
$GNVTG,,T,,M,0.190,N,0.351,K,A*32
$SMGPS,-0.0 m,-0.04 m/s,5.58 VRx,0.000 km,3 m,34.8 °,1:-- (  0.0 km/h)*C6
$SMGPS2,-0.22 X,+0.07 Y,+0.97 Z,0 ENL,1085 us,9.4 kmh,953.44 hPa,953.14 hPa,+0.08 m/s*3C
$GNRMC,082227.50,A,4838.33017,N,00859.02889,E,0.30,,220521,,,A*5D
$GNGGA,082227.50,4838.33017,N,00859.02889,E,1,06,1.38,497.4,M,47.5,M,,*40
$GNGSA,A,3,12,29,32,25,31,,,,,,,,2.73,1.38,2.35*18
$GNVTG,,T,,M,0.280,N,0.519,K,A*3A
$SMGPS,-0.2 m,-0.06 m/s,5.58 VRx,0.000 km,3 m,34.8 °,1:-- (  0.0 km/h)*C6
$SMGPS2,-0.22 X,+0.07 Y,+0.97 Z,0 ENL,1084 us,9.7 kmh,953.46 hPa,953.16 hPa,-0.01 m/s*31
$GNRMC,082228.00,A,4838.33016,N,00859.02887,E,0.23,,220521,,,A*5A
$GNGGA,082228.00,4838.33016,N,00859.02887,E,1,06,1.38,497.5,M,47.5,M,,*44
$GNGSA,A,3,12,29,32,25,31,,,,,,,,2.73,1.38,2.35*18
$GNVTG,,T,,M,0.188,N,0.349,K,A*32
$SMGPS,-0.1 m,-0.07 m/s,5.58 VRx,0.000 km,3 m,34.8 °,1:-- (  0.0 km/h)*C4
$SMGPS2,-0.22 X,+0.07 Y,+0.97 Z,0 ENL,1084 us,10.1 kmh,953.46 hPa,953.16 hPa,-0.01 m/s*0F
$GNRMC,082228.50,A,4838.33033,N,00859.02887,E,0.47,,220521,,,A*5A
$GNGGA,082228.50,4838.33033,N,00859.02887,E,1,06,1.38,497.4,M,47.5,M,,*47
$GNGSA,A,3,12,29,32,25,31,,,,,,,,2.73,1.38,2.36*1B
$GNVTG,,T,,M,0.445,N,0.825,K,A*37
$SMGPS,-0.2 m,-0.08 m/s,5.58 VRx,0.000 km,3 m,34.8 °,1:-- (  0.0 km/h)*C8
$SMGPS2,-0.22 X,+0.07 Y,+0.98 Z,0 ENL,1084 us,10.0 kmh,953.46 hPa,953.14 hPa,-0.06 m/s*04
$GNRMC,082229.00,A,4838.33014,N,00859.02886,E,0.51,,220521,,,A*5D
$GNGGA,082229.00,4838.33014,N,00859.02886,E,1,06,1.38,497.5,M,47.5,M,,*46
$GNGSA,A,3,12,29,32,25,31,,,,,,,,2.73,1.38,2.36*1B
$GNVTG,,T,,M,0.501,N,0.929,K,A*3B
$SMGPS,-0.1 m,-0.06 m/s,5.58 VRx,0.000 km,3 m,26.4 °,1:-- (  0.0 km/h)*CA
$SMGPS2,-0.22 X,+0.07 Y,+0.98 Z,0 ENL,1084 us,11.1 kmh,953.46 hPa,953.15 hPa,+0.05 m/s*00
$GNRMC,082229.50,A,4838.33000,N,00859.02883,E,0.43,,220521,,,A*5B
$GNGGA,082229.50,4838.33000,N,00859.02883,E,1,06,1.38,497.5,M,47.5,M,,*43
$GNGSA,A,3,12,29,32,25,31,,,,,,,,2.73,1.38,2.36*1B
$GNVTG,,T,,M,0.431,N,0.798,K,A*3D
$SMGPS,-0.1 m,+0.02 m/s,5.58 VRx,0.000 km,3 m,34.8 °,1:-- (  0.0 km/h)*C7
$SMGPS2,-0.22 X,+0.07 Y,+0.98 Z,0 ENL,1085 us,9.6 kmh,953.45 hPa,953.17 hPa,-0.02 m/s*3F
$GNRMC,082230.00,A,4838.33022,N,00859.02881,E,0.50,,220521,,,A*56
$GNGGA,082230.00,4838.33022,N,00859.02881,E,1,06,1.38,497.5,M,47.5,M,,*4C
$GNGSA,A,3,12,29,32,25,31,,,,,,,,2.73,1.38,2.36*1B
$GNVTG,,T,,M,0.497,N,0.921,K,A*3D
$SMGPS,-0.1 m,+0.01 m/s,5.58 VRx,0.000 km,3 m,33.5 °,1:-- (  0.0 km/h)*CE
$SMGPS2,-0.22 X,+0.07 Y,+0.97 Z,0 ENL,1085 us,8.6 kmh,953.46 hPa,953.17 hPa,-0.12 m/s*33
$GNRMC,082230.50,A,4838.33016,N,00859.02879,E,0.58,,220521,,,A*5B
$GNGGA,082230.50,4838.33016,N,00859.02879,E,1,06,1.38,497.4,M,47.5,M,,*48
$GNGSA,A,3,12,29,32,25,31,,,,,,,,2.73,1.38,2.36*1B
$GNVTG,,T,,M,0.569,N,1.055,K,A*36
$SMGPS,-0.2 m,-0.06 m/s,5.58 VRx,0.000 km,3 m,33.5 °,1:-- (  0.0 km/h)*CC
$SMGPS2,-0.22 X,+0.07 Y,+0.98 Z,0 ENL,1084 us,9.9 kmh,953.47 hPa,953.12 hPa,-0.04 m/s*30
$GNRMC,082231.00,A,4838.33023,N,00859.02878,E,0.21,,220521,,,A*56
$GNGGA,082231.00,4838.33023,N,00859.02878,E,1,06,1.38,497.5,M,47.5,M,,*4A
$GNGSA,A,3,12,29,32,25,31,,,,,,,,2.73,1.38,2.36*1B
$GNVTG,,T,,M,0.158,N,0.292,K,A*38
$SMGPS,-0.1 m,-0.07 m/s,5.58 VRx,0.000 km,3 m,33.5 °,1:-- (  0.0 km/h)*CE
$SMGPS2,-0.21 X,+0.07 Y,+0.98 Z,0 ENL,1084 us,12.3 kmh,953.47 hPa,953.11 hPa,+0.15 m/s*06
$GNRMC,082231.50,A,4838.33015,N,00859.02880,E,0.59,,220521,,,A*5E
$GNGGA,082231.50,4838.33015,N,00859.02880,E,1,06,1.38,497.5,M,47.5,M,,*4D
$GNGSA,A,3,12,29,32,25,31,,,,,,,,2.73,1.38,2.36*1B
$GNVTG,,T,,M,0.590,N,1.093,K,A*3A
$SMGPS,-0.1 m,-0.01 m/s,5.58 VRx,0.000 km,3 m,33.5 °,1:-- (  0.0 km/h)*C8
$SMGPS2,-0.22 X,+0.07 Y,+0.98 Z,0 ENL,1084 us,11.5 kmh,953.47 hPa,953.11 hPa,+0.07 m/s*03
$GNRMC,082232.00,A,4838.33019,N,00859.02876,E,0.61,,220521,,,A*56
$GNGGA,082232.00,4838.33019,N,00859.02876,E,1,06,1.38,497.6,M,47.5,M,,*4D
$GNGSA,A,3,12,29,32,25,31,,,,,,,,2.73,1.38,2.36*1B
$GNVTG,,T,,M,0.603,N,1.116,K,A*3F
$SMGPS,0.0 m,+0.04 m/s,5.58 VRx,0.000 km,3 m,33.5 °,1:-- (  0.0 km/h)*E7
$SMGPS2,-0.22 X,+0.07 Y,+0.97 Z,0 ENL,1085 us,9.4 kmh,953.45 hPa,953.17 hPa,-0.05 m/s*35
$GNRMC,082232.50,A,4838.32990,N,00859.02873,E,0.46,,220521,,,A*5A
$GNGGA,082232.50,4838.32990,N,00859.02873,E,1,06,1.38,497.5,M,47.5,M,,*47
$GNGSA,A,3,12,29,32,25,31,,,,,,,,2.73,1.38,2.36*1B
$GNVTG,,T,,M,0.440,N,0.814,K,A*30
$SMGPS,-0.1 m,+0.06 m/s,5.58 VRx,0.000 km,3 m,32.1 °,1:-- (  0.0 km/h)*CC
$SMGPS2,-0.21 X,+0.07 Y,+0.97 Z,0 ENL,1085 us,8.8 kmh,953.46 hPa,953.14 hPa,-0.10 m/s*3F
$GNRMC,082233.00,A,4838.33005,N,00859.02872,E,0.41,,220521,,,A*5C
$GNGGA,082233.00,4838.33005,N,00859.02872,E,1,06,1.38,497.6,M,47.5,M,,*45
$GNGSA,A,3,12,29,32,25,31,,,,,,,,2.73,1.38,2.36*1B
$GNVTG,,T,,M,0.407,N,0.753,K,A*3F
$SMGPS,-0.0 m,+0.01 m/s,5.58 VRx,0.000 km,3 m,32.1 °,1:-- (  0.0 km/h)*CA
$SMGPS2,-0.22 X,+0.07 Y,+0.98 Z,0 ENL,1085 us,8.0 kmh,953.45 hPa,953.18 hPa,-0.07 m/s*32
$GNRMC,082233.50,A,4838.33016,N,00859.02870,E,0.80,,220521,,,A*54
$GNGGA,082233.50,4838.33016,N,00859.02870,E,1,06,1.38,497.6,M,47.5,M,,*40
$GNGSA,A,3,12,29,32,25,31,,,,,,,,2.73,1.38,2.36*1B
$GNVTG,,T,,M,0.798,N,1.478,K,A*31
$SMGPS,-0.0 m,+0.01 m/s,5.58 VRx,0.000 km,3 m,32.1 °,1:-- (  0.0 km/h)*CA
$SMGPS2,-0.22 X,+0.07 Y,+0.98 Z,0 ENL,1084 us,7.3 kmh,953.45 hPa,953.17 hPa,-0.09 m/s*3E
$GNRMC,082234.00,A,4838.33009,N,00859.02864,E,0.79,,220521,,,A*5B
$GNGGA,082234.00,4838.33009,N,00859.02864,E,1,06,1.38,497.6,M,47.5,M,,*49
$GNGSA,A,3,12,29,32,25,31,,,,,,,,2.73,1.38,2.36*1B
$GNVTG,,T,,M,0.786,N,1.456,K,A*32
$SMGPS,-0.0 m,+0.00 m/s,5.58 VRx,0.000 km,2 m,30.7 °,1:-- (  0.0 km/h)*CE
$SMGPS2,-0.22 X,+0.07 Y,+0.98 Z,0 ENL,1085 us,6.4 kmh,953.45 hPa,953.17 hPa,-0.10 m/s*31
$GNRMC,082234.50,A,4838.32994,N,00859.02857,E,0.55,,220521,,,A*5C
$GNGGA,082234.50,4838.32994,N,00859.02857,E,1,06,1.38,497.5,M,47.5,M,,*43
$GNGSA,A,3,12,29,32,25,31,,,,,,,,2.73,1.38,2.36*1B
$GNVTG,,T,,M,0.548,N,1.015,K,A*31
$SMGPS,-0.1 m,-0.02 m/s,5.58 VRx,0.000 km,2 m,29.3 °,1:-- (  0.0 km/h)*C7
$SMGPS2,-0.22 X,+0.07 Y,+0.98 Z,0 ENL,1085 us,6.2 kmh,953.46 hPa,953.19 hPa,-0.08 m/s*33
$GNRMC,082235.00,A,4838.33034,N,00859.02855,E,0.69,,220521,,,A*57
$GNGGA,082235.00,4838.33034,N,00859.02855,E,1,06,1.38,497.4,M,47.5,M,,*46
$GNGSA,A,3,12,29,32,25,31,,,,,,,,2.74,1.38,2.36*1C
$GNVTG,,T,,M,0.686,N,1.271,K,A*30
$SMGPS,-0.2 m,-0.06 m/s,5.58 VRx,0.000 km,2 m,27.9 °,1:-- (  0.0 km/h)*C4
$SMGPS2,-0.22 X,+0.07 Y,+0.97 Z,0 ENL,1084 us,7.7 kmh,953.47 hPa,953.18 hPa,-0.04 m/s*35
$GNRMC,082235.50,A,4838.33019,N,00859.02853,E,0.31,,220521,,,A*56
$GNGGA,082235.50,4838.33019,N,00859.02853,E,1,06,1.38,497.5,M,47.5,M,,*4B
$GNGSA,A,3,12,29,32,25,31,,,,,,,,2.74,1.38,2.36*1C
$GNVTG,,T,,M,0.282,N,0.523,K,A*31
$SMGPS,-0.1 m,-0.06 m/s,5.58 VRx,0.000 km,3 m,20.7 °,1:-- (  0.0 km/h)*CF
$SMGPS2,-0.22 X,+0.07 Y,+0.97 Z,0 ENL,1085 us,9.9 kmh,953.46 hPa,953.15 hPa,+0.09 m/s*33
$GNRMC,082236.00,A,4838.33004,N,00859.02855,E,0.38,,220521,,,A*53
$GNGGA,082236.00,4838.33004,N,00859.02855,E,1,06,1.38,497.6,M,47.5,M,,*44
$GNGSA,A,3,12,29,32,25,31,,,,,,,,2.74,1.38,2.36*1C
$GNVTG,,T,,M,0.377,N,0.697,K,A*36
$SMGPS,-0.0 m,+0.01 m/s,5.58 VRx,0.000 km,2 m,26.4 °,1:-- (  0.0 km/h)*CB
$SMGPS2,-0.22 X,+0.07 Y,+0.98 Z,0 ENL,1084 us,12.5 kmh,953.45 hPa,953.13 hPa,+0.31 m/s*05
$GNRMC,082236.50,A,4838.33009,N,00859.02852,E,0.46,,220521,,,A*55
$GNGGA,082236.50,4838.33009,N,00859.02852,E,1,06,1.38,497.6,M,47.5,M,,*4B
$GNGSA,A,3,12,29,32,25,31,,,,,,,,2.74,1.38,2.36*1C
$GNVTG,,T,,M,0.448,N,0.830,K,A*3E
$SMGPS,0.0 m,+0.05 m/s,5.58 VRx,0.000 km,2 m,27.9 °,1:-- (  0.0 km/h)*EE
$SMGPS2,-0.22 X,+0.08 Y,+0.98 Z,0 ENL,1084 us,12.5 kmh,953.45 hPa,953.15 hPa,+0.26 m/s*0A
$GNRMC,082237.00,A,4838.33011,N,00859.02853,E,0.36,,220521,,,A*5E
$GNGGA,082237.00,4838.33011,N,00859.02853,E,1,06,1.38,497.8,M,47.5,M,,*49
$GNGSA,A,3,12,29,32,25,31,,,,,,,,2.74,1.38,2.36*1C
$GNVTG,,T,,M,0.293,N,0.542,K,A*36
$SMGPS,0.2 m,+0.10 m/s,5.58 VRx,0.000 km,2 m,26.4 °,1:-- (  0.0 km/h)*E4
$SMGPS2,-0.22 X,+0.07 Y,+0.98 Z,0 ENL,1084 us,10.4 kmh,953.43 hPa,953.09 hPa,+0.02 m/s*0B
$GNRMC,082237.50,A,4838.32975,N,00859.02845,E,0.62,,220521,,,A*57
$GNGGA,082237.50,4838.32975,N,00859.02845,E,1,06,1.38,497.9,M,47.5,M,,*40
$GNGSA,A,3,12,29,32,25,31,,,,,,,,2.74,1.38,2.36*1C
$GNVTG,,T,,M,0.512,N,0.948,K,A*3E
$SMGPS,0.3 m,+0.18 m/s,5.58 VRx,0.000 km,2 m,26.4 °,1:-- (  0.0 km/h)*ED
$SMGPS2,-0.22 X,+0.07 Y,+0.97 Z,0 ENL,1084 us,9.3 kmh,953.41 hPa,953.14 hPa,+0.11 m/s*37
$GNRMC,082238.00,A,4838.32998,N,00859.02844,E,0.42,,220521,,,A*5D
$GNGGA,082238.00,4838.32998,N,00859.02844,E,1,06,1.38,497.9,M,47.5,M,,*48
$GNGSA,A,3,12,29,32,25,31,,,,,,,,2.74,1.38,2.36*1C
$GNVTG,,T,,M,0.220,N,0.407,K,A*3E
$SMGPS,0.3 m,+0.19 m/s,5.58 VRx,0.000 km,2 m,37.6 °,1:-- (  0.0 km/h)*EE
$SMGPS2,-0.22 X,+0.08 Y,+0.98 Z,0 ENL,1084 us,11.7 kmh,953.41 hPa,953.05 hPa,+0.25 m/s*0D
$GNRMC,082238.50,A,4838.32995,N,00859.02844,E,0.28,,220521,,,A*59
$GNGGA,082238.50,4838.32995,N,00859.02844,E,1,06,1.38,497.9,M,47.5,M,,*40
$GNGSA,A,3,12,29,32,25,31,,,,,,,,2.74,1.38,2.36*1C
$GNVTG,,T,,M,0.143,N,0.265,K,A*3A
$SMGPS,0.3 m,+0.13 m/s,5.59 VRx,0.000 km,2 m,24.8 °,1:-- (  0.0 km/h)*E9
$SMGPS2,-0.22 X,+0.07 Y,+0.97 Z,0 ENL,1085 us,12.1 kmh,953.41 hPa,953.10 hPa,+0.25 m/s*0D
$GNRMC,082239.00,A,4838.32994,N,00859.02847,E,0.41,,220521,,,A*50
$GNGGA,082239.00,4838.32994,N,00859.02847,E,1,06,1.38,498.0,M,47.5,M,,*40
$GNGSA,A,3,12,29,32,25,31,,,,,,,,2.74,1.38,2.36*1C
$GNVTG,,T,,M,0.386,N,0.714,K,A*32
$SMGPS,0.4 m,+0.07 m/s,5.58 VRx,0.000 km,2 m,24.8 °,1:-- (  0.0 km/h)*EA
$SMGPS2,-0.22 X,+0.07 Y,+0.98 Z,0 ENL,1085 us,10.7 kmh,953.41 hPa,953.08 hPa,+0.01 m/s*09
$GNRMC,082239.50,A,4838.32998,N,00859.02850,E,0.36,,220521,,,A*5F
$GNGGA,082239.50,4838.32998,N,00859.02850,E,1,06,1.38,498.4,M,47.5,M,,*4B
$GNGSA,A,3,12,29,32,25,31,,,,,,,,2.74,1.38,2.36*1C
$GNVTG,,T,,M,0.179,N,0.332,K,A*30
$SMGPS,0.8 m,+0.16 m/s,5.58 VRx,0.000 km,2 m,24.8 °,1:-- (  0.0 km/h)*E6
$SMGPS2,-0.22 X,+0.08 Y,+0.97 Z,0 ENL,1085 us,11.6 kmh,953.36 hPa,952.97 hPa,+0.21 m/s*0C
$GNRMC,082240.00,A,4838.33000,N,00859.02853,E,0.78,,220521,,,A*54
$GNGGA,082240.00,4838.33000,N,00859.02853,E,1,06,1.38,498.3,M,47.5,M,,*4D
$GNGSA,A,3,12,29,32,25,31,,,,,,,,2.74,1.38,2.36*1C
$GNVTG,,T,,M,0.571,N,1.057,K,A*3D
$SMGPS,0.7 m,+0.28 m/s,5.57 VRx,0.000 km,2 m,26.4 °,1:-- (  0.0 km/h)*E5
$SMGPS2,-0.22 X,+0.07 Y,+0.98 Z,0 ENL,1085 us,16.5 kmh,953.38 hPa,952.95 hPa,+0.91 m/s*0F
$GNRMC,082240.50,A,4838.32997,N,00859.02850,E,0.36,,220521,,,A*5E
$GNGGA,082240.50,4838.32997,N,00859.02850,E,1,06,1.38,498.2,M,47.5,M,,*4C
$GNGSA,A,3,12,29,32,25,31,,,,,,,,2.74,1.38,2.36*1C
$GNVTG,,T,,M,0.287,N,0.531,K,A*37
$SMGPS,0.6 m,+0.11 m/s,5.57 VRx,0.000 km,2 m,26.4 °,1:-- (  0.0 km/h)*EE
$SMGPS2,-0.22 X,+0.08 Y,+0.97 Z,10 ENL,1084 us,14.6 kmh,953.38 hPa,953.07 hPa,+0.18 m/s*35
$GNRMC,082241.00,A,4838.32997,N,00859.02851,E,0.33,,220521,,,A*5E
$GNGGA,082241.00,4838.32997,N,00859.02851,E,1,06,1.38,497.9,M,47.5,M,,*4D
$GNGSA,A,3,12,29,32,25,31,,,,,,,,2.74,1.38,2.36*1C
$GNVTG,,T,,M,0.286,N,0.530,K,A*37
$SMGPS,0.3 m,-0.08 m/s,5.57 VRx,0.000 km,2 m,26.4 °,1:-- (  0.0 km/h)*E5
$SMGPS2,-0.22 X,+0.07 Y,+0.98 Z,26 ENL,1084 us,0.0 kmh,953.41 hPa,953.16 hPa,-0.58 m/s*0F
$GNRMC,082241.50,A,4838.32997,N,00859.02855,E,0.61,,220521,,,A*58
$GNGGA,082241.50,4838.32997,N,00859.02855,E,1,06,1.38,498.1,M,47.5,M,,*4B
$GNGSA,A,3,12,29,32,25,31,,,,,,,,2.74,1.38,2.36*1C
$GNVTG,,T,,M,0.590,N,1.092,K,A*3B
$SMGPS,0.5 m,-0.08 m/s,5.58 VRx,0.000 km,2 m,26.4 °,1:-- (  0.0 km/h)*EC
$SMGPS2,-0.22 X,+0.08 Y,+0.97 Z,0 ENL,1084 us,0.0 kmh,953.39 hPa,953.14 hPa,-0.60 m/s*3D
$GNRMC,082242.00,A,4838.33007,N,00859.02858,E,0.37,,220521,,,A*51
$GNGGA,082242.00,4838.33007,N,00859.02858,E,1,06,1.38,498.1,M,47.5,M,,*41
$GNGSA,A,3,12,29,32,25,31,,,,,,,,2.74,1.38,2.36*1C
$GNVTG,,T,,M,0.349,N,0.646,K,A*37
$SMGPS,0.5 m,+0.06 m/s,5.58 VRx,0.000 km,2 m,27.9 °,1:-- (  0.0 km/h)*E8
$SMGPS2,-0.22 X,+0.08 Y,+0.97 Z,0 ENL,1085 us,0.9 kmh,953.39 hPa,953.10 hPa,-0.20 m/s*35
$GNRMC,082242.50,A,4838.33011,N,00859.02858,E,0.68,,220521,,,A*59
$GNGGA,082242.50,4838.33011,N,00859.02858,E,1,06,1.38,497.8,M,47.5,M,,*45
$GNGSA,A,3,12,29,32,25,31,,,,,,,,2.74,1.38,2.36*1C
$GNVTG,,T,,M,0.640,N,1.184,K,A*33
$SMGPS,0.2 m,-0.11 m/s,5.55 VRx,0.000 km,2 m,27.9 °,1:-- (  0.0 km/h)*E2
$SMGPS2,-0.22 X,+0.08 Y,+0.98 Z,71 ENL,1084 us,5.6 kmh,953.43 hPa,953.16 hPa,-0.07 m/s*09
$GNRMC,082243.00,A,4838.33003,N,00859.02851,E,0.77,,220521,,,A*59
$GNGGA,082243.00,4838.33003,N,00859.02851,E,1,06,1.38,497.7,M,47.5,M,,*44
$GNGSA,A,3,12,29,32,25,31,,,,,,,,2.74,1.38,2.36*1C
$GNVTG,,T,,M,0.646,N,1.196,K,A*36
$SMGPS,0.1 m,-0.22 m/s,5.57 VRx,0.000 km,2 m,27.9 °,1:-- (  0.0 km/h)*E3
$SMGPS2,-0.22 X,+0.08 Y,+0.97 Z,10 ENL,1085 us,0.9 kmh,953.44 hPa,953.15 hPa,-0.34 m/s*0E
$GNRMC,082243.50,A,4838.32998,N,00859.02850,E,0.86,,220521,,,A*59
$GNGGA,082243.50,4838.32998,N,00859.02850,E,1,06,1.38,497.6,M,47.5,M,,*4B
$GNGSA,A,3,12,29,32,25,31,,,,,,,,2.74,1.38,2.36*1C
$GNVTG,,T,,M,0.770,N,1.425,K,A*3F
$SMGPS,0.0 m,-0.20 m/s,5.57 VRx,0.000 km,2 m,26.4 °,1:-- (  0.0 km/h)*EC
$SMGPS2,-0.22 X,+0.08 Y,+0.97 Z,298 ENL,1085 us,4.7 kmh,953.45 hPa,953.16 hPa,-0.26 m/s*37
$GNRMC,082244.00,A,4838.33002,N,00859.02845,E,0.41,,220521,,,A*5F
$GNGGA,082244.00,4838.33002,N,00859.02845,E,1,06,1.38,497.6,M,47.5,M,,*46
$GNGSA,A,3,12,29,32,25,31,,,,,,,,2.74,1.38,2.36*1C
$GNVTG,,T,,M,0.262,N,0.484,K,A*33
$SMGPS,-0.0 m,-0.16 m/s,5.57 VRx,0.000 km,2 m,26.4 °,1:-- (  0.0 km/h)*C4
$SMGPS2,-0.21 X,+0.07 Y,+0.97 Z,178 ENL,1084 us,6.0 kmh,953.44 hPa,953.16 hPa,-0.17 m/s*31
$GNRMC,082244.50,A,4838.33003,N,00859.02847,E,0.25,,220521,,,A*5B
$GNGGA,082244.50,4838.33003,N,00859.02847,E,1,06,1.38,497.8,M,47.5,M,,*4E
$GNGSA,A,3,12,29,32,25,31,,,,,,,,2.74,1.38,2.36*1C
$GNVTG,,T,,M,0.206,N,0.382,K,A*30
$SMGPS,0.2 m,-0.07 m/s,5.57 VRx,0.000 km,2 m,24.8 °,1:-- (  0.0 km/h)*E5
$SMGPS2,-0.22 X,+0.08 Y,+0.97 Z,61 ENL,1085 us,6.1 kmh,953.43 hPa,953.16 hPa,-0.07 m/s*02
$GNRMC,082245.00,A,4838.33001,N,00859.02851,E,0.25,,220521,,,A*5A
$GNGGA,082245.00,4838.33001,N,00859.02851,E,1,06,1.38,497.9,M,47.5,M,,*4E
$GNGSA,A,3,12,29,32,25,31,,,,,,,,2.74,1.38,2.36*1C
$GNVTG,,T,,M,0.223,N,0.412,K,A*39
$SMGPS,0.3 m,+0.06 m/s,5.56 VRx,0.000 km,2 m,24.8 °,1:-- (  0.0 km/h)*E2
$SMGPS2,-0.22 X,+0.07 Y,+0.97 Z,114 ENL,1084 us,6.2 kmh,953.42 hPa,953.12 hPa,+0.05 m/s*3D
$GNRMC,082245.50,A,4838.32993,N,00859.02854,E,0.39,,220521,,,A*54
$GNGGA,082245.50,4838.32993,N,00859.02854,E,1,06,1.38,497.8,M,47.5,M,,*4C
$GNGSA,A,3,12,29,32,25,31,,,,,,,,2.74,1.38,2.36*1C
$GNVTG,,T,,M,0.371,N,0.687,K,A*31
$SMGPS,0.2 m,+0.05 m/s,5.57 VRx,0.000 km,2 m,26.4 °,1:-- (  0.0 km/h)*EF
$SMGPS2,-0.22 X,+0.08 Y,+0.98 Z,34 ENL,1084 us,8.5 kmh,953.42 hPa,953.11 hPa,+0.18 m/s*08
$GNRMC,082246.00,A,4838.32997,N,00859.02856,E,0.56,,220521,,,A*5D
$GNGGA,082246.00,4838.32997,N,00859.02856,E,1,06,1.38,498.0,M,47.5,M,,*4B
$GNGSA,A,3,12,29,32,25,31,,,,,,,,2.74,1.38,2.36*1C
$GNVTG,,T,,M,0.523,N,0.969,K,A*3F
$SMGPS,0.4 m,+0.10 m/s,5.58 VRx,0.000 km,2 m,27.9 °,1:-- (  0.0 km/h)*EE
$SMGPS2,-0.22 X,+0.08 Y,+0.97 Z,0 ENL,1085 us,6.4 kmh,953.41 hPa,953.14 hPa,+0.12 m/s*32
$GNRMC,082246.50,A,4838.33001,N,00859.02856,E,0.35,,220521,,,A*5A
$GNGGA,082246.50,4838.33001,N,00859.02856,E,1,06,1.38,498.1,M,47.5,M,,*48
$GNGSA,A,3,12,29,32,25,31,,,,,,,,2.74,1.38,2.36*1C
$GNVTG,,T,,M,0.223,N,0.413,K,A*38
$SMGPS,0.5 m,+0.14 m/s,5.58 VRx,0.000 km,2 m,27.9 °,1:-- (  0.0 km/h)*EB
$SMGPS2,-0.22 X,+0.07 Y,+0.97 Z,0 ENL,1084 us,0.2 kmh,953.39 hPa,953.13 hPa,-0.02 m/s*33
$GNRMC,082247.00,A,4838.33013,N,00859.02849,E,0.63,,220521,,,A*50
$GNGGA,082247.00,4838.33013,N,00859.02849,E,1,06,1.38,498.2,M,47.5,M,,*42
$GNGSA,A,3,12,29,32,25,31,,,,,,,,2.74,1.38,2.37*1D
$GNVTG,,T,,M,0.542,N,1.004,K,A*3B
$SMGPS,0.6 m,+0.16 m/s,5.58 VRx,0.000 km,2 m,27.9 °,1:-- (  0.0 km/h)*EA
$SMGPS2,-0.22 X,+0.08 Y,+0.97 Z,0 ENL,1084 us,3.8 kmh,953.38 hPa,953.12 hPa,+0.15 m/s*35
$GNRMC,082247.50,A,4838.33022,N,00859.02837,E,0.49,,220521,,,A*56
$GNGGA,082247.50,4838.33022,N,00859.02837,E,1,06,1.38,498.1,M,47.5,M,,*4F
$GNGSA,A,3,12,29,32,25,31,,,,,,,,2.74,1.38,2.37*1D
$GNVTG,,T,,M,0.425,N,0.788,K,A*39
$SMGPS,0.5 m,+0.12 m/s,5.58 VRx,0.000 km,2 m,26.4 °,1:-- (  0.0 km/h)*E1
$SMGPS2,-0.22 X,+0.08 Y,+0.97 Z,0 ENL,1084 us,0.6 kmh,953.39 hPa,953.10 hPa,+0.11 m/s*3F
$GNRMC,082248.00,A,4838.33006,N,00859.02831,E,0.34,,220521,,,A*56
$GNGGA,082248.00,4838.33006,N,00859.02831,E,1,06,1.38,498.2,M,47.5,M,,*46
$GNGSA,A,3,12,29,32,25,31,,,,,,,,2.74,1.38,2.37*1D
$GNVTG,,T,,M,0.297,N,0.549,K,A*39
$SMGPS,0.6 m,+0.08 m/s,5.58 VRx,0.000 km,2 m,23.2 °,1:-- (  0.0 km/h)*EA
$SMGPS2,-0.22 X,+0.08 Y,+0.98 Z,0 ENL,1084 us,6.8 kmh,953.39 hPa,953.04 hPa,+0.17 m/s*3B
$GNRMC,082248.50,A,4838.32991,N,00859.02822,E,0.58,,220521,,,A*5D
$GNGGA,082248.50,4838.32991,N,00859.02822,E,1,06,1.38,498.1,M,47.5,M,,*44
$GNGSA,A,3,12,29,32,25,31,,,,,,,,2.74,1.38,2.37*1D
$GNVTG,,T,,M,0.579,N,1.073,K,A*33
$SMGPS,0.5 m,+0.03 m/s,5.58 VRx,0.000 km,2 m,21.6 °,1:-- (  0.0 km/h)*E4
$SMGPS2,-0.22 X,+0.07 Y,+0.98 Z,0 ENL,1085 us,9.7 kmh,953.39 hPa,953.07 hPa,+0.26 m/s*34
$GNRMC,082249.00,A,4838.32990,N,00859.02809,E,0.64,,220521,,,A*5E
$GNGGA,082249.00,4838.32990,N,00859.02809,E,1,06,1.38,498.0,M,47.5,M,,*49
$GNGSA,A,3,12,29,32,25,31,,,,,,,,2.74,1.38,2.37*1D
$GNVTG,,T,,M,0.639,N,1.184,K,A*3D
$SMGPS,0.4 m,-0.01 m/s,5.58 VRx,0.000 km,2 m,18.3 °,1:-- (  0.0 km/h)*EE
$SMGPS2,-0.22 X,+0.08 Y,+0.97 Z,0 ENL,1084 us,9.1 kmh,953.39 hPa,953.12 hPa,+0.04 m/s*37
$GNRMC,082249.50,A,4838.32989,N,00859.02809,E,0.39,,220521,,,A*5B
$GNGGA,082249.50,4838.32989,N,00859.02809,E,1,06,1.38,497.9,M,47.5,M,,*42
$GNGSA,A,3,12,29,32,25,31,,,,,,,,2.74,1.38,2.37*1D
$GNVTG,,T,,M,0.374,N,0.692,K,A*30
$SMGPS,0.3 m,-0.06 m/s,5.58 VRx,0.000 km,2 m,13.0 °,1:-- (  0.0 km/h)*E6
$SMGPS2,-0.22 X,+0.07 Y,+0.97 Z,0 ENL,1084 us,10.3 kmh,953.42 hPa,953.13 hPa,+0.07 m/s*0C
$GNRMC,082250.00,A,4838.33024,N,00859.02807,E,0.45,,220521,,,A*5C
$GNGGA,082250.00,4838.33024,N,00859.02807,E,1,06,1.38,497.8,M,47.5,M,,*4F
$GNGSA,A,3,12,29,32,25,31,,,,,,,,2.74,1.38,2.37*1D
$GNVTG,,T,,M,0.354,N,0.655,K,A*39
$SMGPS,0.2 m,-0.14 m/s,5.58 VRx,0.000 km,2 m,13.0 °,1:-- (  0.0 km/h)*E4
$SMGPS2,-0.22 X,+0.07 Y,+0.98 Z,0 ENL,1085 us,11.6 kmh,953.42 hPa,953.12 hPa,-0.05 m/s*03
$GNRMC,082250.50,A,4838.33031,N,00859.02807,E,2.22,,220521,,,A*5E
$GNGGA,082250.50,4838.33031,N,00859.02807,E,1,06,1.38,498.6,M,47.5,M,,*4F
$GNGSA,A,3,12,29,32,25,31,,,,,,,,2.74,1.38,2.37*1D
$GNVTG,,T,,M,2.220,N,4.112,K,A*39
$SMGPS,1.0 m,+0.04 m/s,5.58 VRx,0.000 km,2 m,13.0 °,1:-- (  0.0 km/h)*E0
$SMGPS2,-0.38 X,+0.11 Y,+1.43 Z,33 ENL,1084 us,0.0 kmh,953.34 hPa,953.10 hPa,-0.25 m/s*0E
$GNRMC,082251.00,A,4838.33017,N,00859.02810,E,1.20,,220521,,,A*59
$GNGGA,082251.00,4838.33017,N,00859.02810,E,1,06,1.38,499.0,M,47.5,M,,*4E
$GNGSA,A,3,12,29,32,25,31,,,,,,,,2.74,1.38,2.37*1D
$GNVTG,,T,,M,0.287,N,0.532,K,A*34
$SMGPS,1.4 m,+0.60 m/s,5.58 VRx,0.000 km,2 m,13.0 °,1:-- (  0.0 km/h)*E6
$SMGPS2,+0.08 X,+0.04 Y,+0.47 Z,20 ENL,1085 us,7.8 kmh,953.28 hPa,952.94 hPa,+0.56 m/s*04
$GNRMC,082251.50,A,4838.33051,N,00859.02794,E,2.95,235.81,220521,,,A*43
$GNGGA,082251.50,4838.33051,N,00859.02794,E,1,06,1.38,499.2,M,47.5,M,,*48
$GNGSA,A,3,12,29,32,25,31,,,,,,,,2.74,1.38,2.37*1D
$GNVTG,235.81,T,,M,2.703,N,5.005,K,A*28
$SMGPS,1.6 m,+0.61 m/s,5.58 VRx,0.000 km,3 m,13.0 °,1:-- (  0.0 km/h)*E4
$SMGPS2,-0.24 X,+0.10 Y,+1.19 Z,38 ENL,1085 us,10.6 kmh,953.27 hPa,952.93 hPa,+0.78 m/s*36
$GNRMC,082252.00,A,4838.33019,N,00859.02782,E,3.07,215.43,220521,,,A*48
$GNGGA,082252.00,4838.33019,N,00859.02782,E,1,06,1.38,499.4,M,47.5,M,,*43
$GNGSA,A,3,12,29,32,25,31,,,,,,,,2.74,1.38,2.37*1D
$GNVTG,215.43,T,,M,2.922,N,5.412,K,A*2B
$SMGPS,1.8 m,+0.49 m/s,5.57 VRx,0.001 km,3 m,6.7 °,1:-- (  0.0 km/h)*DD
$SMGPS2,-0.16 X,+0.07 Y,+0.86 Z,27 ENL,1085 us,14.4 kmh,953.25 hPa,952.88 hPa,+0.85 m/s*34
$GNRMC,082252.50,A,4838.32951,N,00859.02775,E,1.62,,220521,,,A*5F
$GNGGA,082252.50,4838.32951,N,00859.02775,E,1,06,1.38,499.1,M,47.5,M,,*4F
$GNGSA,A,3,12,29,32,25,31,,,,,,,,2.74,1.38,2.37*1D
$GNVTG,,T,,M,1.501,N,2.780,K,A*35
$SMGPS,1.5 m,+0.32 m/s,5.58 VRx,0.002 km,3 m,5.7 °,1:-- (  0.0 km/h)*D3
$SMGPS2,-0.52 X,+0.02 Y,+0.71 Z,19 ENL,1084 us,15.8 kmh,953.28 hPa,952.91 hPa,+0.65 m/s*33
$GNRMC,082253.00,A,4838.32895,N,00859.02779,E,1.83,,220521,,,A*51
$GNGGA,082253.00,4838.32895,N,00859.02779,E,1,06,1.38,498.9,M,47.5,M,,*47
$GNGSA,A,3,12,29,32,25,31,,,,,,,,2.74,1.38,2.37*1D
$GNVTG,,T,,M,1.826,N,3.381,K,A*39
$SMGPS,1.3 m,+0.00 m/s,5.58 VRx,0.003 km,2 m,6.3 °,1:-- (  0.0 km/h)*D3
$SMGPS2,-0.70 X,+0.05 Y,+0.67 Z,6 ENL,1084 us,14.4 kmh,953.30 hPa,952.95 hPa,+0.04 m/s*0A
$GNRMC,082253.50,A,4838.32886,N,00859.02753,E,1.64,,220521,,,A*57
$GNGGA,082253.50,4838.32886,N,00859.02753,E,1,06,1.38,498.7,M,47.5,M,,*46
$GNGSA,A,3,12,29,32,25,31,,,,,,,,2.74,1.38,2.37*1D
$GNVTG,,T,,M,1.616,N,2.993,K,A*3C
$SMGPS,1.1 m,-0.15 m/s,5.57 VRx,0.004 km,1 m,90.0 °,1:-- (  0.0 km/h)*E4
$SMGPS2,-0.66 X,-0.05 Y,+0.72 Z,35 ENL,1084 us,13.3 kmh,953.33 hPa,952.99 hPa,-0.25 m/s*35
$GNRMC,082254.00,A,4838.32859,N,00859.02721,E,1.59,,220521,,,A*5C
$GNGGA,082254.00,4838.32859,N,00859.02721,E,1,06,1.38,498.4,M,47.5,M,,*40
$GNGSA,A,3,12,29,32,25,31,,,,,,,,2.74,1.38,2.37*1D
$GNVTG,,T,,M,1.480,N,2.741,K,A*30
$SMGPS,0.8 m,-0.30 m/s,5.58 VRx,0.004 km,1 m,270.0 °,1:-- (  0.0 km/h)*D8
$SMGPS2,-0.60 X,+0.11 Y,+0.75 Z,7 ENL,1085 us,14.0 kmh,953.36 hPa,952.99 hPa,-0.27 m/s*04
$GNRMC,082254.50,A,4838.32845,N,00859.02680,E,3.10,231.24,220521,,,A*49
$GNGGA,082254.50,4838.32845,N,00859.02680,E,1,06,1.38,498.3,M,47.5,M,,*45
$GNGSA,A,3,12,29,32,25,31,,,,,,,,2.74,1.38,2.37*1D
$GNVTG,231.24,T,,M,3.046,N,5.642,K,A*21
$SMGPS,0.7 m,-0.30 m/s,5.58 VRx,0.005 km,1 m,213.5 °,1:-- (  0.0 km/h)*D6
$SMGPS2,-0.65 X,+0.03 Y,+0.76 Z,21 ENL,1084 us,13.8 kmh,953.37 hPa,953.02 hPa,-0.29 m/s*37
$GNRMC,082255.00,A,4838.32836,N,00859.02639,E,2.46,230.34,220521,,,A*49
$GNGGA,082255.00,4838.32836,N,00859.02639,E,1,06,1.38,498.1,M,47.5,M,,*45
$GNGSA,A,3,12,29,32,25,31,,,,,,,,2.74,1.38,2.37*1D
$GNVTG,230.34,T,,M,2.379,N,4.406,K,A*2C
$SMGPS,0.5 m,-0.32 m/s,5.58 VRx,0.006 km,2 m,231.1 °,1:-- (  0.0 km/h)*D2
$SMGPS2,-0.71 X,-0.04 Y,+0.70 Z,34 ENL,1084 us,12.0 kmh,953.40 hPa,953.07 hPa,-0.44 m/s*36
$GNRMC,082255.50,A,4838.32820,N,00859.02601,E,2.95,234.55,220521,,,A*4D
$GNGGA,082255.50,4838.32820,N,00859.02601,E,1,06,1.38,497.9,M,47.5,M,,*4B
$GNGSA,A,3,12,29,32,25,31,,,,,,,,2.74,1.38,2.37*1D
$GNVTG,234.55,T,,M,2.865,N,5.305,K,A*2C
$SMGPS,0.3 m,-0.36 m/s,5.58 VRx,0.007 km,2 m,222.3 °,1:-- (  0.0 km/h)*D1
$SMGPS2,-0.72 X,-0.09 Y,+0.72 Z,31 ENL,1085 us,10.6 kmh,953.42 hPa,953.11 hPa,-0.58 m/s*32
$GNRMC,082256.00,A,4838.32785,N,00859.02558,E,4.60,232.46,220521,,,A*4C
$GNGGA,082256.00,4838.32785,N,00859.02558,E,1,06,1.38,498.2,M,47.5,M,,*46
$GNGSA,A,3,12,29,32,25,31,,,,,,,,2.74,1.38,2.37*1D
$GNVTG,232.46,T,,M,4.583,N,8.487,K,A*2B
$SMGPS,0.6 m,-0.20 m/s,5.56 VRx,0.007 km,3 m,230.1 °,1:-- (  0.0 km/h)*DD
$SMGPS2,-0.83 X,+0.03 Y,+0.82 Z,107 ENL,1084 us,9.8 kmh,953.38 hPa,953.02 hPa,-0.34 m/s*39
$GNRMC,082256.50,A,4838.32795,N,00859.02509,E,2.86,233.01,220521,,,A*40
$GNGGA,082256.50,4838.32795,N,00859.02509,E,1,06,1.38,498.2,M,47.5,M,,*46
$GNGSA,A,3,12,29,32,25,31,,,,,,,,2.74,1.38,2.37*1D
$GNVTG,233.01,T,,M,2.861,N,5.299,K,A*2A
$SMGPS,0.6 m,-0.00 m/s,5.58 VRx,0.008 km,4 m,224.7 °,1:-- (  0.0 km/h)*DA
$SMGPS2,-0.32 X,+0.01 Y,+0.70 Z,16 ENL,1085 us,12.0 kmh,953.39 hPa,953.05 hPa,+0.04 m/s*3D
$GNRMC,082257.00,A,4838.32804,N,00859.02460,E,3.06,228.28,220521,,,A*45
$GNGGA,082257.00,4838.32804,N,00859.02460,E,1,06,1.38,498.0,M,47.5,M,,*49
$GNGSA,A,3,12,29,32,25,31,,,,,,,,2.75,1.38,2.37*1C
$GNVTG,228.28,T,,M,3.060,N,5.668,K,A*29
$SMGPS,0.4 m,-0.08 m/s,5.58 VRx,0.009 km,4 m,241.7 °,1:-- (  0.0 km/h)*D2
$SMGPS2,-0.44 X,+0.02 Y,+0.92 Z,4 ENL,1084 us,14.5 kmh,953.40 hPa,953.02 hPa,+0.13 m/s*0D
$GNRMC,082257.50,A,4838.32756,N,00859.02421,E,3.50,229.56,220521,,,A*46
$GNGGA,082257.50,4838.32756,N,00859.02421,E,1,06,1.38,497.9,M,47.5,M,,*47
$GNGSA,A,3,12,29,32,25,31,,,,,,,,2.75,1.38,2.37*1C
$GNVTG,229.56,T,,M,3.486,N,6.456,K,A*21
$SMGPS,0.3 m,-0.14 m/s,5.58 VRx,0.010 km,4 m,245.4 °,1:-- (  0.0 km/h)*D7
$SMGPS2,-0.26 X,-0.13 Y,+0.90 Z,15 ENL,1084 us,18.7 kmh,953.42 hPa,952.94 hPa,+0.41 m/s*38
$GNRMC,082258.00,A,4838.32603,N,00859.02266,E,17.94,220.44,220521,,,A*7F
$GNGGA,082258.00,4838.32603,N,00859.02266,E,1,06,1.38,498.0,M,47.5,M,,*4F
$GNGSA,A,3,12,29,32,25,31,,,,,,,,2.75,1.38,2.37*1C
$GNVTG,220.44,T,,M,17.942,N,33.229,K,A*23
$SMGPS,0.4 m,-0.16 m/s,5.57 VRx,0.011 km,5 m,238.8 °,1:-- (  0.0 km/h)*DB
$SMGPS2,+1.21 X,+0.23 Y,+1.46 Z,76 ENL,1084 us,32.3 kmh,953.40 hPa,952.36 hPa,+2.53 m/s*35
$GNRMC,082258.50,A,4838.32414,N,00859.02076,E,17.39,207.74,220521,,,A*7C
$GNGGA,082258.50,4838.32414,N,00859.02076,E,1,06,1.38,498.2,M,47.5,M,,*4F
$GNGSA,A,3,12,29,32,25,31,,,,,,,,2.75,1.38,2.37*1C
$GNVTG,207.74,T,,M,17.394,N,32.213,K,A*2C
$SMGPS,0.6 m,+0.06 m/s,5.58 VRx,0.014 km,8 m,230.5 °,1:-- (  0.0 km/h)*DC
$SMGPS2,-0.04 X,+0.06 Y,+0.87 Z,31 ENL,1085 us,43.8 kmh,953.39 hPa,952.33 hPa,+5.18 m/s*32
$GNRMC,082259.00,A,4838.32212,N,00859.01886,E,16.33,211.11,220521,,,A*73
$GNGGA,082259.00,4838.32212,N,00859.01886,E,1,06,1.38,497.5,M,47.5,M,,*47
$GNGSA,A,3,12,29,32,25,31,,,,,,,,2.75,1.38,2.37*1C
$GNVTG,211.11,T,,M,16.326,N,30.235,K,A*26
$SMGPS,-0.1 m,-0.13 m/s,5.57 VRx,0.018 km,12 m,223.6 °,1:-- (  0.0 km/h)*CD
$SMGPS2,-0.04 X,-0.00 Y,+0.72 Z,15 ENL,1084 us,46.1 kmh,953.46 hPa,952.13 hPa,+2.36 m/s*32
$GNRMC,082259.50,A,4838.31961,N,00859.01744,E,18.63,203.93,220521,,,A*79
$GNGGA,082259.50,4838.31961,N,00859.01744,E,1,06,1.38,496.8,M,47.5,M,,*43
$GNGSA,A,3,12,29,32,25,31,,,,,,,,2.75,1.38,2.37*1C
$GNVTG,203.93,T,,M,18.598,N,34.443,K,A*21
$SMGPS,-0.8 m,-0.58 m/s,5.56 VRx,0.022 km,16 m,221.3 °,1:3  (  2.8 km/h)*D9
$SMGPS2,-0.08 X,+0.08 Y,+0.71 Z,37 ENL,1085 us,52.2 kmh,953.50 hPa,951.77 hPa,+2.82 m/s*3D
$GNRMC,082300.00,A,4838.31785,N,00859.01578,E,18.28,216.84,220521,,,A*75
$GNGGA,082300.00,4838.31785,N,00859.01578,E,1,06,1.38,495.0,M,47.5,M,,*49
$GNGSA,A,3,12,29,32,25,31,,,,,,,,2.75,1.38,2.37*1C
$GNVTG,216.84,T,,M,18.137,N,33.590,K,A*2A
$SMGPS,-2.6 m,-1.18 m/s,5.56 VRx,0.027 km,21 m,216.3 °,1:3  (  2.8 km/h)*D5
$SMGPS2,-0.06 X,+0.08 Y,+0.93 Z,59 ENL,1084 us,52.8 kmh,953.79 hPa,952.33 hPa,+1.17 m/s*3B
$GNRMC,082300.50,A,4838.31586,N,00859.01338,E,22.65,219.06,220521,,,A*76
$GNGGA,082300.50,4838.31586,N,00859.01338,E,1,06,1.38,493.8,M,47.5,M,,*41
$GNGSA,A,3,12,29,32,25,31,,,,,,,,2.75,1.38,2.37*1C
$GNVTG,219.06,T,,M,22.300,N,41.300,K,A*2A
$SMGPS,-3.8 m,-2.04 m/s,5.56 VRx,0.032 km,26 m,214.9 °,1:3  (  2.8 km/h)*DF
$SMGPS2,-0.05 X,-0.04 Y,+1.06 Z,80 ENL,1084 us,52.6 kmh,953.89 hPa,952.35 hPa,-1.22 m/s*3C
$GNRMC,082301.00,A,4838.31326,N,00859.01032,E,25.86,221.63,220521,,,A*75
$GNGGA,082301.00,4838.31326,N,00859.01032,E,1,06,1.38,490.5,M,47.5,M,,*4E
$GNGSA,A,3,12,29,32,25,31,,,,,,,,2.75,1.38,2.37*1C
$GNVTG,221.63,T,,M,25.433,N,47.102,K,A*24
$SMGPS,-7.1 m,-2.40 m/s,5.56 VRx,0.036 km,30 m,215.9 °,1:3  (  5.9 km/h)*D6
$SMGPS2,-0.08 X,-0.01 Y,+1.11 Z,81 ENL,1085 us,56.1 kmh,954.28 hPa,952.11 hPa,-0.53 m/s*3C
$GNRMC,082301.50,A,4838.31043,N,00859.00656,E,27.95,225.70,220521,,,A*73
$GNGGA,082301.50,4838.31043,N,00859.00656,E,1,06,1.38,489.6,M,47.5,M,,*45
$GNGSA,A,3,12,29,32,25,31,,,,,,,,2.75,1.38,2.37*1C
$GNVTG,225.70,T,,M,27.179,N,50.336,K,A*28
$SMGPS,-8.0 m,-3.34 m/s,5.57 VRx,0.042 km,37 m,216.4 °,1:3  (  5.9 km/h)*D1
$SMGPS2,-0.12 X,+0.18 Y,+1.60 Z,73 ENL,1085 us,65.8 kmh,954.40 hPa,951.93 hPa,+1.63 m/s*38
$GNRMC,082302.00,A,4838.30773,N,00859.00250,E,27.73,231.20,220521,,,A*7A
$GNGGA,082302.00,4838.30773,N,00859.00250,E,1,06,1.38,489.2,M,47.5,M,,*40
$GNGSA,A,3,12,29,32,25,31,,,,,,,,2.75,1.38,2.37*1C
$GNVTG,231.20,T,,M,27.103,N,50.195,K,A*2E
$SMGPS,-8.4 m,-3.03 m/s,5.57 VRx,0.049 km,44 m,217.0 °,1:3  ( 10.0 km/h)*C6
$SMGPS2,-0.11 X,+0.06 Y,+1.42 Z,73 ENL,1084 us,66.1 kmh,954.41 hPa,952.03 hPa,-0.21 m/s*35
$GNRMC,082302.50,A,4838.30550,N,00858.99792,E,25.65,240.18,220521,,,A*7E
$GNGGA,082302.50,4838.30550,N,00858.99792,E,1,06,1.38,489.5,M,47.5,M,,*4B
$GNGSA,A,3,12,29,32,25,31,,,,,,,,2.75,1.38,2.37*1C
$GNVTG,240.18,T,,M,25.369,N,46.983,K,A*27
$SMGPS,-8.1 m,-1.96 m/s,5.57 VRx,0.057 km,51 m,218.0 °,1:3  ( 10.0 km/h)*C9
$SMGPS2,-0.08 X,+0.05 Y,+1.08 Z,30 ENL,1084 us,61.5 kmh,954.38 hPa,952.87 hPa,-2.21 m/s*34
$GNRMC,082303.00,A,4838.30383,N,00858.99344,E,24.29,241.17,220521,,,A*7A
$GNGGA,082303.00,4838.30383,N,00858.99344,E,1,06,1.38,490.0,M,47.5,M,,*45
$GNGSA,A,3,12,29,32,25,31,,,,,,,,2.75,1.38,2.37*1C
$GNVTG,241.17,T,,M,24.235,N,44.883,K,A*23
$SMGPS,-7.6 m,-0.81 m/s,5.57 VRx,0.063 km,57 m,220.1 °,1:15 ( 14.0 km/h)*DE
$SMGPS2,-0.08 X,+0.03 Y,+0.97 Z,16 ENL,1084 us,59.0 kmh,954.32 hPa,952.64 hPa,-2.61 m/s*3C
$GNRMC,082303.50,A,4838.30219,N,00858.98900,E,23.54,245.48,220521,,,A*75
$GNGGA,082303.50,4838.30219,N,00858.98900,E,1,06,1.38,492.1,M,47.5,M,,*4A
$GNGSA,A,3,12,29,32,25,31,,,,,,,,2.75,1.38,2.37*1C
$GNVTG,245.48,T,,M,23.533,N,43.584,K,A*26
$SMGPS,-5.5 m,+0.18 m/s,5.57 VRx,0.070 km,64 m,221.6 °,1:15 ( 14.0 km/h)*DD
$SMGPS2,-0.08 X,-0.04 Y,+1.15 Z,57 ENL,1084 us,59.4 kmh,954.08 hPa,952.35 hPa,-0.11 m/s*3F
$GNRMC,082304.00,A,4838.30078,N,00858.98447,E,23.06,247.22,220521,,,A*75
$GNGGA,082304.00,4838.30078,N,00858.98447,E,1,06,1.38,490.5,M,47.5,M,,*45
$GNGSA,A,3,12,29,32,25,31,,,,,,,,2.75,1.38,2.37*1C
$GNVTG,247.22,T,,M,23.048,N,42.684,K,A*23
$SMGPS,-7.1 m,+0.43 m/s,5.56 VRx,0.076 km,69 m,223.6 °,1:-- ( 14.0 km/h)*D9
$SMGPS2,-0.08 X,+0.03 Y,+0.64 Z,103 ENL,1084 us,66.9 kmh,954.28 hPa,951.64 hPa,+2.92 m/s*02
$GNRMC,082304.50,A,4838.29977,N,00858.98020,E,23.42,240.96,220521,,,A*73
$GNGGA,082304.50,4838.29977,N,00858.98020,E,1,06,1.38,489.8,M,47.5,M,,*4E
$GNGSA,A,3,12,29,32,25,31,,,,,,,,2.75,1.38,2.37*1C
$GNVTG,240.96,T,,M,23.405,N,43.345,K,A*2F
$SMGPS,-7.8 m,-0.37 m/s,5.57 VRx,0.082 km,75 m,225.4 °,1:-- ( 14.0 km/h)*D6
$SMGPS2,-0.11 X,+0.00 Y,+0.88 Z,73 ENL,1084 us,70.2 kmh,954.34 hPa,951.84 hPa,+3.00 m/s*38
$GNRMC,082305.00,A,4838.29819,N,00858.97577,E,25.70,235.51,220521,,,A*78
$GNGGA,082305.00,4838.29819,N,00858.97577,E,1,06,1.38,489.7,M,47.5,M,,*44
$GNGSA,A,3,12,29,32,25,31,,,,,,,,2.75,1.38,2.37*1C
$GNVTG,235.51,T,,M,25.686,N,47.571,K,A*2C
$SMGPS,-7.9 m,-0.46 m/s,5.57 VRx,0.088 km,80 m,226.9 °,1:1  ( 16.9 km/h)*C5
$SMGPS2,-0.14 X,+0.07 Y,+1.47 Z,112 ENL,1085 us,74.7 kmh,954.35 hPa,951.41 hPa,+2.87 m/s*08
$GNRMC,082305.50,A,4838.29629,N,00858.97179,E,23.57,231.47,220521,,,A*7A
$GNGGA,082305.50,4838.29629,N,00858.97179,E,1,06,1.38,489.3,M,47.5,M,,*42
$GNGSA,A,3,12,29,32,25,31,,,,,,,,2.75,1.38,2.38*13
$GNVTG,231.47,T,,M,23.546,N,43.608,K,A*2F
$SMGPS,-8.3 m,-0.53 m/s,5.57 VRx,0.094 km,86 m,228.2 °,1:1  ( 16.9 km/h)*CA
$SMGPS2,-0.11 X,+0.06 Y,+0.73 Z,66 ENL,1085 us,75.6 kmh,954.41 hPa,951.87 hPa,+2.40 m/s*3A
$GNRMC,082306.00,A,4838.29402,N,00858.96820,E,23.91,228.84,220521,,,A*7E
$GNGGA,082306.00,4838.29402,N,00858.96820,E,1,06,1.38,489.3,M,47.5,M,,*4B
$GNGSA,A,3,12,29,32,25,31,,,,,,,,2.75,1.38,2.38*13
$GNVTG,228.84,T,,M,23.895,N,44.253,K,A*26
