$GPSSETUP,8765,2,1,1,0,1,1,0,0,1,1,3,0,0,0,0,6,3,12C,96,1F4,1C2,32,64,7C,64,7D0,5,1,2,1E,100,0,0,0,0,0,1010,4,10,5,6,10,10,10,10,10,10,10,10,10,BC10,0,80,1,108,302,604,0,20F,0,4000,0,4000,0,0,0,0,0,0,0,0,0,0,0,0,0,0,0,0,0,0,0,0,0,0,0,0,0,0,0,0,0,64,12C,4FF*34
$GNRMC,120203.50,A,4838.46907,N,00859.10485,E,0.12,,071021,,,A,V*22
$GNGNS,120203.50,4838.46907,N,00859.10485,E,ANNN,06,1.31,494.1,47.5,,,V*16
$GNGSA,A,3,09,02,03,06,19,22,,,,,,,2.16,1.31,1.71,1*06
$GNGSA,A,3,,,,,,,,,,,,,2.16,1.31,1.71,2*03
$GNGSA,A,3,,,,,,,,,,,,,2.16,1.31,1.71,3*02
$GNVTG,,T,,M,0.115,N,0.213,K,A*38
$SMGPS,0.0 m,-0.01 m/s,5.55 VRx,0.000 km,1 m,4.7 °,1:-- (  0.0 km/h),494.1 m*9A
$SMGPS2,-0.17 X,+0.15 Y,+0.98 Z,0 ENL,1084 us,0.0 kmh,969.77 hPa,969.49 hPa,-0.00 m/s*3C
$GNRMC,120204.00,A,4838.46909,N,00859.10484,E,0.18,,071021,,,A,V*25
$GNGNS,120204.00,4838.46909,N,00859.10484,E,ANNN,06,1.31,494.1,47.5,,,V*1B
$GNGSA,A,3,09,02,03,06,19,22,,,,,,,2.16,1.31,1.71,1*06
$GNGSA,A,3,,,,,,,,,,,,,2.16,1.31,1.71,2*03
$GNGSA,A,3,,,,,,,,,,,,,2.16,1.31,1.71,3*02
$GNVTG,,T,,M,0.181,N,0.336,K,A*33
$SMGPS,-0.0 m,-0.00 m/s,5.55 VRx,0.000 km,0 m,0.0 °,1:-- (  0.0 km/h),494.4 m*B1
$SMGPS2,-0.17 X,+0.15 Y,+0.98 Z,0 ENL,1084 us,0.0 kmh,969.78 hPa,969.49 hPa,-0.00 m/s*33
$GNRMC,120204.50,A,4838.46908,N,00859.10478,E,0.26,,071021,,,A,V*2F
$GNGNS,120204.50,4838.46908,N,00859.10478,E,ANNN,06,1.31,494.1,47.5,,,V*1C
$GNGSA,A,3,09,02,03,06,19,22,,,,,,,2.16,1.31,1.71,1*06
$GNGSA,A,3,,,,,,,,,,,,,2.16,1.31,1.71,2*03
$GNGSA,A,3,,,,,,,,,,,,,2.16,1.31,1.71,3*02
$GNVTG,,T,,M,0.261,N,0.483,K,A*37
$SMGPS,-0.0 m,-0.01 m/s,5.55 VRx,0.000 km,0 m,0.0 °,1:-- (  0.0 km/h),494.5 m*B1
$SMGPS2,-0.17 X,+0.15 Y,+0.98 Z,0 ENL,1084 us,0.0 kmh,969.78 hPa,969.50 hPa,-0.01 m/s*3A
$GNRMC,120205.00,A,4838.46900,N,00859.10472,E,0.09,,071021,,,A,V*24
$GNGNS,120205.00,4838.46900,N,00859.10472,E,ANNN,06,1.31,494.1,47.5,,,V*1A
$GNGSA,A,3,09,02,03,06,19,22,,,,,,,2.16,1.31,1.71,1*06
$GNGSA,A,3,,,,,,,,,,,,,2.16,1.31,1.71,2*03
$GNGSA,A,3,,,,,,,,,,,,,2.16,1.31,1.71,3*02
$GNVTG,,T,,M,0.086,N,0.160,K,A*34
$SMGPS,0.0 m,-0.01 m/s,5.55 VRx,0.000 km,0 m,270.0 °,1:-- (  0.0 km/h),494.5 m*99
$SMGPS2,-0.16 X,+0.15 Y,+0.98 Z,0 ENL,1084 us,0.0 kmh,969.78 hPa,969.49 hPa,+0.02 m/s*36
$GNRMC,120205.50,A,4838.46895,N,00859.10469,E,0.19,,071021,,,A,V*27
$GNGNS,120205.50,4838.46895,N,00859.10469,E,ANNN,06,1.31,494.1,47.5,,,V*18
$GNGSA,A,3,09,02,03,06,19,22,,,,,,,2.16,1.31,1.71,1*06
$GNGSA,A,3,,,,,,,,,,,,,2.16,1.31,1.71,2*03
$GNGSA,A,3,,,,,,,,,,,,,2.16,1.31,1.71,3*02
$GNVTG,,T,,M,0.183,N,0.339,K,A*3E
$SMGPS,0.0 m,+0.02 m/s,5.55 VRx,0.000 km,0 m,270.0 °,1:-- (  0.0 km/h),494.4 m*9D
$SMGPS2,-0.17 X,+0.15 Y,+0.98 Z,0 ENL,1084 us,0.0 kmh,969.77 hPa,969.49 hPa,+0.02 m/s*38
$GNRMC,120206.00,A,4838.46893,N,00859.10469,E,0.16,,071021,,,A,V*28
$GNGNS,120206.00,4838.46893,N,00859.10469,E,ANNN,06,1.31,494.1,47.5,,,V*18
$GNGSA,A,3,09,02,03,06,19,22,,,,,,,2.16,1.31,1.71,1*06
$GNGSA,A,3,,,,,,,,,,,,,2.16,1.31,1.71,2*03
$GNGSA,A,3,,,,,,,,,,,,,2.16,1.31,1.71,3*02
$GNVTG,,T,,M,0.158,N,0.292,K,A*38
$SMGPS,-0.0 m,-0.00 m/s,5.55 VRx,0.000 km,1 m,193.9 °,1:-- (  0.0 km/h),494.4 m*B2
$SMGPS2,-0.17 X,+0.15 Y,+0.98 Z,0 ENL,1084 us,0.0 kmh,969.78 hPa,969.49 hPa,-0.00 m/s*33
$GNRMC,120206.50,A,4838.46892,N,00859.10465,E,0.21,,071021,,,A,V*24
$GNGNS,120206.50,4838.46892,N,00859.10465,E,ANNN,06,1.31,494.1,47.5,,,V*10
$GNGSA,A,3,09,02,03,06,19,22,,,,,,,2.16,1.31,1.71,1*06
$GNGSA,A,3,,,,,,,,,,,,,2.16,1.31,1.71,2*03
$GNGSA,A,3,,,,,,,,,,,,,2.16,1.31,1.71,3*02
$GNVTG,,T,,M,0.205,N,0.380,K,A*31
$SMGPS,0.0 m,+0.01 m/s,5.56 VRx,0.000 km,1 m,193.9 °,1:-- (  0.0 km/h),494.5 m*9A
$SMGPS2,-0.17 X,+0.15 Y,+0.98 Z,0 ENL,1084 us,0.0 kmh,969.77 hPa,969.49 hPa,-0.01 m/s*3D
$GNRMC,120207.00,A,4838.46890,N,00859.10460,E,0.19,,071021,,,A,V*2C
$GNGNS,120207.00,4838.46890,N,00859.10460,E,ANNN,06,1.31,494.1,47.5,,,V*13
$GNGSA,A,3,09,02,03,06,19,22,,,,,,,2.16,1.31,1.71,1*06
$GNGSA,A,3,,,,,,,,,,,,,2.16,1.31,1.71,2*03
$GNGSA,A,3,,,,,,,,,,,,,2.16,1.31,1.71,3*02
$GNVTG,,T,,M,0.188,N,0.347,K,A*3C
$SMGPS,-0.0 m,-0.01 m/s,5.56 VRx,0.000 km,1 m,193.9 °,1:-- (  0.0 km/h),494.4 m*B0
$SMGPS2,-0.16 X,+0.15 Y,+0.98 Z,0 ENL,1084 us,0.0 kmh,969.78 hPa,969.49 hPa,+0.00 m/s*34
$GNRMC,120207.50,A,4838.46886,N,00859.10456,E,0.22,,071021,,,A,V*23
$GNGNS,120207.50,4838.46886,N,00859.10456,E,ANNN,06,1.31,494.1,47.5,,,V*14
$GNGSA,A,3,09,02,03,06,19,22,,,,,,,2.16,1.31,1.71,1*06
$GNGSA,A,3,,,,,,,,,,,,,2.16,1.31,1.71,2*03
$GNGSA,A,3,,,,,,,,,,,,,2.16,1.31,1.71,3*02
$GNVTG,,T,,M,0.220,N,0.407,K,A*3E
$SMGPS,-0.0 m,+0.01 m/s,5.56 VRx,0.000 km,1 m,198.3 °,1:-- (  0.0 km/h),494.4 m*B7
$SMGPS2,-0.17 X,+0.15 Y,+0.98 Z,0 ENL,1084 us,0.0 kmh,969.78 hPa,969.49 hPa,+0.00 m/s*35
$GNRMC,120208.00,A,4838.46880,N,00859.10451,E,0.11,,071021,,,A,V*28
$GNGNS,120208.00,4838.46880,N,00859.10451,E,ANNN,06,1.31,494.1,47.5,,,V*1F
$GNGSA,A,3,09,02,03,06,19,22,,,,,,,2.16,1.31,1.71,1*06
$GNGSA,A,3,,,,,,,,,,,,,2.16,1.31,1.71,2*03
$GNGSA,A,3,,,,,,,,,,,,,2.16,1.31,1.71,3*02
$GNVTG,,T,,M,0.096,N,0.179,K,A*3D
$SMGPS,-0.0 m,-0.03 m/s,5.56 VRx,0.000 km,1 m,202.4 °,1:-- (  0.0 km/h),494.5 m*B5
$SMGPS2,-0.16 X,+0.16 Y,+0.98 Z,0 ENL,1084 us,0.0 kmh,969.78 hPa,969.49 hPa,+0.00 m/s*37
$GNRMC,120208.50,A,4838.46879,N,00859.10449,E,0.29,,071021,,,A,V*29
$GNGNS,120208.50,4838.46879,N,00859.10449,E,ANNN,06,1.31,494.1,47.5,,,V*15
$GNGSA,A,3,09,02,03,06,19,22,,,,,,,2.16,1.31,1.71,1*06
$GNGSA,A,3,,,,,,,,,,,,,2.16,1.31,1.71,2*03
$GNGSA,A,3,,,,,,,,,,,,,2.16,1.31,1.71,3*02
$GNVTG,,T,,M,0.286,N,0.530,K,A*37
$SMGPS,-0.0 m,-0.01 m/s,5.56 VRx,0.000 km,1 m,206.4 °,1:-- (  0.0 km/h),494.5 m*B3
$SMGPS2,-0.17 X,+0.15 Y,+0.98 Z,0 ENL,1084 us,0.0 kmh,969.78 hPa,969.49 hPa,+0.00 m/s*35
$GNRMC,120209.00,A,4838.46879,N,00859.10448,E,0.10,,071021,,,A,V*26
$GNGNS,120209.00,4838.46879,N,00859.10448,E,ANNN,06,1.31,494.1,47.5,,,V*10
$GNGSA,A,3,09,02,03,06,19,22,,,,,,,2.16,1.31,1.71,1*06
$GNGSA,A,3,,,,,,,,,,,,,2.16,1.31,1.71,2*03
$GNGSA,A,3,,,,,,,,,,,,,2.16,1.31,1.71,3*02
$GNVTG,,T,,M,0.094,N,0.175,K,A*33
$SMGPS,-0.0 m,+0.01 m/s,5.56 VRx,0.000 km,1 m,206.4 °,1:-- (  0.0 km/h),494.5 m*B5
$SMGPS2,-0.17 X,+0.15 Y,+0.98 Z,0 ENL,1084 us,0.0 kmh,969.78 hPa,969.49 hPa,+0.01 m/s*34
$GNRMC,120208.50,A,4838.46879,N,00859.10448,E,0.07,,071021,,,A,V*24
$GNGNS,120208.50,4838.46879,N,00859.10448,E,AANN,07,1.22,494.1,47.5,,,V*18
$GNGSA,A,3,09,02,03,06,19,22,,,,,,,2.10,1.22,1.71,1*02
$GNGSA,A,3,,,,,,,,,,,,,2.16,1.31,1.71,2*03
$GNGSA,A,3,,,,,,,,,,,,,2.16,1.31,1.71,3*02
$GNVTG,,T,,M,0.071,N,0.132,K,A*3B
$SMGPS,-0.0 m,-0.00 m/s,5.56 VRx,0.000 km,1 m,206.4 °,1:-- (  0.0 km/h),494.7 m*B0
$SMGPS2,-0.17 X,+0.15 Y,+0.98 Z,0 ENL,1084 us,0.0 kmh,969.78 hPa,969.49 hPa,-0.00 m/s*33
$GNRMC,120209.00,A,4838.46882,N,00859.10449,E,0.11,,071021,,,A,V*22
$GNGNS,120209.00,4838.46882,N,00859.10449,E,AANN,07,1.22,494.1,47.5,,,V*19
$GNGSA,A,3,09,02,03,06,19,22,,,,,,,2.10,1.22,1.71,1*02
$GNGSA,A,3,79,,,,,,,,,,,,2.10,1.22,1.71,2*09
$GNGSA,A,3,,,,,,,,,,,,,2.10,1.22,1.71,3*06
$GNVTG,,T,,M,0.113,N,0.210,K,A*3D
$SMGPS,0.0 m,+0.00 m/s,5.56 VRx,0.000 km,1 m,206.4 °,1:-- (  0.0 km/h),494.8 m*94
$SMGPS2,-0.17 X,+0.15 Y,+0.98 Z,0 ENL,1084 us,0.0 kmh,969.78 hPa,969.49 hPa,-0.01 m/s*32
$GNRMC,120209.50,A,4838.46885,N,00859.10448,E,0.12,,071021,,,A,V*22
$GNGNS,120209.50,4838.46885,N,00859.10448,E,AANN,07,1.22,494.1,47.5,,,V*1A
$GNGSA,A,3,09,02,03,06,19,22,,,,,,,2.10,1.22,1.71,1*02
$GNGSA,A,3,79,,,,,,,,,,,,2.10,1.22,1.71,2*09
$GNGSA,A,3,,,,,,,,,,,,,2.10,1.22,1.71,3*06
$GNVTG,,T,,M,0.109,N,0.203,K,A*34
$SMGPS,0.0 m,+0.02 m/s,5.56 VRx,0.000 km,1 m,206.4 °,1:-- (  0.0 km/h),494.9 m*97
$SMGPS2,-0.17 X,+0.15 Y,+0.98 Z,0 ENL,1084 us,0.0 kmh,969.77 hPa,969.49 hPa,+0.00 m/s*3A
$GNRMC,120210.00,A,4838.46888,N,00859.10448,E,0.12,,071021,,,A,V*22
$GNGNS,120210.00,4838.46888,N,00859.10448,E,AANN,07,1.22,494.1,47.5,,,V*1A
$GNGSA,A,3,09,02,03,06,19,22,,,,,,,2.10,1.22,1.71,1*02
$GNGSA,A,3,79,,,,,,,,,,,,2.10,1.22,1.71,2*09
$GNGSA,A,3,,,,,,,,,,,,,2.10,1.22,1.71,3*06
$GNVTG,,T,,M,0.120,N,0.223,K,A*3D
$SMGPS,0.0 m,-0.01 m/s,5.55 VRx,0.000 km,1 m,206.4 °,1:-- (  0.0 km/h),495.0 m*99
$SMGPS2,-0.16 X,+0.15 Y,+0.98 Z,0 ENL,1084 us,0.0 kmh,969.77 hPa,969.49 hPa,+0.00 m/s*3B
$GNRMC,120210.50,A,4838.46887,N,00859.10450,E,0.31,,071021,,,A,V*20
$GNGNS,120210.50,4838.46887,N,00859.10450,E,AANN,07,1.22,494.1,47.5,,,V*19
$GNGSA,A,3,09,02,03,06,19,22,,,,,,,2.10,1.22,1.71,1*02
$GNGSA,A,3,79,,,,,,,,,,,,2.10,1.22,1.71,2*09
$GNGSA,A,3,,,,,,,,,,,,,2.10,1.22,1.71,3*06
$GNVTG,,T,,M,0.311,N,0.575,K,A*39
$SMGPS,-0.0 m,-0.02 m/s,5.56 VRx,0.000 km,1 m,206.4 °,1:-- (  0.0 km/h),495.1 m*B5
$SMGPS2,-0.17 X,+0.15 Y,+0.98 Z,0 ENL,1084 us,0.0 kmh,969.78 hPa,969.49 hPa,-0.00 m/s*33
$GNRMC,120211.00,A,4838.46886,N,00859.10452,E,0.15,,071021,,,A,V*21
$GNGNS,120211.00,4838.46886,N,00859.10452,E,AANN,07,1.22,494.1,47.5,,,V*1E
$GNGSA,A,3,09,02,03,06,19,22,,,,,,,2.10,1.22,1.71,1*02
$GNGSA,A,3,79,,,,,,,,,,,,2.10,1.22,1.71,2*09
$GNGSA,A,3,,,,,,,,,,,,,2.10,1.22,1.71,3*06
$GNVTG,,T,,M,0.150,N,0.278,K,A*34
$SMGPS,0.0 m,+0.02 m/s,5.56 VRx,0.000 km,1 m,206.4 °,1:-- (  0.0 km/h),495.2 m*9D
$SMGPS2,-0.17 X,+0.15 Y,+0.98 Z,0 ENL,1084 us,0.0 kmh,969.77 hPa,969.49 hPa,-0.00 m/s*3C
$GNRMC,120211.50,A,4838.46884,N,00859.10451,E,0.26,,071021,,,A,V*25
$GNGNS,120211.50,4838.46884,N,00859.10451,E,AANN,07,1.22,494.1,47.5,,,V*1A
$GNGSA,A,3,09,02,03,06,19,22,,,,,,,2.10,1.22,1.71,1*02
$GNGSA,A,3,79,,,,,,,,,,,,2.10,1.22,1.71,2*09
$GNGSA,A,3,,,,,,,,,,,,,2.10,1.22,1.71,3*06
$GNVTG,,T,,M,0.264,N,0.489,K,A*38
$SMGPS,-0.0 m,-0.01 m/s,5.56 VRx,0.000 km,1 m,206.4 °,1:-- (  0.0 km/h),495.3 m*B4
$SMGPS2,-0.17 X,+0.15 Y,+0.98 Z,0 ENL,1084 us,0.0 kmh,969.78 hPa,969.49 hPa,-0.01 m/s*32
$GNRMC,120212.00,A,4838.46884,N,00859.10451,E,0.39,,071021,,,A,V*2D
$GNGNS,120212.00,4838.46884,N,00859.10451,E,AANN,07,1.22,494.1,47.5,,,V*1C
$GNGSA,A,3,09,02,03,06,19,22,,,,,,,2.10,1.22,1.71,1*02
$GNGSA,A,3,79,,,,,,,,,,,,2.10,1.22,1.71,2*09
$GNGSA,A,3,,,,,,,,,,,,,2.10,1.22,1.71,3*06
$GNVTG,,T,,M,0.392,N,0.725,K,A*35
$SMGPS,0.0 m,+0.01 m/s,5.56 VRx,0.000 km,1 m,206.4 °,1:-- (  0.0 km/h),495.1 m*9D
$SMGPS2,-0.17 X,+0.15 Y,+0.98 Z,0 ENL,1084 us,0.0 kmh,969.78 hPa,969.49 hPa,-0.00 m/s*33
$GNRMC,120212.50,A,4838.46883,N,00859.10448,E,0.12,,071021,,,A,V*2E
$GNGNS,120212.50,4838.46883,N,00859.10448,E,AANN,07,1.22,494.1,47.5,,,V*16
$GNGSA,A,3,09,02,03,06,19,22,,,,,,,2.10,1.22,1.71,1*02
$GNGSA,A,3,79,,,,,,,,,,,,2.10,1.22,1.71,2*09
$GNGSA,A,3,,,,,,,,,,,,,2.10,1.22,1.71,3*06
$GNVTG,,T,,M,0.118,N,0.219,K,A*3F
$SMGPS,0.0 m,-0.00 m/s,5.56 VRx,0.000 km,1 m,206.4 °,1:-- (  0.0 km/h),495.0 m*9B
$SMGPS2,-0.16 X,+0.15 Y,+0.98 Z,0 ENL,1084 us,0.0 kmh,969.78 hPa,969.49 hPa,+0.01 m/s*35
$GNRMC,120213.00,A,4838.46880,N,00859.10444,E,0.34,,071021,,,A,V*21
$GNGNS,120213.00,4838.46880,N,00859.10444,E,AANN,07,1.22,494.1,47.5,,,V*1D
$GNGSA,A,3,09,02,03,06,19,22,,,,,,,2.10,1.22,1.71,1*02
$GNGSA,A,3,79,,,,,,,,,,,,2.10,1.22,1.71,2*09
$GNGSA,A,3,,,,,,,,,,,,,2.10,1.22,1.71,3*06
$GNVTG,,T,,M,0.337,N,0.624,K,A*3A
$SMGPS,-0.0 m,-0.02 m/s,5.56 VRx,0.000 km,1 m,206.4 °,1:-- (  0.0 km/h),495.1 m*B5
$SMGPS2,-0.17 X,+0.15 Y,+0.98 Z,0 ENL,1084 us,0.0 kmh,969.78 hPa,969.49 hPa,-0.01 m/s*32
$GNRMC,120213.50,A,4838.46879,N,00859.10441,E,0.46,,071021,,,A,V*22
$GNGNS,120213.50,4838.46879,N,00859.10441,E,AANN,07,1.22,494.1,47.5,,,V*1B
$GNGSA,A,3,09,02,03,06,19,22,,,,,,,2.10,1.22,1.71,1*02
$GNGSA,A,3,79,,,,,,,,,,,,2.10,1.22,1.71,2*09
$GNGSA,A,3,,,,,,,,,,,,,2.10,1.22,1.71,3*06
$GNVTG,,T,,M,0.459,N,0.851,K,A*39
$SMGPS,0.0 m,+0.01 m/s,5.56 VRx,0.000 km,1 m,210.0 °,1:-- (  0.0 km/h),495.0 m*9F
$SMGPS2,-0.16 X,+0.15 Y,+0.98 Z,0 ENL,1084 us,0.0 kmh,969.78 hPa,969.49 hPa,-0.00 m/s*32
$GNRMC,120214.00,A,4838.46882,N,00859.10441,E,0.40,,071021,,,A,V*22
$GNGNS,120214.00,4838.46882,N,00859.10441,E,AANN,07,1.22,494.1,47.5,,,V*1D
$GNGSA,A,3,09,02,03,06,19,22,,,,,,,2.10,1.22,1.71,1*02
$GNGSA,A,3,79,,,,,,,,,,,,2.10,1.22,1.71,2*09
$GNGSA,A,3,,,,,,,,,,,,,2.10,1.22,1.71,3*06
$GNVTG,,T,,M,0.400,N,0.741,K,A*3B
$SMGPS,0.0 m,-0.00 m/s,5.56 VRx,0.000 km,1 m,210.0 °,1:-- (  0.0 km/h),494.9 m*90
$SMGPS2,-0.16 X,+0.15 Y,+0.97 Z,0 ENL,1084 us,0.0 kmh,969.78 hPa,969.49 hPa,-0.00 m/s*3D
$GNRMC,120214.50,A,4838.46882,N,00859.10441,E,0.04,,071021,,,A,V*27
$GNGNS,120214.50,4838.46882,N,00859.10441,E,AANN,07,1.22,494.1,47.5,,,V*18
$GNGSA,A,3,09,02,03,06,19,22,,,,,,,2.10,1.22,1.71,1*02
$GNGSA,A,3,79,,,,,,,,,,,,2.10,1.22,1.71,2*09
$GNGSA,A,3,,,,,,,,,,,,,2.10,1.22,1.71,3*06
$GNVTG,,T,,M,0.040,N,0.074,K,A*3A
$SMGPS,-0.0 m,-0.01 m/s,5.56 VRx,0.000 km,1 m,210.0 °,1:-- (  0.0 km/h),494.8 m*BD
$SMGPS2,-0.17 X,+0.15 Y,+0.98 Z,0 ENL,1084 us,0.0 kmh,969.78 hPa,969.49 hPa,+0.00 m/s*35
$GNRMC,120215.00,A,4838.46883,N,00859.10439,E,0.26,,071021,,,A,V*2D
$GNGNS,120215.00,4838.46883,N,00859.10439,E,AANN,07,1.22,494.1,47.5,,,V*12
$GNGSA,A,3,09,02,03,06,19,22,,,,,,,2.10,1.22,1.71,1*02
$GNGSA,A,3,79,,,,,,,,,,,,2.10,1.22,1.71,2*09
$GNGSA,A,3,,,,,,,,,,,,,2.10,1.22,1.71,3*06
$GNVTG,,T,,M,0.256,N,0.474,K,A*3B
$SMGPS,0.0 m,-0.01 m/s,5.56 VRx,0.000 km,1 m,210.0 °,1:-- (  0.0 km/h),494.8 m*90
$SMGPS2,-0.17 X,+0.15 Y,+0.98 Z,0 ENL,1084 us,0.0 kmh,969.78 hPa,969.49 hPa,-0.00 m/s*33
$GNRMC,120215.50,A,4838.46884,N,00859.10437,E,0.05,,071021,,,A,V*20
$GNGNS,120215.50,4838.46884,N,00859.10437,E,AANN,07,1.22,494.1,47.5,,,V*1E
$GNGSA,A,3,09,02,03,06,19,22,,,,,,,2.10,1.22,1.71,1*02
$GNGSA,A,3,79,,,,,,,,,,,,2.10,1.22,1.71,2*09
$GNGSA,A,3,,,,,,,,,,,,,2.10,1.22,1.71,3*06
$GNVTG,,T,,M,0.050,N,0.092,K,A*33
$SMGPS,-0.0 m,+0.00 m/s,5.54 VRx,0.000 km,1 m,213.5 °,1:-- (  0.0 km/h),494.8 m*BE
$SMGPS2,-0.17 X,+0.15 Y,+0.98 Z,0 ENL,1084 us,0.0 kmh,969.78 hPa,969.49 hPa,-0.00 m/s*33
$GNRMC,120216.00,A,4838.46882,N,00859.10435,E,0.23,,071021,,,A,V*26
$GNGNS,120216.00,4838.46882,N,00859.10435,E,AANN,07,1.22,494.1,47.5,,,V*1C
$GNGSA,A,3,09,02,03,06,19,22,,,,,,,2.10,1.22,1.71,1*02
$GNGSA,A,3,79,,,,,,,,,,,,2.10,1.22,1.71,2*09
$GNGSA,A,3,,,,,,,,,,,,,2.10,1.22,1.71,3*06
$GNVTG,,T,,M,0.225,N,0.417,K,A*3A
$SMGPS,0.0 m,-0.00 m/s,5.56 VRx,0.000 km,1 m,213.5 °,1:-- (  0.0 km/h),494.9 m*96
$SMGPS2,-0.17 X,+0.16 Y,+0.98 Z,0 ENL,1084 us,0.0 kmh,969.78 hPa,969.49 hPa,+0.00 m/s*36
$GNRMC,120216.50,A,4838.46884,N,00859.10434,E,0.37,,071021,,,A,V*21
$GNGNS,120216.50,4838.46884,N,00859.10434,E,AANN,07,1.22,494.1,47.5,,,V*1E
$GNGSA,A,3,09,02,03,06,19,22,,,,,,,2.10,1.22,1.71,1*02
$GNGSA,A,3,79,,,,,,,,,,,,2.10,1.22,1.71,2*09
$GNGSA,A,3,,,,,,,,,,,,,2.10,1.22,1.71,3*06
$GNVTG,,T,,M,0.372,N,0.688,K,A*3D
$SMGPS,-0.0 m,+0.00 m/s,5.56 VRx,0.000 km,1 m,213.5 °,1:-- (  0.0 km/h),494.9 m*BD
$SMGPS2,-0.17 X,+0.16 Y,+0.98 Z,0 ENL,1084 us,0.0 kmh,969.78 hPa,969.50 hPa,-0.01 m/s*39
$GNRMC,120217.00,A,4838.46885,N,00859.10431,E,0.09,,071021,,,A,V*2C
$GNGNS,120217.00,4838.46885,N,00859.10431,E,AANN,07,1.22,494.1,47.5,,,V*1E
$GNGSA,A,3,09,02,03,06,19,22,,,,,,,2.10,1.22,1.71,1*02
$GNGSA,A,3,79,,,,,,,,,,,,2.10,1.22,1.71,2*09
$GNGSA,A,3,,,,,,,,,,,,,2.10,1.22,1.71,3*06
$GNVTG,,T,,M,0.089,N,0.165,K,A*3E
$SMGPS,0.0 m,-0.02 m/s,5.56 VRx,0.000 km,1 m,213.5 °,1:-- (  0.0 km/h),494.9 m*94
$SMGPS2,-0.17 X,+0.15 Y,+0.98 Z,0 ENL,1084 us,0.0 kmh,969.78 hPa,969.49 hPa,-0.01 m/s*32
$GNRMC,120217.50,A,4838.46885,N,00859.10430,E,0.01,,071021,,,A,V*20
$GNGNS,120217.50,4838.46885,N,00859.10430,E,AANN,07,1.22,494.1,47.5,,,V*1A
$GNGSA,A,3,09,02,03,06,19,22,,,,,,,2.10,1.22,1.71,1*02
$GNGSA,A,3,79,,,,,,,,,,,,2.10,1.22,1.71,2*09
$GNGSA,A,3,,,,,,,,,,,,,2.10,1.22,1.71,3*06
$GNVTG,,T,,M,0.003,N,0.006,K,A*38
$SMGPS,0.0 m,-0.00 m/s,5.56 VRx,0.000 km,1 m,216.6 °,1:-- (  0.0 km/h),495.1 m*99
$SMGPS2,-0.17 X,+0.15 Y,+0.98 Z,0 ENL,1084 us,0.0 kmh,969.78 hPa,969.49 hPa,+0.02 m/s*37
$GNRMC,120218.00,A,4838.46886,N,00859.10430,E,0.12,,071021,,,A,V*2B
$GNGNS,120218.00,4838.46886,N,00859.10430,E,AANN,07,1.22,494.1,47.5,,,V*13
$GNGSA,A,3,09,02,03,06,19,22,,,,,,,2.10,1.22,1.71,1*02
$GNGSA,A,3,79,,,,,,,,,,,,2.10,1.22,1.71,2*09
$GNGSA,A,3,,,,,,,,,,,,,2.10,1.22,1.71,3*06
$GNVTG,,T,,M,0.122,N,0.226,K,A*3A
$SMGPS,-0.0 m,-0.01 m/s,5.56 VRx,0.000 km,1 m,216.6 °,1:-- (  0.0 km/h),495.2 m*B6
$SMGPS2,-0.17 X,+0.15 Y,+0.98 Z,0 ENL,1084 us,0.0 kmh,969.78 hPa,969.49 hPa,+0.01 m/s*34
$GNRMC,120218.50,A,4838.46886,N,00859.10428,E,0.03,,071021,,,A,V*27
$GNGNS,120218.50,4838.46886,N,00859.10428,E,AANN,07,1.22,494.1,47.5,,,V*1F
$GNGSA,A,3,09,02,03,06,19,22,,,,,,,2.10,1.22,1.71,1*02
$GNGSA,A,3,79,,,,,,,,,,,,2.10,1.22,1.71,2*09
$GNGSA,A,3,,,,,,,,,,,,,2.10,1.22,1.71,3*06
$GNVTG,,T,,M,0.027,N,0.050,K,A*3D
$SMGPS,-0.0 m,+0.00 m/s,5.56 VRx,0.000 km,1 m,216.6 °,1:-- (  0.0 km/h),495.2 m*B1
$SMGPS2,-0.17 X,+0.16 Y,+0.98 Z,0 ENL,1084 us,0.0 kmh,969.78 hPa,969.49 hPa,-0.01 m/s*31
$GNRMC,120219.00,A,4838.46888,N,00859.10426,E,0.16,,071021,,,A,V*27
$GNGNS,120219.00,4838.46888,N,00859.10426,E,AANN,07,1.22,494.1,47.5,,,V*1B
$GNGSA,A,3,09,02,03,06,19,22,,,,,,,2.10,1.22,1.71,1*02
$GNGSA,A,3,79,,,,,,,,,,,,2.10,1.22,1.71,2*09
$GNGSA,A,3,,,,,,,,,,,,,2.10,1.22,1.71,3*06
$GNVTG,,T,,M,0.163,N,0.302,K,A*38
$SMGPS,-0.0 m,-0.00 m/s,5.56 VRx,0.000 km,1 m,216.6 °,1:-- (  0.0 km/h),495.2 m*B7
$SMGPS2,-0.17 X,+0.15 Y,+0.98 Z,0 ENL,1084 us,0.0 kmh,969.78 hPa,969.49 hPa,-0.00 m/s*33
$GNRMC,120219.50,A,4838.46892,N,00859.10425,E,0.23,,071021,,,A,V*2C
$GNGNS,120219.50,4838.46892,N,00859.10425,E,AANN,07,1.22,494.1,47.5,,,V*16
$GNGSA,A,3,09,02,03,06,19,22,,,,,,,2.10,1.22,1.71,1*02
$GNGSA,A,3,79,,,,,,,,,,,,2.10,1.22,1.71,2*09
$GNGSA,A,3,,,,,,,,,,,,,2.10,1.22,1.71,3*06
$GNVTG,,T,,M,0.231,N,0.427,K,A*3C
$SMGPS,0.0 m,-0.00 m/s,5.56 VRx,0.000 km,1 m,219.6 °,1:-- (  0.0 km/h),495.4 m*93
$SMGPS2,-0.17 X,+0.15 Y,+0.98 Z,0 ENL,1084 us,0.0 kmh,969.78 hPa,969.49 hPa,+0.00 m/s*35
$GNRMC,120220.00,A,4838.46892,N,00859.10422,E,0.33,,071021,,,A,V*25
$GNGNS,120220.00,4838.46892,N,00859.10422,E,AANN,07,1.22,494.1,47.5,,,V*1E
$GNGSA,A,3,09,02,03,06,19,22,,,,,,,2.10,1.22,1.71,1*02
$GNGSA,A,3,79,,,,,,,,,,,,2.10,1.22,1.71,2*09
$GNGSA,A,3,,,,,,,,,,,,,2.10,1.22,1.71,3*06
$GNVTG,,T,,M,0.327,N,0.606,K,A*3B
$SMGPS,-0.0 m,-0.01 m/s,5.56 VRx,0.000 km,1 m,219.6 °,1:-- (  0.0 km/h),495.5 m*BE
$SMGPS2,-0.17 X,+0.15 Y,+0.98 Z,0 ENL,1084 us,0.0 kmh,969.78 hPa,969.49 hPa,+0.00 m/s*35
$GNRMC,120220.50,A,4838.46889,N,00859.10420,E,0.73,,071021,,,A,V*2C
$GNGNS,120220.50,4838.46889,N,00859.10420,E,AANN,07,1.22,494.1,47.5,,,V*13
$GNGSA,A,3,09,02,03,06,19,22,,,,,,,2.10,1.22,1.71,1*02
$GNGSA,A,3,79,,,,,,,,,,,,2.10,1.22,1.71,2*09
$GNGSA,A,3,,,,,,,,,,,,,2.10,1.22,1.71,3*06
$GNVTG,,T,,M,0.734,N,1.360,K,A*39
$SMGPS,0.0 m,+0.01 m/s,5.56 VRx,0.000 km,1 m,219.6 °,1:-- (  0.0 km/h),495.6 m*96
$SMGPS2,-0.17 X,+0.15 Y,+0.98 Z,0 ENL,1084 us,0.0 kmh,969.78 hPa,969.49 hPa,+0.00 m/s*35
$GNRMC,120221.00,A,4838.46885,N,00859.10420,E,0.22,,071021,,,A,V*20
$GNGNS,120221.00,4838.46885,N,00859.10420,E,AANN,07,1.22,494.1,47.5,,,V*1B
$GNGSA,A,3,09,02,03,06,19,22,,,,,,,2.10,1.22,1.71,1*02
$GNGSA,A,3,79,,,,,,,,,,,,2.10,1.22,1.71,2*09
$GNGSA,A,3,,,,,,,,,,,,,2.10,1.22,1.71,3*06
$GNVTG,,T,,M,0.220,N,0.408,K,A*31
$SMGPS,-0.0 m,+0.00 m/s,5.55 VRx,0.000 km,1 m,222.3 °,1:-- (  0.0 km/h),495.7 m*B5
$SMGPS2,-0.16 X,+0.15 Y,+0.98 Z,0 ENL,1084 us,0.0 kmh,969.78 hPa,969.49 hPa,-0.00 m/s*32
$GNRMC,120221.50,A,4838.46885,N,00859.10421,E,0.29,,071021,,,A,V*2F
$GNGNS,120221.50,4838.46885,N,00859.10421,E,AANN,07,1.22,494.1,47.5,,,V*1F
$GNGSA,A,3,09,02,03,06,19,22,,,,,,,2.10,1.22,1.71,1*02
$GNGSA,A,3,79,,,,,,,,,,,,2.10,1.22,1.71,2*09
$GNGSA,A,3,,,,,,,,,,,,,2.10,1.22,1.71,3*06
$GNVTG,,T,,M,0.285,N,0.528,K,A*3D
$SMGPS,-0.0 m,+0.02 m/s,5.56 VRx,0.000 km,1 m,222.3 °,1:-- (  0.0 km/h),495.7 m*B4
$SMGPS2,-0.16 X,+0.15 Y,+0.98 Z,0 ENL,1084 us,0.0 kmh,969.78 hPa,969.49 hPa,+0.01 m/s*35
$GNRMC,120222.00,A,4838.46888,N,00859.10421,E,0.12,,071021,,,A,V*2C
$GNGNS,120222.00,4838.46888,N,00859.10421,E,AANN,07,1.22,494.1,47.5,,,V*14
$GNGSA,A,3,09,02,03,06,19,22,,,,,,,2.10,1.22,1.71,1*02
$GNGSA,A,3,79,,,,,,,,,,,,2.10,1.22,1.71,2*09
$GNGSA,A,3,,,,,,,,,,,,,2.10,1.22,1.71,3*06
$GNVTG,,T,,M,0.119,N,0.221,K,A*35
$SMGPS,-0.0 m,-0.00 m/s,5.56 VRx,0.000 km,1 m,222.3 °,1:-- (  0.0 km/h),495.8 m*BF
$SMGPS2,-0.17 X,+0.15 Y,+0.98 Z,0 ENL,1084 us,0.0 kmh,969.78 hPa,969.49 hPa,+0.01 m/s*34
$GNRMC,120222.50,A,4838.46886,N,00859.10422,E,0.11,,071021,,,A,V*27
$GNGNS,120222.50,4838.46886,N,00859.10422,E,AANN,07,1.22,494.1,47.5,,,V*1C
$GNGSA,A,3,09,02,03,06,19,22,,,,,,,2.10,1.22,1.71,1*02
$GNGSA,A,3,79,,,,,,,,,,,,2.10,1.22,1.71,2*09
$GNGSA,A,3,,,,,,,,,,,,,2.10,1.22,1.71,3*06
$GNVTG,,T,,M,0.108,N,0.199,K,A*35
$SMGPS,0.0 m,-0.00 m/s,5.56 VRx,0.000 km,1 m,222.3 °,1:-- (  0.0 km/h),495.7 m*9D
$SMGPS2,-0.16 X,+0.15 Y,+0.98 Z,0 ENL,1084 us,0.0 kmh,969.78 hPa,969.49 hPa,+0.02 m/s*36
$GNRMC,120223.00,A,4838.46891,N,00859.10423,E,0.46,,071021,,,A,V*26
$GNGNS,120223.00,4838.46891,N,00859.10423,E,AANN,07,1.22,494.1,47.5,,,V*1F
$GNGSA,A,3,09,02,03,06,19,22,,,,,,,2.10,1.22,1.71,1*02
$GNGSA,A,3,79,,,,,,,,,,,,2.10,1.22,1.71,2*09
$GNGSA,A,3,,,,,,,,,,,,,2.10,1.22,1.71,3*06
$GNVTG,,T,,M,0.459,N,0.850,K,A*38
$SMGPS,-0.0 m,-0.01 m/s,5.56 VRx,0.000 km,1 m,219.6 °,1:-- (  0.0 km/h),495.7 m*BC
$SMGPS2,-0.16 X,+0.15 Y,+0.98 Z,0 ENL,1084 us,0.0 kmh,969.78 hPa,969.49 hPa,+0.01 m/s*35
$GNRMC,120223.50,A,4838.46894,N,00859.10426,E,0.14,,071021,,,A,V*24
$GNGNS,120223.50,4838.46894,N,00859.10426,E,AANN,07,1.22,494.2,47.5,,,V*19
$GNGSA,A,3,09,02,03,06,19,22,,,,,,,2.10,1.22,1.71,1*02
$GNGSA,A,3,79,,,,,,,,,,,,2.10,1.22,1.71,2*09
$GNGSA,A,3,,,,,,,,,,,,,2.10,1.22,1.71,3*06
$GNVTG,,T,,M,0.143,N,0.265,K,A*3A
$SMGPS,0.1 m,-0.00 m/s,5.56 VRx,0.000 km,1 m,219.6 °,1:-- (  0.0 km/h),495.7 m*91
$SMGPS2,-0.17 X,+0.15 Y,+0.98 Z,0 ENL,1084 us,0.0 kmh,969.77 hPa,969.49 hPa,-0.02 m/s*3E
$GNRMC,120224.00,A,4838.46896,N,00859.10428,E,0.13,,071021,,,A,V*2D
$GNGNS,120224.00,4838.46896,N,00859.10428,E,AANN,07,1.22,494.1,47.5,,,V*14
$GNGSA,A,3,09,02,03,06,19,22,,,,,,,2.10,1.22,1.71,1*02
$GNGSA,A,3,79,,,,,,,,,,,,2.10,1.22,1.71,2*09
$GNGSA,A,3,,,,,,,,,,,,,2.10,1.22,1.71,3*06
$GNVTG,,T,,M,0.127,N,0.235,K,A*3D
$SMGPS,0.0 m,-0.01 m/s,5.56 VRx,0.000 km,1 m,219.6 °,1:-- (  0.0 km/h),495.7 m*91
$SMGPS2,-0.17 X,+0.15 Y,+0.98 Z,0 ENL,1084 us,0.0 kmh,969.78 hPa,969.49 hPa,-0.01 m/s*32
$GNRMC,120224.50,A,4838.46902,N,00859.10433,E,0.26,,071021,,,A,V*28
$GNGNS,120224.50,4838.46902,N,00859.10433,E,AANN,07,1.22,494.0,47.5,,,V*16
$GNGSA,A,3,09,02,03,06,19,22,,,,,,,2.10,1.22,1.71,1*02
$GNGSA,A,3,79,,,,,,,,,,,,2.10,1.22,1.71,2*09
$GNGSA,A,3,,,,,,,,,,,,,2.10,1.22,1.71,3*06
$GNVTG,,T,,M,0.255,N,0.472,K,A*3E
$SMGPS,-0.1 m,-0.01 m/s,5.56 VRx,0.000 km,1 m,216.6 °,1:-- (  0.0 km/h),495.7 m*B2
$SMGPS2,-0.17 X,+0.15 Y,+0.97 Z,2 ENL,1084 us,0.0 kmh,969.79 hPa,969.48 hPa,+0.01 m/s*39
$GNRMC,120225.00,A,4838.46910,N,00859.10436,E,0.37,,071021,,,A,V*2A
$GNGNS,120225.00,4838.46910,N,00859.10436,E,AANN,07,1.22,494.1,47.5,,,V*15
$GNGSA,A,3,09,02,03,06,19,22,,,,,,,2.10,1.22,1.71,1*02
$GNGSA,A,3,79,,,,,,,,,,,,2.10,1.22,1.71,2*09
$GNGSA,A,3,,,,,,,,,,,,,2.10,1.22,1.71,3*06
$GNVTG,,T,,M,0.372,N,0.689,K,A*3C
$SMGPS,0.0 m,-0.00 m/s,5.56 VRx,0.000 km,1 m,270.0 °,1:-- (  0.0 km/h),495.8 m*96
$SMGPS2,-0.17 X,+0.15 Y,+0.98 Z,1 ENL,1084 us,0.0 kmh,969.78 hPa,969.49 hPa,+0.00 m/s*34
$GNRMC,120225.50,A,4838.46919,N,00859.10435,E,0.22,,071021,,,A,V*21
$GNGNS,120225.50,4838.46919,N,00859.10435,E,AANN,07,1.22,494.1,47.5,,,V*1A
$GNGSA,A,3,09,02,03,06,19,22,,,,,,,2.10,1.22,1.71,1*02
$GNGSA,A,3,79,,,,,,,,,,,,2.10,1.22,1.71,2*09
$GNGSA,A,3,,,,,,,,,,,,,2.10,1.22,1.71,3*06
$GNVTG,,T,,M,0.218,N,0.403,K,A*31
$SMGPS,0.0 m,+0.01 m/s,5.56 VRx,0.000 km,1 m,270.0 °,1:-- (  0.0 km/h),496.0 m*9A
$SMGPS2,-0.17 X,+0.15 Y,+0.98 Z,0 ENL,1084 us,0.0 kmh,969.78 hPa,969.49 hPa,+0.01 m/s*34
$GNRMC,120226.00,A,4838.46928,N,00859.10438,E,0.70,,071021,,,A,V*2F
$GNGNS,120226.00,4838.46928,N,00859.10438,E,AANN,07,1.22,494.1,47.5,,,V*13
$GNGSA,A,3,09,02,03,06,19,22,,,,,,,2.10,1.22,1.71,1*02
$GNGSA,A,3,79,,,,,,,,,,,,2.10,1.22,1.71,2*09
$GNGSA,A,3,,,,,,,,,,,,,2.10,1.22,1.71,3*06
$GNVTG,,T,,M,0.696,N,1.288,K,A*37
$SMGPS,-0.0 m,+0.00 m/s,5.55 VRx,0.000 km,1 m,270.0 °,1:-- (  0.0 km/h),496.0 m*B5
$SMGPS2,-0.17 X,+0.15 Y,+0.98 Z,5 ENL,1084 us,0.0 kmh,969.78 hPa,969.49 hPa,-0.01 m/s*37
$GNRMC,120226.50,A,4838.46919,N,00859.10433,E,2.29,,071021,,,A,V*2D
$GNGNS,120226.50,4838.46919,N,00859.10433,E,AANN,07,1.22,494.1,47.5,,,V*1F
$GNGSA,A,3,09,02,03,06,19,22,,,,,,,2.10,1.22,1.71,1*02
$GNGSA,A,3,79,,,,,,,,,,,,2.10,1.22,1.71,2*09
$GNGSA,A,3,,,,,,,,,,,,,2.10,1.22,1.71,3*06
$GNVTG,,T,,M,2.286,N,4.234,K,A*32
$SMGPS,-0.0 m,+0.00 m/s,5.56 VRx,0.000 km,1 m,270.0 °,1:-- (  0.0 km/h),496.0 m*B6
$SMGPS2,-0.17 X,+0.15 Y,+0.98 Z,2 ENL,1084 us,0.0 kmh,969.78 hPa,969.49 hPa,-0.01 m/s*30
$GNRMC,120227.00,A,4838.46889,N,00859.10420,E,2.59,220.72,071021,,,A,V*3F
$GNGNS,120227.00,4838.46889,N,00859.10420,E,AANN,07,1.22,494.1,47.5,,,V*11
$GNGSA,A,3,09,02,03,06,19,22,,,,,,,2.10,1.22,1.71,1*02
$GNGSA,A,3,79,,,,,,,,,,,,2.10,1.22,1.71,2*09
$GNGSA,A,3,,,,,,,,,,,,,2.10,1.22,1.71,3*06
$GNVTG,220.72,T,,M,2.589,N,4.795,K,A*2F
$SMGPS,-0.0 m,-0.01 m/s,5.56 VRx,0.000 km,1 m,270.0 °,1:-- (  0.0 km/h),496.0 m*B1
$SMGPS2,-0.17 X,+0.13 Y,+0.98 Z,16 ENL,1084 us,0.0 kmh,969.78 hPa,969.49 hPa,+0.01 m/s*05
$GNRMC,120227.50,A,4838.46848,N,00859.10395,E,3.79,,071021,,,A,V*26
$GNGNS,120227.50,4838.46848,N,00859.10395,E,AANN,07,1.22,494.1,47.5,,,V*10
$GNGSA,A,3,09,02,03,06,19,22,,,,,,,2.10,1.22,1.71,1*02
$GNGSA,A,3,79,,,,,,,,,,,,2.10,1.22,1.71,2*09
$GNGSA,A,3,,,,,,,,,,,,,2.10,1.22,1.71,3*06
$GNVTG,,T,,M,3.789,N,7.018,K,A*36
$SMGPS,0.0 m,-0.02 m/s,5.56 VRx,0.001 km,1 m,222.3 °,1:-- (  0.0 km/h),496.1 m*9B
$SMGPS2,-0.16 X,+0.13 Y,+0.98 Z,13 ENL,1084 us,0.0 kmh,969.78 hPa,969.49 hPa,-0.01 m/s*07
$GNRMC,120228.00,A,4838.46821,N,00859.10378,E,1.12,,071021,,,A,V*2F
$GNGNS,120228.00,4838.46821,N,00859.10378,E,AANN,07,1.22,494.1,47.5,,,V*16
$GNGSA,A,3,09,02,03,06,19,22,,,,,,,2.10,1.22,1.71,1*02
$GNGSA,A,3,79,,,,,,,,,,,,2.10,1.22,1.71,2*09
$GNGSA,A,3,,,,,,,,,,,,,2.10,1.22,1.71,3*06
$GNVTG,,T,,M,1.122,N,2.079,K,A*31
$SMGPS,0.0 m,-0.00 m/s,5.56 VRx,0.002 km,2 m,207.9 °,1:-- (  0.0 km/h),496.1 m*94
$SMGPS2,-0.17 X,+0.15 Y,+0.98 Z,0 ENL,1084 us,0.0 kmh,969.78 hPa,969.49 hPa,-0.01 m/s*32
$GNRMC,120228.50,A,4838.46837,N,00859.10386,E,2.68,,071021,,,A,V*22
$GNGNS,120228.50,4838.46837,N,00859.10386,E,AANN,07,1.22,494.1,47.5,,,V*15
$GNGSA,A,3,09,02,03,06,19,22,,,,,,,2.10,1.22,1.71,1*02
$GNGSA,A,3,79,,,,,,,,,,,,2.10,1.22,1.71,2*09
$GNGSA,A,3,,,,,,,,,,,,,2.10,1.22,1.71,3*06
$GNVTG,,T,,M,2.677,N,4.957,K,A*36
$SMGPS,-0.0 m,+0.00 m/s,5.56 VRx,0.002 km,3 m,212.1 °,1:-- (  0.0 km/h),496.2 m*B1
$SMGPS2,-0.17 X,+0.15 Y,+0.98 Z,4 ENL,1084 us,0.0 kmh,969.78 hPa,969.49 hPa,-0.01 m/s*36
$GNRMC,120229.00,A,4838.46855,N,00859.10400,E,0.45,,071021,,,A,V*26
$GNGNS,120229.00,4838.46855,N,00859.10400,E,AANN,07,1.22,494.1,47.5,,,V*1C
$GNGSA,A,3,09,02,03,06,19,22,,,,,,,2.10,1.22,1.71,1*02
$GNGSA,A,3,79,,,,,,,,,,,,2.10,1.22,1.71,2*09
$GNGSA,A,3,,,,,,,,,,,,,2.10,1.22,1.71,3*06
$GNVTG,,T,,M,0.445,N,0.824,K,A*36
$SMGPS,-0.0 m,+0.00 m/s,5.56 VRx,0.003 km,2 m,209.3 °,1:-- (  0.0 km/h),496.4 m*BF
$SMGPS2,-0.17 X,+0.15 Y,+0.98 Z,37 ENL,1084 us,0.0 kmh,969.78 hPa,969.49 hPa,-0.00 m/s*07
$GNRMC,120229.50,A,4838.46869,N,00859.10411,E,0.90,,071021,,,A,V*24
$GNGNS,120229.50,4838.46869,N,00859.10411,E,AANN,07,1.22,494.1,47.5,,,V*16
$GNGSA,A,3,09,02,03,06,19,22,,,,,,,2.10,1.22,1.71,1*02
$GNGSA,A,3,79,,,,,,,,,,,,2.10,1.22,1.71,2*09
$GNGSA,A,3,,,,,,,,,,,,,2.10,1.22,1.71,3*06
$GNVTG,,T,,M,0.895,N,1.657,K,A*3C
$SMGPS,-0.0 m,-0.00 m/s,5.56 VRx,0.003 km,1 m,231.1 °,1:-- (  0.0 km/h),496.8 m*BF
$SMGPS2,-0.16 X,+0.15 Y,+0.98 Z,0 ENL,1084 us,0.0 kmh,969.78 hPa,969.49 hPa,+0.00 m/s*34
$GNRMC,120230.00,A,4838.46886,N,00859.10413,E,1.29,,071021,,,A,V*29
$GNGNS,120230.00,4838.46886,N,00859.10413,E,AANN,07,1.22,494.1,47.5,,,V*18
$GNGSA,A,3,09,02,03,06,19,22,,,,,,,2.10,1.22,1.71,1*02
$GNGSA,A,3,79,,,,,,,,,,,,2.10,1.22,1.71,2*09
$GNGSA,A,3,,,,,,,,,,,,,2.10,1.22,1.71,3*06
$GNVTG,,T,,M,1.287,N,2.383,K,A*3B
$SMGPS,-0.0 m,-0.02 m/s,5.56 VRx,0.003 km,1 m,227.0 °,1:-- (  0.0 km/h),496.8 m*BB
$SMGPS2,-0.17 X,+0.15 Y,+0.98 Z,0 ENL,1084 us,0.0 kmh,969.78 hPa,969.50 hPa,-0.01 m/s*3A
$GNRMC,120230.50,A,4838.46887,N,00859.10405,E,0.72,,071021,,,A,V*25
$GNGNS,120230.50,4838.46887,N,00859.10405,E,AANN,07,1.22,494.1,47.5,,,V*1B
$GNGSA,A,3,09,02,03,06,19,22,,,,,,,2.10,1.22,1.71,1*02
$GNGSA,A,3,79,,,,,,,,,,,,2.10,1.22,1.71,2*09
$GNGSA,A,3,,,,,,,,,,,,,2.10,1.22,1.71,3*06
$GNVTG,,T,,M,0.719,N,1.332,K,A*31
$SMGPS,0.0 m,+0.01 m/s,5.56 VRx,0.003 km,1 m,227.0 °,1:-- (  0.0 km/h),496.2 m*99
$SMGPS2,-0.17 X,+0.15 Y,+0.98 Z,0 ENL,1084 us,0.0 kmh,969.78 hPa,969.49 hPa,-0.00 m/s*33
$GNRMC,120231.00,A,4838.46894,N,00859.10406,E,0.09,,071021,,,A,V*2C
$GNGNS,120231.00,4838.46894,N,00859.10406,E,AANN,07,1.22,494.0,47.5,,,V*1F
$GNGSA,A,3,09,02,03,06,19,22,,,,,,,2.10,1.22,1.71,1*02
$GNGSA,A,3,79,,,,,,,,,,,,2.10,1.22,1.71,2*09
$GNGSA,A,3,,,,,,,,,,,,,2.10,1.22,1.71,3*06
$GNVTG,,T,,M,0.084,N,0.156,K,A*33
$SMGPS,-0.1 m,-0.02 m/s,5.56 VRx,0.003 km,1 m,229.1 °,1:-- (  0.0 km/h),495.9 m*B7
$SMGPS2,-0.16 X,+0.16 Y,+0.98 Z,0 ENL,1084 us,0.0 kmh,969.79 hPa,969.49 hPa,-0.02 m/s*32
$GNRMC,120231.50,A,4838.46895,N,00859.10405,E,0.15,,071021,,,A,V*26
$GNGNS,120231.50,4838.46895,N,00859.10405,E,AANN,07,1.22,494.1,47.5,,,V*19
$GNGSA,A,3,09,02,03,06,19,22,,,,,,,2.09,1.22,1.71,1*0A
$GNGSA,A,3,79,,,,,,,,,,,,2.10,1.22,1.71,2*09
$GNGSA,A,3,,,,,,,,,,,,,2.10,1.22,1.71,3*06
$GNVTG,,T,,M,0.140,N,0.260,K,A*3C
$SMGPS,-0.0 m,-0.02 m/s,5.55 VRx,0.003 km,1 m,229.1 °,1:-- (  0.0 km/h),495.9 m*B5
$SMGPS2,-0.17 X,+0.15 Y,+0.98 Z,0 ENL,1084 us,0.0 kmh,969.78 hPa,969.49 hPa,-0.02 m/s*31
$GNRMC,120232.00,A,4838.46903,N,00859.10406,E,0.36,,071021,,,A,V*2C
$GNGNS,120232.00,4838.46903,N,00859.10406,E,AANN,07,1.22,494.1,47.5,,,V*12
$GNGSA,A,3,09,02,03,06,19,22,,,,,,,2.09,1.22,1.71,1*0A
$GNGSA,A,3,79,,,,,,,,,,,,2.09,1.22,1.71,2*01
$GNGSA,A,3,,,,,,,,,,,,,2.09,1.22,1.71,3*0E
$GNVTG,,T,,M,0.363,N,0.672,K,A*38
$SMGPS,0.0 m,+0.01 m/s,5.56 VRx,0.003 km,1 m,229.1 °,1:-- (  0.0 km/h),495.8 m*9F
$SMGPS2,-0.16 X,+0.16 Y,+0.98 Z,0 ENL,1084 us,0.0 kmh,969.78 hPa,969.49 hPa,-0.00 m/s*31
$GNRMC,120232.50,A,4838.46900,N,00859.10406,E,0.23,,071021,,,A,V*2E
$GNGNS,120232.50,4838.46900,N,00859.10406,E,AANN,07,1.22,494.1,47.5,,,V*14
$GNGSA,A,3,09,02,03,06,19,22,,,,,,,2.09,1.22,1.71,1*0A
$GNGSA,A,3,79,,,,,,,,,,,,2.09,1.22,1.71,2*01
$GNGSA,A,3,,,,,,,,,,,,,2.09,1.22,1.71,3*0E
$GNVTG,,T,,M,0.228,N,0.423,K,A*30
$SMGPS,0.0 m,+0.01 m/s,5.56 VRx,0.003 km,1 m,270.0 °,1:-- (  0.0 km/h),495.7 m*9D
$SMGPS2,-0.16 X,+0.15 Y,+0.98 Z,0 ENL,1084 us,0.0 kmh,969.78 hPa,969.49 hPa,-0.01 m/s*33
$GNRMC,120233.00,A,4838.46894,N,00859.10401,E,0.20,,071021,,,A,V*22
$GNGNS,120233.00,4838.46894,N,00859.10401,E,AANN,07,1.22,494.1,47.5,,,V*1B
$GNGSA,A,3,09,02,03,06,19,22,,,,,,,2.09,1.22,1.71,1*0A
$GNGSA,A,3,79,,,,,,,,,,,,2.09,1.22,1.71,2*01
$GNGSA,A,3,,,,,,,,,,,,,2.09,1.22,1.71,3*0E
$GNVTG,,T,,M,0.196,N,0.363,K,A*35
$SMGPS,0.0 m,+0.00 m/s,5.56 VRx,0.003 km,1 m,270.0 °,1:-- (  0.0 km/h),495.6 m*9D
$SMGPS2,-0.17 X,+0.16 Y,+0.98 Z,0 ENL,1084 us,0.0 kmh,969.78 hPa,969.49 hPa,-0.00 m/s*30
$GNRMC,120233.50,A,4838.46891,N,00859.10398,E,0.09,,071021,,,A,V*2E
$GNGNS,120233.50,4838.46891,N,00859.10398,E,AANN,07,1.22,494.1,47.5,,,V*1C
$GNGSA,A,3,09,02,03,06,19,22,,,,,,,2.09,1.22,1.71,1*0A
$GNGSA,A,3,79,,,,,,,,,,,,2.09,1.22,1.71,2*01
$GNGSA,A,3,,,,,,,,,,,,,2.09,1.22,1.71,3*0E
$GNVTG,,T,,M,0.094,N,0.173,K,A*35
$SMGPS,0.0 m,-0.00 m/s,5.56 VRx,0.003 km,1 m,231.1 °,1:-- (  0.0 km/h),495.6 m*9F
$SMGPS2,-0.17 X,+0.15 Y,+0.98 Z,0 ENL,1084 us,0.0 kmh,969.78 hPa,969.49 hPa,-0.01 m/s*32
$GNRMC,120234.00,A,4838.46900,N,00859.10399,E,0.25,,071021,,,A,V*2A
$GNGNS,120234.00,4838.46900,N,00859.10399,E,AANN,07,1.22,494.1,47.5,,,V*16
$GNGSA,A,3,09,02,03,06,19,22,,,,,,,2.09,1.22,1.71,1*0A
$GNGSA,A,3,79,,,,,,,,,,,,2.09,1.22,1.71,2*01
$GNGSA,A,3,,,,,,,,,,,,,2.09,1.22,1.71,3*0E
$GNVTG,,T,,M,0.245,N,0.453,K,A*3C
$SMGPS,0.0 m,-0.00 m/s,5.56 VRx,0.003 km,1 m,231.1 °,1:-- (  0.0 km/h),495.3 m*9A
$SMGPS2,-0.17 X,+0.15 Y,+0.98 Z,0 ENL,1084 us,0.0 kmh,969.78 hPa,969.50 hPa,-0.01 m/s*3A
$GNRMC,120234.50,A,4838.46913,N,00859.10394,E,0.03,,071021,,,A,V*24
$GNGNS,120234.50,4838.46913,N,00859.10394,E,AANN,07,1.22,494.1,47.5,,,V*1C
$GNGSA,A,3,09,02,03,06,19,22,,,,,,,2.09,1.22,1.71,1*0A
$GNGSA,A,3,79,,,,,,,,,,,,2.09,1.22,1.71,2*01
$GNGSA,A,3,,,,,,,,,,,,,2.09,1.22,1.71,3*0E
$GNVTG,,T,,M,0.029,N,0.054,K,A*37
$SMGPS,0.0 m,+0.01 m/s,5.56 VRx,0.003 km,1 m,270.0 °,1:-- (  0.0 km/h),495.1 m*9B
$SMGPS2,-0.17 X,+0.15 Y,+0.98 Z,0 ENL,1084 us,0.0 kmh,969.78 hPa,969.49 hPa,+0.01 m/s*34
$GNRMC,120235.00,A,4838.46922,N,00859.10391,E,0.12,,071021,,,A,V*27
$GNGNS,120235.00,4838.46922,N,00859.10391,E,AANN,07,1.22,494.1,47.5,,,V*1F
$GNGSA,A,3,09,02,03,06,19,22,,,,,,,2.09,1.22,1.70,1*0B
$GNGSA,A,3,79,,,,,,,,,,,,2.09,1.22,1.71,2*01
$GNGSA,A,3,,,,,,,,,,,,,2.09,1.22,1.71,3*0E
$GNVTG,,T,,M,0.120,N,0.221,K,A*3F
$SMGPS,-0.0 m,+0.00 m/s,5.56 VRx,0.003 km,1 m,270.0 °,1:-- (  0.0 km/h),494.8 m*BF
$SMGPS2,-0.16 X,+0.15 Y,+0.98 Z,0 ENL,1084 us,0.0 kmh,969.78 hPa,969.49 hPa,+0.00 m/s*34
$GNRMC,120235.50,A,4838.46930,N,00859.10389,E,0.20,,071021,,,A,V*29
$GNGNS,120235.50,4838.46930,N,00859.10389,E,AANN,07,1.22,494.1,47.5,,,V*10
$GNGSA,A,3,09,02,03,06,19,22,,,,,,,2.09,1.22,1.70,1*0B
$GNGSA,A,3,79,,,,,,,,,,,,2.09,1.22,1.70,2*00
$GNGSA,A,3,,,,,,,,,,,,,2.09,1.22,1.70,3*0F
$GNVTG,,T,,M,0.201,N,0.373,K,A*39
$SMGPS,-0.0 m,-0.00 m/s,5.56 VRx,0.003 km,1 m,270.0 °,1:-- (  0.0 km/h),494.7 m*B6
$SMGPS2,-0.17 X,+0.15 Y,+0.98 Z,0 ENL,1084 us,0.0 kmh,969.78 hPa,969.49 hPa,-0.01 m/s*32
$GNRMC,120236.00,A,4838.46937,N,00859.10391,E,0.19,,071021,,,A,V*2B
$GNGNS,120236.00,4838.46937,N,00859.10391,E,AANN,07,1.22,494.1,47.5,,,V*18
$GNGSA,A,3,09,02,03,06,19,22,,,,,,,2.09,1.22,1.70,1*0B
$GNGSA,A,3,79,,,,,,,,,,,,2.09,1.22,1.70,2*00
$GNGSA,A,3,,,,,,,,,,,,,2.09,1.22,1.70,3*0F
$GNVTG,,T,,M,0.194,N,0.360,K,A*34
$SMGPS,0.0 m,+0.00 m/s,5.56 VRx,0.003 km,1 m,270.0 °,1:-- (  0.0 km/h),494.6 m*9C
$SMGPS2,-0.17 X,+0.16 Y,+0.98 Z,0 ENL,1084 us,0.0 kmh,969.78 hPa,969.49 hPa,-0.01 m/s*31
$GNRMC,120236.50,A,4838.46937,N,00859.10389,E,0.10,,071021,,,A,V*2E
$GNGNS,120236.50,4838.46937,N,00859.10389,E,AANN,07,1.22,494.1,47.5,,,V*14
$GNGSA,A,3,09,02,03,06,19,22,,,,,,,2.09,1.22,1.70,1*0B
$GNGSA,A,3,79,,,,,,,,,,,,2.09,1.22,1.70,2*00
$GNGSA,A,3,,,,,,,,,,,,,2.09,1.22,1.70,3*0F
$GNVTG,,T,,M,0.101,N,0.187,K,A*33
$SMGPS,-0.0 m,-0.00 m/s,5.56 VRx,0.003 km,1 m,270.0 °,1:-- (  0.0 km/h),494.5 m*B4
$SMGPS2,-0.17 X,+0.15 Y,+0.98 Z,0 ENL,1084 us,0.0 kmh,969.78 hPa,969.50 hPa,-0.02 m/s*39
$GNRMC,120237.00,A,4838.46936,N,00859.10392,E,0.21,,071021,,,A,V*23
$GNGNS,120237.00,4838.46936,N,00859.10392,E,AANN,07,1.22,494.1,47.5,,,V*1B
$GNGSA,A,3,09,02,03,06,19,22,,,,,,,2.09,1.22,1.70,1*0B
$GNGSA,A,3,79,,,,,,,,,,,,2.09,1.22,1.70,2*00
$GNGSA,A,3,,,,,,,,,,,,,2.09,1.22,1.70,3*0F
$GNVTG,,T,,M,0.205,N,0.380,K,A*31
$SMGPS,0.0 m,-0.00 m/s,5.55 VRx,0.003 km,1 m,270.0 °,1:-- (  0.0 km/h),494.6 m*99
$SMGPS2,-0.17 X,+0.15 Y,+0.98 Z,0 ENL,1084 us,0.0 kmh,969.78 hPa,969.50 hPa,-0.01 m/s*3A
$GNRMC,120237.50,A,4838.46933,N,00859.10395,E,0.26,,071021,,,A,V*23
$GNGNS,120237.50,4838.46933,N,00859.10395,E,AANN,07,1.22,494.1,47.5,,,V*1C
$GNGSA,A,3,09,02,03,06,19,22,,,,,,,2.09,1.22,1.70,1*0B
$GNGSA,A,3,79,,,,,,,,,,,,2.09,1.22,1.70,2*00
$GNGSA,A,3,,,,,,,,,,,,,2.09,1.22,1.70,3*0F
$GNVTG,,T,,M,0.264,N,0.489,K,A*38
$SMGPS,-0.0 m,+0.00 m/s,5.56 VRx,0.003 km,1 m,270.0 °,1:-- (  0.0 km/h),494.7 m*B0
$SMGPS2,-0.17 X,+0.15 Y,+0.98 Z,0 ENL,1084 us,0.0 kmh,969.78 hPa,969.50 hPa,-0.00 m/s*3B
$GNRMC,120238.00,A,4838.46936,N,00859.10397,E,0.23,,071021,,,A,V*2B
$GNGNS,120238.00,4838.46936,N,00859.10397,E,AANN,07,1.22,494.1,47.5,,,V*11
$GNGSA,A,3,09,02,03,06,19,22,,,,,,,2.09,1.22,1.70,1*0B
$GNGSA,A,3,79,,,,,,,,,,,,2.09,1.22,1.70,2*00
$GNGSA,A,3,,,,,,,,,,,,,2.09,1.22,1.70,3*0F
$GNVTG,,T,,M,0.231,N,0.427,K,A*3C
$SMGPS,-0.0 m,+0.01 m/s,5.56 VRx,0.003 km,1 m,270.0 °,1:-- (  0.0 km/h),494.9 m*BF
$SMGPS2,-0.17 X,+0.15 Y,+0.98 Z,0 ENL,1084 us,0.0 kmh,969.78 hPa,969.49 hPa,+0.02 m/s*37
$GNRMC,120238.50,A,4838.46934,N,00859.10397,E,0.36,,071021,,,A,V*28
$GNGNS,120238.50,4838.46934,N,00859.10397,E,AANN,07,1.22,494.1,47.5,,,V*16
$GNGSA,A,3,09,02,03,06,19,22,,,,,,,2.09,1.22,1.70,1*0B
$GNGSA,A,3,79,,,,,,,,,,,,2.09,1.22,1.70,2*00
$GNGSA,A,3,,,,,,,,,,,,,2.09,1.22,1.70,3*0F
$GNVTG,,T,,M,0.355,N,0.657,K,A*3A
$SMGPS,0.0 m,-0.00 m/s,5.56 VRx,0.003 km,1 m,270.0 °,1:-- (  0.0 km/h),494.9 m*95
$SMGPS2,-0.17 X,+0.15 Y,+0.98 Z,0 ENL,1084 us,0.0 kmh,969.78 hPa,969.49 hPa,+0.00 m/s*35
$GNRMC,120239.00,A,4838.46937,N,00859.10396,E,0.08,,071021,,,A,V*23
$GNGNS,120239.00,4838.46937,N,00859.10396,E,AANN,07,1.22,494.1,47.5,,,V*10
$GNGSA,A,3,09,02,03,06,19,22,,,,,,,2.09,1.22,1.70,1*0B
$GNGSA,A,3,79,,,,,,,,,,,,2.09,1.22,1.70,2*00
$GNGSA,A,3,,,,,,,,,,,,,2.09,1.22,1.70,3*0F
$GNVTG,,T,,M,0.062,N,0.115,K,A*3C
$SMGPS,-0.0 m,+0.02 m/s,5.56 VRx,0.003 km,1 m,270.0 °,1:-- (  0.0 km/h),494.8 m*BD
$SMGPS2,-0.17 X,+0.15 Y,+0.98 Z,0 ENL,1084 us,0.0 kmh,969.78 hPa,969.49 hPa,+0.01 m/s*34
$GNRMC,120239.50,A,4838.46930,N,00859.10392,E,0.08,,071021,,,A,V*25
$GNGNS,120239.50,4838.46930,N,00859.10392,E,AANN,07,1.22,494.0,47.5,,,V*17
$GNGSA,A,3,09,02,03,06,19,22,,,,,,,2.09,1.22,1.70,1*0B
$GNGSA,A,3,79,,,,,,,,,,,,2.09,1.22,1.70,2*00
$GNGSA,A,3,,,,,,,,,,,,,2.09,1.22,1.70,3*0F
$GNVTG,,T,,M,0.071,N,0.132,K,A*3B
$SMGPS,-0.1 m,-0.01 m/s,5.56 VRx,0.003 km,1 m,270.0 °,1:-- (  0.0 km/h),494.7 m*B6
$SMGPS2,-0.17 X,+0.15 Y,+0.98 Z,0 ENL,1084 us,0.0 kmh,969.79 hPa,969.49 hPa,+0.01 m/s*35
$GNRMC,120240.00,A,4838.46930,N,00859.10389,E,0.19,,071021,,,A,V*24
$GNGNS,120240.00,4838.46930,N,00859.10389,E,AANN,07,1.22,494.1,47.5,,,V*17
$GNGSA,A,3,09,02,03,06,19,22,,,,,,,2.09,1.22,1.70,1*0B
$GNGSA,A,3,79,,,,,,,,,,,,2.09,1.22,1.70,2*00
$GNGSA,A,3,,,,,,,,,,,,,2.09,1.22,1.70,3*0F
$GNVTG,,T,,M,0.194,N,0.360,K,A*34
$SMGPS,-0.0 m,-0.00 m/s,5.56 VRx,0.003 km,1 m,270.0 °,1:-- (  0.0 km/h),494.5 m*B4
$SMGPS2,-0.17 X,+0.15 Y,+0.98 Z,0 ENL,1084 us,0.0 kmh,969.78 hPa,969.50 hPa,-0.02 m/s*39
$GNRMC,120240.50,A,4838.46933,N,00859.10390,E,0.04,,071021,,,A,V*26
$GNGNS,120240.50,4838.46933,N,00859.10390,E,AANN,07,1.22,494.1,47.5,,,V*19
$GNGSA,A,3,09,02,03,06,19,22,,,,,,,2.09,1.22,1.70,1*0B
$GNGSA,A,3,79,,,,,,,,,,,,2.09,1.22,1.70,2*00
$GNGSA,A,3,,,,,,,,,,,,,2.09,1.22,1.70,3*0F
$GNVTG,,T,,M,0.039,N,0.073,K,A*33
$SMGPS,0.0 m,-0.01 m/s,5.55 VRx,0.003 km,1 m,270.0 °,1:-- (  0.0 km/h),494.3 m*9D
$SMGPS2,-0.17 X,+0.15 Y,+0.98 Z,6 ENL,1084 us,0.0 kmh,969.78 hPa,969.49 hPa,-0.01 m/s*34
$GNRMC,120241.00,A,4838.46936,N,00859.10389,E,0.12,,071021,,,A,V*28
$GNGNS,120241.00,4838.46936,N,00859.10389,E,AANN,07,1.22,494.1,47.5,,,V*10
$GNGSA,A,3,09,02,03,06,19,22,,,,,,,2.09,1.22,1.70,1*0B
$GNGSA,A,3,79,,,,,,,,,,,,2.09,1.22,1.70,2*00
$GNGSA,A,3,,,,,,,,,,,,,2.09,1.22,1.70,3*0F
$GNVTG,,T,,M,0.120,N,0.223,K,A*3D
$SMGPS,0.0 m,-0.01 m/s,5.53 VRx,0.003 km,1 m,270.0 °,1:-- (  0.0 km/h),494.3 m*9B
$SMGPS2,-0.17 X,+0.16 Y,+0.98 Z,37 ENL,1084 us,0.0 kmh,969.78 hPa,969.49 hPa,-0.01 m/s*05
$GNRMC,120241.50,A,4838.46934,N,00859.10388,E,0.11,,071021,,,A,V*2D
$GNGNS,120241.50,4838.46934,N,00859.10388,E,AANN,07,1.22,494.1,47.5,,,V*16
$GNGSA,A,3,09,02,03,06,19,22,,,,,,,2.09,1.22,1.70,1*0B
$GNGSA,A,3,79,,,,,,,,,,,,2.09,1.22,1.70,2*00
$GNGSA,A,3,,,,,,,,,,,,,2.09,1.22,1.70,3*0F
$GNVTG,,T,,M,0.111,N,0.205,K,A*3B
$SMGPS,-0.0 m,+0.00 m/s,5.53 VRx,0.003 km,1 m,270.0 °,1:-- (  0.0 km/h),494.3 m*B1
$SMGPS2,-0.17 X,+0.15 Y,+0.98 Z,55 ENL,1084 us,0.0 kmh,969.78 hPa,969.49 hPa,+0.01 m/s*04
$GNRMC,120242.00,A,4838.46935,N,00859.10386,E,0.10,,071021,,,A,V*25
$GNGNS,120242.00,4838.46935,N,00859.10386,E,AANN,07,1.22,494.1,47.5,,,V*1F
$GNGSA,A,3,09,02,03,06,19,22,,,,,,,2.09,1.22,1.70,1*0B
$GNGSA,A,3,79,,,,,,,,,,,,2.09,1.22,1.70,2*00
$GNGSA,A,3,,,,,,,,,,,,,2.09,1.22,1.70,3*0F
$GNVTG,,T,,M,0.104,N,0.193,K,A*33
$SMGPS,0.0 m,-0.01 m/s,5.54 VRx,0.003 km,1 m,270.0 °,1:-- (  0.0 km/h),494.3 m*9C
$SMGPS2,-0.16 X,+0.14 Y,+0.97 Z,28 ENL,1084 us,0.0 kmh,969.78 hPa,969.50 hPa,-0.00 m/s*0E
$GNRMC,120242.50,A,4838.46933,N,00859.10385,E,0.10,,071021,,,A,V*25
$GNGNS,120242.50,4838.46933,N,00859.10385,E,AANN,07,1.22,494.1,47.5,,,V*1F
$GNGSA,A,3,09,02,03,06,19,22,,,,,,,2.09,1.22,1.70,1*0B
$GNGSA,A,3,79,,,,,,,,,,,,2.09,1.22,1.70,2*00
$GNGSA,A,3,,,,,,,,,,,,,2.09,1.22,1.70,3*0F
$GNVTG,,T,,M,0.094,N,0.175,K,A*33
$SMGPS,0.0 m,+0.01 m/s,5.53 VRx,0.003 km,1 m,270.0 °,1:-- (  0.0 km/h),494.4 m*9A
$SMGPS2,-0.17 X,+0.15 Y,+0.98 Z,43 ENL,1084 us,0.0 kmh,969.78 hPa,969.49 hPa,+0.00 m/s*02
$GNRMC,120243.00,A,4838.46932,N,00859.10388,E,0.35,,071021,,,A,V*2A
$GNGNS,120243.00,4838.46932,N,00859.10388,E,AANN,07,1.22,494.1,47.5,,,V*17
$GNGSA,A,3,09,02,03,06,19,22,,,,,,,2.09,1.22,1.70,1*0B
$GNGSA,A,3,79,,,,,,,,,,,,2.09,1.22,1.70,2*00
$GNGSA,A,3,,,,,,,,,,,,,2.09,1.22,1.70,3*0F
$GNVTG,,T,,M,0.346,N,0.641,K,A*3F
$SMGPS,0.0 m,+0.01 m/s,5.54 VRx,0.003 km,1 m,270.0 °,1:-- (  0.0 km/h),494.4 m*9D
$SMGPS2,-0.16 X,+0.15 Y,+0.97 Z,44 ENL,1084 us,0.0 kmh,969.78 hPa,969.49 hPa,+0.01 m/s*0A
$GNRMC,120243.50,A,4838.46932,N,00859.10390,E,0.27,,071021,,,A,V*25
$GNGNS,120243.50,4838.46932,N,00859.10390,E,AANN,07,1.22,494.1,47.5,,,V*1B
$GNGSA,A,3,09,02,03,06,19,22,,,,,,,2.09,1.22,1.70,1*0B
$GNGSA,A,3,79,,,,,,,,,,,,2.09,1.22,1.70,2*00
$GNGSA,A,3,,,,,,,,,,,,,2.09,1.22,1.70,3*0F
$GNVTG,,T,,M,0.269,N,0.498,K,A*35
$SMGPS,0.0 m,+0.01 m/s,5.54 VRx,0.003 km,1 m,270.0 °,1:-- (  0.0 km/h),494.5 m*9C
$SMGPS2,-0.16 X,+0.15 Y,+0.98 Z,31 ENL,1084 us,0.0 kmh,969.78 hPa,969.49 hPa,+0.01 m/s*07
$GNRMC,120244.00,A,4838.46934,N,00859.10395,E,0.34,,071021,,,A,V*26
$GNGNS,120244.00,4838.46934,N,00859.10395,E,AANN,07,1.22,494.1,47.5,,,V*1A
$GNGSA,A,3,09,02,03,06,19,22,,,,,,,2.09,1.22,1.70,1*0B
$GNGSA,A,3,79,,,,,,,,,,,,2.09,1.22,1.70,2*00
$GNGSA,A,3,,,,,,,,,,,,,2.09,1.22,1.70,3*0F
$GNVTG,,T,,M,0.336,N,0.622,K,A*3D
$SMGPS,-0.0 m,+0.00 m/s,5.54 VRx,0.003 km,1 m,270.0 °,1:-- (  0.0 km/h),494.5 m*B0
$SMGPS2,-0.17 X,+0.15 Y,+0.98 Z,60 ENL,1084 us,0.0 kmh,969.78 hPa,969.50 hPa,-0.00 m/s*0D
$GNRMC,120244.50,A,4838.46935,N,00859.10401,E,0.12,,071021,,,A,V*2C
$GNGNS,120244.50,4838.46935,N,00859.10401,E,AANN,07,1.22,494.1,47.5,,,V*14
$GNGSA,A,3,09,02,03,06,19,22,,,,,,,2.09,1.22,1.70,1*0B
$GNGSA,A,3,79,,,,,,,,,,,,2.09,1.22,1.70,2*00
$GNGSA,A,3,,,,,,,,,,,,,2.09,1.22,1.70,3*0F
$GNVTG,,T,,M,0.118,N,0.218,K,A*3E
$SMGPS,0.0 m,+0.00 m/s,5.54 VRx,0.003 km,1 m,270.0 °,1:-- (  0.0 km/h),494.6 m*9E
$SMGPS2,-0.17 X,+0.15 Y,+0.98 Z,30 ENL,1084 us,0.0 kmh,969.78 hPa,969.50 hPa,-0.01 m/s*09
$GNRMC,120245.00,A,4838.46935,N,00859.10402,E,0.12,,071021,,,A,V*2B
$GNGNS,120245.00,4838.46935,N,00859.10402,E,AANN,07,1.22,494.1,47.5,,,V*13
$GNGSA,A,3,09,02,03,06,19,22,,,,,,,2.09,1.22,1.70,1*0B
$GNGSA,A,3,79,,,,,,,,,,,,2.09,1.22,1.70,2*00
$GNGSA,A,3,,,,,,,,,,,,,2.09,1.22,1.70,3*0F
$GNVTG,,T,,M,0.115,N,0.213,K,A*38
$SMGPS,-0.0 m,+0.01 m/s,5.53 VRx,0.003 km,1 m,270.0 °,1:-- (  0.0 km/h),494.8 m*BB
$SMGPS2,-0.17 X,+0.15 Y,+0.99 Z,63 ENL,1084 us,0.0 kmh,969.78 hPa,969.50 hPa,+0.01 m/s*08
$GNRMC,120245.50,A,4838.46937,N,00859.10404,E,0.23,,071021,,,A,V*28
$GNGNS,120245.50,4838.46937,N,00859.10404,E,AANN,07,1.22,494.1,47.5,,,V*12
$GNGSA,A,3,09,02,03,06,19,22,,,,,,,2.09,1.22,1.70,1*0B
$GNGSA,A,3,79,,,,,,,,,,,,2.09,1.22,1.70,2*00
$GNGSA,A,3,,,,,,,,,,,,,2.09,1.22,1.70,3*0F
$GNVTG,,T,,M,0.229,N,0.424,K,A*36
$SMGPS,-0.0 m,-0.01 m/s,5.53 VRx,0.003 km,1 m,270.0 °,1:-- (  0.0 km/h),494.9 m*BC
$SMGPS2,-0.16 X,+0.15 Y,+0.97 Z,50 ENL,1084 us,0.0 kmh,969.78 hPa,969.50 hPa,-0.01 m/s*01
$GNRMC,120246.00,A,4838.46936,N,00859.10402,E,0.12,,071021,,,A,V*2B
$GNGNS,120246.00,4838.46936,N,00859.10402,E,AANN,07,1.22,494.1,47.5,,,V*13
$GNGSA,A,3,09,02,03,06,19,22,,,,,,,2.09,1.22,1.70,1*0B
$GNGSA,A,3,79,,,,,,,,,,,,2.09,1.22,1.70,2*00
$GNGSA,A,3,,,,,,,,,,,,,2.09,1.22,1.70,3*0F
$GNVTG,,T,,M,0.123,N,0.227,K,A*3A
$SMGPS,-0.0 m,-0.00 m/s,5.53 VRx,0.003 km,1 m,270.0 °,1:-- (  0.0 km/h),495.0 m*B5
$SMGPS2,-0.16 X,+0.16 Y,+0.98 Z,65 ENL,1084 us,0.0 kmh,969.78 hPa,969.49 hPa,+0.00 m/s*04
$GNRMC,120246.50,A,4838.46935,N,00859.10401,E,0.29,,071021,,,A,V*26
$GNGNS,120246.50,4838.46935,N,00859.10401,E,AANN,07,1.22,494.1,47.5,,,V*16
$GNGSA,A,3,09,02,03,06,19,22,,,,,,,2.09,1.22,1.70,1*0B
$GNGSA,A,3,79,,,,,,,,,,,,2.09,1.22,1.70,2*00
$GNGSA,A,3,,,,,,,,,,,,,2.09,1.22,1.70,3*0F
$GNVTG,,T,,M,0.291,N,0.538,K,A*39
$SMGPS,0.0 m,-0.02 m/s,5.54 VRx,0.003 km,1 m,270.0 °,1:-- (  0.0 km/h),495.0 m*9D
$SMGPS2,-0.17 X,+0.14 Y,+0.97 Z,58 ENL,1084 us,0.0 kmh,969.78 hPa,969.49 hPa,-0.00 m/s*00
$GNRMC,120247.00,A,4838.46937,N,00859.10402,E,0.16,,071021,,,A,V*2F
$GNGNS,120247.00,4838.46937,N,00859.10402,E,AANN,07,1.22,494.1,47.5,,,V*13
$GNGSA,A,3,09,02,03,06,19,22,,,,,,,2.09,1.22,1.70,1*0B
$GNGSA,A,3,79,,,,,,,,,,,,2.09,1.22,1.70,2*00
$GNGSA,A,3,,,,,,,,,,,,,2.09,1.22,1.70,3*0F
$GNVTG,,T,,M,0.160,N,0.297,K,A*36
$SMGPS,0.0 m,-0.01 m/s,5.56 VRx,0.003 km,1 m,270.0 °,1:-- (  0.0 km/h),494.9 m*94
$SMGPS2,-0.16 X,+0.12 Y,+0.98 Z,4 ENL,1084 us,0.0 kmh,969.78 hPa,969.50 hPa,-0.00 m/s*39
$GNRMC,120247.50,A,4838.46938,N,00859.10401,E,0.29,,071021,,,A,V*2A
$GNGNS,120247.50,4838.46938,N,00859.10401,E,AANN,07,1.22,494.1,47.5,,,V*1A
$GNGSA,A,3,09,02,03,06,19,22,,,,,,,2.09,1.22,1.70,1*0B
$GNGSA,A,3,79,,,,,,,,,,,,2.09,1.22,1.70,2*00
$GNGSA,A,3,,,,,,,,,,,,,2.09,1.22,1.70,3*0F
$GNVTG,,T,,M,0.288,N,0.534,K,A*3D
$SMGPS,-0.0 m,-0.01 m/s,5.56 VRx,0.003 km,1 m,270.0 °,1:-- (  0.0 km/h),494.9 m*B9
$SMGPS2,-0.16 X,+0.15 Y,+0.99 Z,0 ENL,1084 us,0.0 kmh,969.78 hPa,969.49 hPa,-0.01 m/s*32
$GNRMC,120248.00,A,4838.46937,N,00859.10399,E,0.19,,071021,,,A,V*2A
$GNGNS,120248.00,4838.46937,N,00859.10399,E,AANN,07,1.22,494.1,47.5,,,V*19
$GNGSA,A,3,09,02,03,06,19,22,,,,,,,2.09,1.22,1.70,1*0B
$GNGSA,A,3,79,,,,,,,,,,,,2.09,1.22,1.70,2*00
$GNGSA,A,3,,,,,,,,,,,,,2.09,1.22,1.70,3*0F
$GNVTG,,T,,M,0.191,N,0.353,K,A*31
$SMGPS,0.0 m,+0.01 m/s,5.56 VRx,0.003 km,1 m,270.0 °,1:-- (  0.0 km/h),494.9 m*92
$SMGPS2,-0.16 X,+0.15 Y,+0.97 Z,0 ENL,1084 us,0.0 kmh,969.78 hPa,969.49 hPa,+0.00 m/s*3B
$GNRMC,120248.50,A,4838.46939,N,00859.10401,E,0.36,,071021,,,A,V*2A
$GNGNS,120248.50,4838.46939,N,00859.10401,E,AANN,07,1.22,494.1,47.5,,,V*14
$GNGSA,A,3,09,02,03,06,19,22,,,,,,,2.09,1.22,1.70,1*0B
$GNGSA,A,3,79,,,,,,,,,,,,2.09,1.22,1.70,2*00
$GNGSA,A,3,,,,,,,,,,,,,2.09,1.22,1.70,3*0F
$GNVTG,,T,,M,0.363,N,0.673,K,A*39
$SMGPS,0.0 m,-0.01 m/s,5.56 VRx,0.003 km,1 m,270.0 °,1:-- (  0.0 km/h),494.8 m*95
$SMGPS2,-0.16 X,+0.15 Y,+0.98 Z,0 ENL,1084 us,0.0 kmh,969.78 hPa,969.50 hPa,-0.01 m/s*3B
$GNRMC,120249.00,A,4838.46937,N,00859.10404,E,0.14,,071021,,,A,V*25
$GNGNS,120249.00,4838.46937,N,00859.10404,E,AANN,07,1.22,494.1,47.5,,,V*1B
$GNGSA,A,3,09,02,03,06,19,22,,,,,,,2.09,1.22,1.70,1*0B
$GNGSA,A,3,79,,,,,,,,,,,,2.09,1.22,1.70,2*00
$GNGSA,A,3,,,,,,,,,,,,,2.09,1.22,1.70,3*0F
$GNVTG,,T,,M,0.132,N,0.244,K,A*3F
$SMGPS,-0.0 m,-0.02 m/s,5.56 VRx,0.003 km,1 m,270.0 °,1:-- (  0.0 km/h),494.9 m*BA
$SMGPS2,-0.17 X,+0.15 Y,+0.98 Z,0 ENL,1084 us,0.0 kmh,969.78 hPa,969.50 hPa,-0.01 m/s*3A
$GNRMC,120249.50,A,4838.46930,N,00859.10401,E,0.19,,071021,,,A,V*2F
$GNGNS,120249.50,4838.46930,N,00859.10401,E,AANN,07,1.22,494.1,47.5,,,V*1C
$GNGSA,A,3,09,02,03,06,19,22,,,,,,,2.09,1.22,1.70,1*0B
$GNGSA,A,3,79,,,,,,,,,,,,2.09,1.22,1.70,2*00
$GNGSA,A,3,,,,,,,,,,,,,2.09,1.22,1.70,3*0F
$GNVTG,,T,,M,0.191,N,0.354,K,A*36
$SMGPS,-0.0 m,-0.01 m/s,5.56 VRx,0.003 km,1 m,270.0 °,1:-- (  0.0 km/h),494.8 m*B8
$SMGPS2,-0.17 X,+0.15 Y,+0.98 Z,0 ENL,1084 us,0.0 kmh,969.78 hPa,969.49 hPa,+0.01 m/s*34
$GNRMC,120250.00,A,4838.46927,N,00859.10405,E,0.27,,071021,,,A,V*2D
$GNGNS,120250.00,4838.46927,N,00859.10405,E,AANN,07,1.22,494.1,47.5,,,V*13
$GNGSA,A,3,09,02,03,06,19,22,,,,,,,2.09,1.22,1.70,1*0B
$GNGSA,A,3,79,,,,,,,,,,,,2.09,1.22,1.70,2*00
$GNGSA,A,3,,,,,,,,,,,,,2.09,1.22,1.70,3*0F
$GNVTG,,T,,M,0.269,N,0.499,K,A*34
$SMGPS,0.0 m,+0.02 m/s,5.56 VRx,0.003 km,1 m,270.0 °,1:-- (  0.0 km/h),494.6 m*9E
$SMGPS2,-0.17 X,+0.15 Y,+0.98 Z,0 ENL,1084 us,0.0 kmh,969.78 hPa,969.50 hPa,+0.00 m/s*3D
$GNRMC,120250.50,A,4838.46926,N,00859.10411,E,0.34,,071021,,,A,V*2E
$GNGNS,120250.50,4838.46926,N,00859.10411,E,AANN,07,1.22,494.1,47.5,,,V*12
$GNGSA,A,3,09,02,03,06,19,22,,,,,,,2.09,1.22,1.70,1*0B
$GNGSA,A,3,79,,,,,,,,,,,,2.09,1.22,1.70,2*00
$GNGSA,A,3,,,,,,,,,,,,,2.09,1.22,1.70,3*0F
$GNVTG,,T,,M,0.333,N,0.616,K,A*3F
$SMGPS,-0.0 m,+0.02 m/s,5.56 VRx,0.003 km,1 m,270.0 °,1:-- (  0.0 km/h),494.7 m*B2
$SMGPS2,-0.17 X,+0.15 Y,+0.98 Z,0 ENL,1084 us,0.0 kmh,969.78 hPa,969.50 hPa,-0.00 m/s*3B
$GNRMC,120251.00,A,4838.46922,N,00859.10412,E,0.95,,071021,,,A,V*26
$GNGNS,120251.00,4838.46922,N,00859.10412,E,AANN,07,1.22,494.3,47.5,,,V*13
$GNGSA,A,3,09,02,03,06,19,22,,,,,,,2.09,1.22,1.70,1*0B
$GNGSA,A,3,79,,,,,,,,,,,,2.09,1.22,1.70,2*00
$GNGSA,A,3,,,,,,,,,,,,,2.09,1.22,1.70,3*0F
$GNVTG,,T,,M,0.936,N,1.733,K,A*37
$SMGPS,0.2 m,+0.07 m/s,5.56 VRx,0.003 km,1 m,270.0 °,1:-- (  0.0 km/h),494.7 m*98
$SMGPS2,-0.27 X,+0.21 Y,+1.19 Z,12 ENL,1084 us,0.0 kmh,969.76 hPa,969.50 hPa,-0.03 m/s*09
$GNRMC,120251.50,A,4838.46915,N,00859.10419,E,1.29,,071021,,,A,V*2A
$GNGNS,120251.50,4838.46915,N,00859.10419,E,AANN,07,1.22,494.8,47.5,,,V*12
$GNGSA,A,3,09,02,03,06,19,22,,,,,,,2.09,1.22,1.70,1*0B
$GNGSA,A,3,79,,,,,,,,,,,,2.09,1.22,1.70,2*00
$GNGSA,A,3,,,,,,,,,,,,,2.09,1.22,1.70,3*0F
$GNVTG,,T,,M,0.641,N,1.187,K,A*31
$SMGPS,0.7 m,+0.57 m/s,5.54 VRx,0.003 km,1 m,270.0 °,1:-- (  0.0 km/h),495.1 m*9D
$SMGPS2,-0.12 X,+0.15 Y,+1.11 Z,17 ENL,1084 us,0.0 kmh,969.66 hPa,969.37 hPa,+0.49 m/s*0D
$GNRMC,120252.00,A,4838.46918,N,00859.10428,E,1.98,,071021,,,A,V*29
$GNGNS,120252.00,4838.46918,N,00859.10428,E,AANN,07,1.21,495.2,47.5,,,V*13
$GNGSA,A,3,09,02,03,06,19,22,,,,,,,2.09,1.21,1.70,1*08
$GNGSA,A,3,79,,,,,,,,,,,,2.09,1.22,1.70,2*00
$GNGSA,A,3,,,,,,,,,,,,,2.09,1.22,1.70,3*0F
$GNVTG,,T,,M,1.295,N,2.399,K,A*33
$SMGPS,1.1 m,+0.77 m/s,5.56 VRx,0.003 km,1 m,270.0 °,1:-- (  0.0 km/h),496.1 m*99
$SMGPS2,-0.02 X,-0.02 Y,+0.72 Z,16 ENL,1084 us,0.0 kmh,969.62 hPa,969.33 hPa,+0.88 m/s*04
$GNRMC,120252.50,A,4838.46930,N,00859.10437,E,1.50,,071021,,,A,V*2C
$GNGNS,120252.50,4838.46930,N,00859.10437,E,AANN,07,1.21,495.2,47.5,,,V*12
$GNGSA,A,3,09,02,03,06,19,22,,,,,,,2.09,1.21,1.70,1*08
$GNGSA,A,3,79,,,,,,,,,,,,2.09,1.21,1.70,2*03
$GNGSA,A,3,,,,,,,,,,,,,2.09,1.21,1.70,3*0C
$GNVTG,,T,,M,1.057,N,1.958,K,A*3B
$SMGPS,1.1 m,+0.55 m/s,5.55 VRx,0.003 km,2 m,270.0 °,1:-- (  0.0 km/h),496.7 m*9F
$SMGPS2,-0.17 X,+0.10 Y,+0.93 Z,22 ENL,1084 us,0.0 kmh,969.61 hPa,969.32 hPa,+0.58 m/s*02
$GNRMC,120253.00,A,4838.46942,N,00859.10454,E,1.43,,071021,,,A,V*2A
$GNGNS,120253.00,4838.46942,N,00859.10454,E,AANN,07,1.21,495.1,47.5,,,V*15
$GNGSA,A,3,09,02,03,06,19,22,,,,,,,2.09,1.21,1.70,1*08
$GNGSA,A,3,79,,,,,,,,,,,,2.09,1.21,1.70,2*03
$GNGSA,A,3,,,,,,,,,,,,,2.09,1.21,1.70,3*0C
$GNVTG,,T,,M,1.311,N,2.429,K,A*32
$SMGPS,1.0 m,+0.29 m/s,5.55 VRx,0.003 km,2 m,270.0 °,1:-- (  0.0 km/h),496.7 m*95
$SMGPS2,-0.22 X,+0.26 Y,+0.96 Z,4 ENL,1084 us,0.0 kmh,969.63 hPa,969.34 hPa,+0.27 m/s*3C
$GNRMC,120253.50,A,4838.46953,N,00859.10462,E,0.88,,071021,,,A,V*2C
$GNGNS,120253.50,4838.46953,N,00859.10462,E,AANN,07,1.21,495.2,47.5,,,V*16
$GNGSA,A,3,09,02,03,06,19,22,,,,,,,2.09,1.21,1.70,1*08
$GNGSA,A,3,79,,,,,,,,,,,,2.09,1.21,1.70,2*03
$GNGSA,A,3,,,,,,,,,,,,,2.09,1.21,1.70,3*0C
$GNVTG,,T,,M,0.805,N,1.491,K,A*3D
$SMGPS,1.1 m,+0.19 m/s,5.55 VRx,0.003 km,1 m,270.0 °,1:-- (  0.0 km/h),497.2 m*90
$SMGPS2,-0.10 X,+0.20 Y,+1.08 Z,9 ENL,1084 us,0.0 kmh,969.61 hPa,969.33 hPa,+0.21 m/s*33
$GNRMC,120254.00,A,4838.46954,N,00859.10460,E,0.72,,071021,,,A,V*2E
$GNGNS,120254.00,4838.46954,N,00859.10460,E,AANN,07,1.21,495.4,47.5,,,V*17
$GNGSA,A,3,09,02,03,06,19,22,,,,,,,2.09,1.21,1.70,1*08
$GNGSA,A,3,79,,,,,,,,,,,,2.09,1.21,1.70,2*03
$GNGSA,A,3,,,,,,,,,,,,,2.09,1.21,1.70,3*0C
$GNVTG,,T,,M,0.490,N,0.907,K,A*3E
$SMGPS,1.3 m,+0.27 m/s,5.55 VRx,0.003 km,2 m,341.7 °,1:-- (  0.0 km/h),497.1 m*9B
$SMGPS2,-0.12 X,+0.09 Y,+0.93 Z,9 ENL,1084 us,0.0 kmh,969.59 hPa,969.31 hPa,+0.29 m/s*38
$GNRMC,120254.50,A,4838.46952,N,00859.10456,E,0.45,,071021,,,A,V*2C
$GNGNS,120254.50,4838.46952,N,00859.10456,E,AANN,07,1.21,495.4,47.5,,,V*11
$GNGSA,A,3,09,02,03,06,19,22,,,,,,,2.09,1.21,1.70,1*08
$GNGSA,A,3,79,,,,,,,,,,,,2.09,1.21,1.70,2*03
$GNGSA,A,3,,,,,,,,,,,,,2.09,1.21,1.70,3*0C
$GNVTG,,T,,M,0.114,N,0.210,K,A*3A
$SMGPS,1.3 m,+0.23 m/s,5.55 VRx,0.003 km,2 m,341.7 °,1:-- (  0.0 km/h),497.0 m*9E
$SMGPS2,-0.25 X,-0.04 Y,+0.94 Z,23 ENL,1084 us,0.0 kmh,969.59 hPa,969.30 hPa,+0.23 m/s*03
$GNRMC,120255.00,A,4838.46950,N,00859.10452,E,0.34,,071021,,,A,V*28
$GNGNS,120255.00,4838.46950,N,00859.10452,E,AANN,07,1.21,495.4,47.5,,,V*13
$GNGSA,A,3,09,02,03,06,19,22,,,,,,,2.09,1.21,1.70,1*08
$GNGSA,A,3,79,,,,,,,,,,,,2.09,1.21,1.70,2*03
$GNGSA,A,3,,,,,,,,,,,,,2.09,1.21,1.70,3*0C
$GNVTG,,T,,M,0.206,N,0.381,K,A*33
$SMGPS,1.3 m,+0.14 m/s,5.55 VRx,0.003 km,2 m,337.6 °,1:-- (  0.0 km/h),496.8 m*93
$SMGPS2,-0.13 X,-0.03 Y,+0.98 Z,1 ENL,1084 us,0.0 kmh,969.60 hPa,969.31 hPa,+0.13 m/s*35
$GNRMC,120255.50,A,4838.46949,N,00859.10452,E,0.38,,071021,,,A,V*29
$GNGNS,120255.50,4838.46949,N,00859.10452,E,AANN,07,1.21,495.4,47.5,,,V*1E
$GNGSA,A,3,09,02,03,06,19,22,,,,,,,2.09,1.21,1.70,1*08
$GNGSA,A,3,79,,,,,,,,,,,,2.09,1.21,1.70,2*03
$GNGSA,A,3,,,,,,,,,,,,,2.09,1.21,1.70,3*0C
$GNVTG,,T,,M,0.361,N,0.669,K,A*30
$SMGPS,1.3 m,+0.06 m/s,5.54 VRx,0.003 km,2 m,333.6 °,1:-- (  0.0 km/h),496.7 m*9A
$SMGPS2,-0.13 X,+0.12 Y,+1.02 Z,23 ENL,1084 us,0.0 kmh,969.60 hPa,969.31 hPa,+0.04 m/s*07
$GNRMC,120256.00,A,4838.46951,N,00859.10457,E,0.09,,071021,,,A,V*21
$GNGNS,120256.00,4838.46951,N,00859.10457,E,AANN,07,1.21,495.3,47.5,,,V*13
$GNGSA,A,3,09,02,03,06,19,22,,,,,,,2.09,1.21,1.70,1*08
$GNGSA,A,3,79,,,,,,,,,,,,2.09,1.21,1.70,2*03
$GNGSA,A,3,,,,,,,,,,,,,2.09,1.21,1.70,3*0C
$GNVTG,,T,,M,0.092,N,0.171,K,A*31
$SMGPS,1.2 m,+0.00 m/s,5.54 VRx,0.003 km,2 m,333.6 °,1:-- (  0.0 km/h),496.6 m*9C
$SMGPS2,-0.08 X,+0.15 Y,+0.97 Z,27 ENL,1084 us,0.0 kmh,969.60 hPa,969.31 hPa,+0.02 m/s*05
$GNRMC,120256.50,A,4838.46949,N,00859.10454,E,0.22,,071021,,,A,V*27
$GNGNS,120256.50,4838.46949,N,00859.10454,E,AANN,07,1.21,495.3,47.5,,,V*1C
$GNGSA,A,3,09,02,03,06,19,22,,,,,,,2.09,1.21,1.70,1*08
$GNGSA,A,3,79,,,,,,,,,,,,2.09,1.21,1.70,2*03
$GNGSA,A,3,,,,,,,,,,,,,2.09,1.21,1.70,3*0C
$GNVTG,,T,,M,0.221,N,0.408,K,A*30
$SMGPS,1.2 m,-0.02 m/s,5.55 VRx,0.003 km,2 m,337.6 °,1:-- (  0.0 km/h),496.6 m*9D
$SMGPS2,-0.10 X,+0.08 Y,+1.01 Z,2 ENL,1084 us,0.0 kmh,969.60 hPa,969.31 hPa,+0.01 m/s*3A
$GNRMC,120257.00,A,4838.46948,N,00859.10452,E,0.41,,071021,,,A,V*21
$GNGNS,120257.00,4838.46948,N,00859.10452,E,AANN,07,1.21,495.3,47.5,,,V*1F
$GNGSA,A,3,09,02,03,06,19,22,,,,,,,2.09,1.21,1.70,1*08
$GNGSA,A,3,79,,,,,,,,,,,,2.09,1.21,1.70,2*03
$GNGSA,A,3,,,,,,,,,,,,,2.09,1.21,1.70,3*0C
$GNVTG,,T,,M,0.405,N,0.750,K,A*3E
$SMGPS,1.2 m,-0.02 m/s,5.54 VRx,0.003 km,2 m,337.6 °,1:-- (  0.0 km/h),496.5 m*9F
$SMGPS2,-0.07 X,+0.02 Y,+0.96 Z,43 ENL,1084 us,0.0 kmh,969.61 hPa,969.31 hPa,+0.00 m/s*0C
$GNRMC,120257.50,A,4838.46948,N,00859.10452,E,0.76,,071021,,,A,V*20
$GNGNS,120257.50,4838.46948,N,00859.10452,E,AANN,07,1.21,494.5,47.5,,,V*1D
$GNGSA,A,3,09,02,03,06,19,22,,,,,,,2.09,1.21,1.70,1*08
$GNGSA,A,3,79,,,,,,,,,,,,2.09,1.21,1.70,2*03
$GNGSA,A,3,,,,,,,,,,,,,2.09,1.21,1.70,3*0C
$GNVTG,,T,,M,0.750,N,1.388,K,A*3D
$SMGPS,0.4 m,-0.07 m/s,5.55 VRx,0.003 km,2 m,270.0 °,1:-- (  0.0 km/h),496.4 m*99
$SMGPS2,-0.14 X,+0.15 Y,+0.98 Z,26 ENL,1084 us,0.0 kmh,969.62 hPa,969.33 hPa,-0.10 m/s*03
$GNRMC,120258.00,A,4838.46935,N,00859.10445,E,1.13,,071021,,,A,V*24
$GNGNS,120258.00,4838.46935,N,00859.10445,E,AANN,07,1.21,494.5,47.5,,,V*1B
$GNGSA,A,3,09,02,03,06,19,22,,,,,,,2.09,1.21,1.70,1*08
$GNGSA,A,3,79,,,,,,,,,,,,2.09,1.21,1.70,2*03
$GNGSA,A,3,,,,,,,,,,,,,2.09,1.21,1.70,3*0C
$GNVTG,,T,,M,1.114,N,2.063,K,A*3F
$SMGPS,0.4 m,-0.11 m/s,5.54 VRx,0.003 km,1 m,270.0 °,1:-- (  0.0 km/h),496.4 m*9C
$SMGPS2,-0.00 X,+0.07 Y,+1.08 Z,27 ENL,1084 us,0.0 kmh,969.63 hPa,969.34 hPa,-0.13 m/s*09
$GNRMC,120258.50,A,4838.46912,N,00859.10454,E,2.68,178.87,071021,,,A,V*34
$GNGNS,120258.50,4838.46912,N,00859.10454,E,AANN,07,1.21,494.6,47.5,,,V*18
$GNGSA,A,3,09,02,03,06,19,22,,,,,,,2.09,1.21,1.70,1*08
$GNGSA,A,3,79,,,,,,,,,,,,2.09,1.21,1.70,2*03
$GNGSA,A,3,,,,,,,,,,,,,2.09,1.21,1.70,3*0C
$GNVTG,178.87,T,,M,2.676,N,4.955,K,A*2A
$SMGPS,0.5 m,-0.06 m/s,5.55 VRx,0.003 km,1 m,270.0 °,1:-- (  0.0 km/h),496.5 m*9B
$SMGPS2,+0.03 X,-0.08 Y,+1.03 Z,6 ENL,1084 us,0.0 kmh,969.62 hPa,969.34 hPa,-0.07 m/s*39
$GNRMC,120259.00,A,4838.46887,N,00859.10475,E,1.66,,071021,,,A,V*2C
$GNGNS,120259.00,4838.46887,N,00859.10475,E,AANN,07,1.21,494.9,47.5,,,V*1D
$GNGSA,A,3,09,02,03,06,19,22,,,,,,,2.09,1.21,1.70,1*08
$GNGSA,A,3,79,,,,,,,,,,,,2.09,1.21,1.70,2*03
$GNGSA,A,3,,,,,,,,,,,,,2.09,1.21,1.70,3*0C
$GNVTG,,T,,M,1.631,N,3.021,K,A*38
$SMGPS,0.8 m,+0.16 m/s,5.56 VRx,0.003 km,1 m,270.0 °,1:-- (  0.0 km/h),496.8 m*9F
$SMGPS2,+0.11 X,+0.12 Y,+1.00 Z,16 ENL,1084 us,0.0 kmh,969.58 hPa,969.29 hPa,+0.14 m/s*04
$GNRMC,120259.50,A,4838.46872,N,00859.10490,E,1.11,,071021,,,A,V*28
$GNGNS,120259.50,4838.46872,N,00859.10490,E,AANN,07,1.21,494.9,47.5,,,V*19
$GNGSA,A,3,09,02,03,06,19,22,,,,,,,2.09,1.21,1.70,1*08
$GNGSA,A,3,79,,,,,,,,,,,,2.09,1.21,1.70,2*03
$GNGSA,A,3,,,,,,,,,,,,,2.09,1.21,1.70,3*0C
$GNVTG,,T,,M,1.039,N,1.923,K,A*3F
$SMGPS,0.8 m,+0.21 m/s,5.54 VRx,0.004 km,2 m,189.4 °,1:-- (  0.0 km/h),497.3 m*96
$SMGPS2,-0.15 X,+0.38 Y,+0.82 Z,41 ENL,1084 us,0.0 kmh,969.57 hPa,969.29 hPa,+0.26 m/s*09
$GNRMC,120300.00,A,4838.46862,N,00859.10510,E,1.46,,071021,,,A,V*2A
$GNGNS,120300.00,4838.46862,N,00859.10510,E,AANN,07,1.21,494.9,47.5,,,V*19
$GNGSA,A,3,09,02,03,06,19,22,,,,,,,2.09,1.21,1.70,1*08
$GNGSA,A,3,79,,,,,,,,,,,,2.09,1.21,1.70,2*03
$GNGSA,A,3,,,,,,,,,,,,,2.09,1.21,1.70,3*0C
$GNVTG,,T,,M,1.438,N,2.662,K,A*33
$SMGPS,0.8 m,+0.12 m/s,5.56 VRx,0.004 km,2 m,175.3 °,1:-- (  0.0 km/h),497.4 m*97
$SMGPS2,-0.41 X,+0.18 Y,+0.90 Z,54 ENL,1084 us,0.0 kmh,969.58 hPa,969.29 hPa,+0.09 m/s*0F
$GNRMC,120300.50,A,4838.46849,N,00859.10521,E,0.48,,071021,,,A,V*2B
$GNGNS,120300.50,4838.46849,N,00859.10521,E,AANN,08,1.19,494.9,47.5,,,V*13
$GNGSA,A,3,09,02,03,06,19,22,04,,,,,,1.86,1.19,1.43,1*03
$GNGSA,A,3,79,,,,,,,,,,,,2.09,1.21,1.70,2*03
$GNGSA,A,3,,,,,,,,,,,,,2.09,1.21,1.70,3*0C
$GNVTG,,T,,M,0.473,N,0.875,K,A*37
$SMGPS,0.8 m,+0.05 m/s,5.55 VRx,0.005 km,2 m,157.6 °,1:-- (  0.0 km/h),497.4 m*96
$SMGPS2,-0.32 X,-0.01 Y,+0.94 Z,22 ENL,1084 us,0.0 kmh,969.58 hPa,969.29 hPa,+0.06 m/s*0F
$GNRMC,120301.00,A,4838.46844,N,00859.10525,E,0.41,,071021,,,A,V*2F
$GNGNS,120301.00,4838.46844,N,00859.10525,E,AANN,08,1.19,494.8,47.5,,,V*1F
$GNGSA,A,3,09,02,03,06,19,22,04,,,,,,1.86,1.19,1.43,1*03
$GNGSA,A,3,79,,,,,,,,,,,,1.86,1.19,1.43,2*0C
$GNGSA,A,3,,,,,,,,,,,,,1.86,1.19,1.43,3*03
$GNVTG,,T,,M,0.413,N,0.765,K,A*3F
$SMGPS,0.7 m,+0.01 m/s,5.56 VRx,0.005 km,3 m,167.0 °,1:-- (  0.0 km/h),497.3 m*9D
$SMGPS2,-0.32 X,+0.07 Y,+0.95 Z,43 ENL,1084 us,0.0 kmh,969.58 hPa,969.30 hPa,-0.01 m/s*00
$GNRMC,120301.50,A,4838.46846,N,00859.10525,E,0.18,,071021,,,A,V*24
$GNGNS,120301.50,4838.46846,N,00859.10525,E,AANN,08,1.19,494.8,47.5,,,V*18
$GNGSA,A,3,09,02,03,06,19,22,04,,,,,,1.86,1.19,1.43,1*03
$GNGSA,A,3,79,,,,,,,,,,,,1.86,1.19,1.43,2*0C
$GNGSA,A,3,,,,,,,,,,,,,1.86,1.19,1.43,3*03
$GNVTG,,T,,M,0.181,N,0.336,K,A*33
$SMGPS,0.7 m,-0.02 m/s,5.56 VRx,0.005 km,3 m,167.0 °,1:-- (  0.0 km/h),497.3 m*98
$SMGPS2,-0.33 X,+0.03 Y,+0.95 Z,2 ENL,1084 us,0.0 kmh,969.59 hPa,969.30 hPa,+0.01 m/s*37
$GNRMC,120302.00,A,4838.46845,N,00859.10523,E,0.19,,071021,,,A,V*26
$GNGNS,120302.00,4838.46845,N,00859.10523,E,AANN,08,1.19,494.7,47.5,,,V*14
$GNGSA,A,3,09,02,03,06,19,22,04,,,,,,1.86,1.19,1.43,1*03
$GNGSA,A,3,79,,,,,,,,,,,,1.86,1.19,1.43,2*0C
