$GPSSETUP,5BA0,0,1,1,0,0,1,0,0,0,1,3,0,0,0,0,0,0,C8,C8,1F4,1C2,32,64,7C,64,7D0,0,0,0,0,0,0,0,0,0,0,3,4,10,5,6,10,10,10,10,10,10,10,10,10,10,0,71,1,0,0,0,0,0,0,0,0,0,0,0,0,0,0,0,0,0,0,0,0,0,0,0,0,0,0,0,0,0,0,0,0,0,0,0,0,0,0,6C,C8,16C6*7D
$GPRMC,142048.643,A,4752.0387,N,01109.7803,E,1.98,158.27,180214,,,A*6E
$GPGGA,142048.643,4752.0387,N,01109.7803,E,1,8,1.22,546.0,M,47.7,M,,*51
$GPGSA,A,3,09,08,05,26,13,02,07,10,,,,,1.46,1.22,0.81*0F
$GPVTG,158.27,T,,M,1.98,N,3.67,K,A*36
$SMGPS,0.0 m,+0.02 m/s,5.38 VRx,0.00 km,0 m,0.0 °,1:-- (  0.0 km/h)*E1
$SMGPS2,-0.02 X,-0.09 Y,+1.00 Z,0 ENL,0 us*41
$GPRMC,142048.743,A,4752.0387,N,01109.7802,E,1.92,159.78,180214,,,A*6F
$GPGGA,142048.743,4752.0387,N,01109.7802,E,1,8,1.22,546.0,M,47.7,M,,*51
$GPGSA,A,3,09,08,05,26,13,02,07,10,,,,,1.46,1.22,0.81*0F
$GPVTG,159.78,T,,M,1.92,N,3.56,K,A*35
$SMGPS,0.0 m,+0.05 m/s,5.38 VRx,0.00 km,0 m,0.0 °,1:-- (  0.0 km/h)*E6
$SMGPS2,-0.03 X,-0.09 Y,+1.00 Z,0 ENL,0 us*40
$GPRMC,142048.843,A,4752.0387,N,01109.7801,E,1.92,158.84,180214,,,A*61
$GPGGA,142048.843,4752.0387,N,01109.7801,E,1,8,1.22,546.0,M,47.7,M,,*5D
$GPGSA,A,3,09,08,05,26,13,02,07,10,,,,,1.46,1.22,0.81*0F
$GPVTG,158.84,T,,M,1.92,N,3.56,K,A*37
$SMGPS,0.0 m,+0.06 m/s,5.38 VRx,0.00 km,1 m,270.0 °,1:-- (  0.0 km/h)*E1
$SMGPS2,-0.02 X,-0.09 Y,+1.00 Z,0 ENL,0 us*41
$GPRMC,142048.943,A,4752.0387,N,01109.7799,E,1.92,157.87,180214,,,A*62
$GPGGA,142048.943,4752.0387,N,01109.7799,E,1,8,1.22,546.0,M,47.7,M,,*52
$GPGSA,A,3,09,08,05,26,13,02,07,10,,,,,1.46,1.22,0.81*0F
$GPVTG,157.87,T,,M,1.92,N,3.56,K,A*3B
$SMGPS,0.0 m,+0.05 m/s,5.38 VRx,0.00 km,1 m,270.0 °,1:-- (  0.0 km/h)*E2
$SMGPS2,-0.02 X,-0.10 Y,+1.00 Z,0 ENL,0 us*49
$GPRMC,142049.042,A,4752.0388,N,01109.7797,E,1.90,156.71,180214,,,A*60
$GPGGA,142049.042,4752.0388,N,01109.7797,E,1,8,1.22,546.0,M,47.7,M,,*5A
$GPGSA,A,3,09,08,05,26,13,02,07,10,,,,,1.46,1.22,0.81*0F
$GPVTG,156.71,T,,M,1.90,N,3.53,K,A*34
$SMGPS,0.0 m,+0.06 m/s,5.38 VRx,0.00 km,1 m,270.0 °,1:-- (  0.0 km/h)*E1
$SMGPS2,-0.01 X,-0.07 Y,+1.00 Z,0 ENL,0 us*4C
$GPRMC,142049.142,A,4752.0388,N,01109.7796,E,1.71,153.35,180214,,,A*6A
$GPGGA,142049.142,4752.0388,N,01109.7796,E,1,8,1.22,546.0,M,47.7,M,,*5A
$GPGSA,A,3,09,08,05,26,13,02,07,10,,,,,1.46,1.22,0.81*0F
$GPVTG,153.35,T,,M,1.71,N,3.17,K,A*3E
$SMGPS,0.0 m,+0.06 m/s,5.38 VRx,0.00 km,1 m,270.0 °,1:-- (  0.0 km/h)*E1
$SMGPS2,-0.02 X,-0.09 Y,+1.00 Z,0 ENL,0 us*41
$GPRMC,142049.242,A,4752.0388,N,01109.7794,E,1.72,154.30,180214,,,A*6A
$GPGGA,142049.242,4752.0388,N,01109.7794,E,1,8,1.22,546.1,M,47.7,M,,*5A
$GPGSA,A,3,09,08,05,26,13,02,07,10,,,,,1.46,1.22,0.81*0F
$GPVTG,154.30,T,,M,1.72,N,3.20,K,A*3B
$SMGPS,0.1 m,+0.03 m/s,5.38 VRx,0.00 km,1 m,270.0 °,1:-- (  0.0 km/h)*E5
$SMGPS2,-0.02 X,-0.09 Y,+1.00 Z,0 ENL,0 us*41
$GPRMC,142049.342,A,4752.0389,N,01109.7793,E,1.74,154.91,180214,,,A*60
$GPGGA,142049.342,4752.0389,N,01109.7793,E,1,8,1.22,546.1,M,47.7,M,,*5D
$GPGSA,A,3,09,08,05,26,13,02,07,10,,,,,1.46,1.22,0.81*0F
$GPVTG,154.91,T,,M,1.74,N,3.22,K,A*34
$SMGPS,0.1 m,+0.02 m/s,5.38 VRx,0.00 km,1 m,270.0 °,1:-- (  0.0 km/h)*E4
$SMGPS2,-0.02 X,-0.09 Y,+1.00 Z,0 ENL,0 us*41
$GPRMC,142049.442,A,4752.0389,N,01109.7791,E,1.79,154.40,180214,,,A*64
$GPGGA,142049.442,4752.0389,N,01109.7791,E,1,8,1.22,546.0,M,47.7,M,,*59
$GPGSA,A,3,09,08,05,26,13,02,07,10,,,,,1.46,1.22,0.81*0F
$GPVTG,154.40,T,,M,1.79,N,3.31,K,A*37
$SMGPS,0.0 m,+0.02 m/s,5.38 VRx,0.00 km,2 m,270.0 °,1:-- (  0.0 km/h)*E6
$SMGPS2,-0.02 X,-0.10 Y,+1.01 Z,0 ENL,0 us*48
$GPRMC,142049.542,A,4752.0389,N,01109.7790,E,1.81,154.34,180214,,,A*60
$GPGGA,142049.542,4752.0389,N,01109.7790,E,1,8,1.22,546.0,M,47.7,M,,*59
$GPGSA,A,3,09,08,05,26,13,02,07,10,,,,,1.46,1.22,0.81*0F
$GPVTG,154.34,T,,M,1.81,N,3.36,K,A*34
$SMGPS,0.0 m,+0.03 m/s,5.38 VRx,0.00 km,2 m,295.5 °,1:-- (  0.0 km/h)*E9
$SMGPS2,-0.01 X,-0.09 Y,+1.00 Z,0 ENL,0 us*42
$GPRMC,142049.641,A,4752.0389,N,01109.7788,E,1.80,154.43,180214,,,A*68
$GPGGA,142049.641,4752.0389,N,01109.7788,E,1,8,1.22,546.0,M,47.7,M,,*50
$GPGSA,A,3,09,08,05,26,13,02,07,10,,,,,1.46,1.22,0.81*0F
$GPVTG,154.43,T,,M,1.80,N,3.34,K,A*37
$SMGPS,0.0 m,+0.02 m/s,5.38 VRx,0.00 km,2 m,291.7 °,1:-- (  0.0 km/h)*EE
$SMGPS2,-0.02 X,-0.08 Y,+1.00 Z,0 ENL,0 us*40
$GPRMC,142049.741,A,4752.0389,N,01109.7788,E,1.79,152.64,180214,,,A*6C
$GPGGA,142049.741,4752.0389,N,01109.7788,E,1,8,1.22,546.0,M,47.7,M,,*51
$GPGSA,A,3,09,08,05,26,13,02,07,10,,,,,1.46,1.22,0.81*0F
$GPVTG,152.64,T,,M,1.79,N,3.32,K,A*34
$SMGPS,0.0 m,+0.02 m/s,5.38 VRx,0.00 km,2 m,291.7 °,1:-- (  0.0 km/h)*EE
$SMGPS2,-0.02 X,-0.09 Y,+1.00 Z,0 ENL,0 us*41
$GPRMC,142049.841,A,4752.0389,N,01109.7788,E,1.75,154.10,180214,,,A*6A
$GPGGA,142049.841,4752.0389,N,01109.7788,E,1,8,1.22,546.0,M,47.7,M,,*5E
$GPGSA,A,3,09,08,05,26,13,02,07,10,,,,,1.46,1.22,0.81*0F
$GPVTG,154.10,T,,M,1.75,N,3.24,K,A*3A
$SMGPS,0.0 m,+0.03 m/s,5.38 VRx,0.00 km,3 m,289.3 °,1:-- (  0.0 km/h)*E3
$SMGPS2,-0.02 X,-0.09 Y,+0.99 Z,0 ENL,0 us*40
$GPRMC,142049.941,A,4752.0388,N,01109.7788,E,1.70,152.33,180214,,,A*68
$GPGGA,142049.941,4752.0388,N,01109.7788,E,1,8,1.22,546.0,M,47.7,M,,*5E
$GPGSA,A,3,09,08,05,26,13,02,07,10,,,,,1.46,1.22,0.81*0F
$GPVTG,152.33,T,,M,1.70,N,3.14,K,A*3B
$SMGPS,0.0 m,+0.01 m/s,5.38 VRx,0.00 km,3 m,289.3 °,1:-- (  0.0 km/h)*E1
$SMGPS2,-0.02 X,-0.09 Y,+1.00 Z,0 ENL,0 us*41
$GPRMC,142050.041,A,4752.0388,N,01109.7789,E,1.56,150.99,180214,,,A*6E
$GPGGA,142050.041,4752.0388,N,01109.7789,E,1,8,1.22,546.0,M,47.7,M,,*5E
$GPGSA,A,3,09,08,05,26,13,02,07,10,,,,,1.46,1.22,0.81*0F
$GPVTG,150.99,T,,M,1.56,N,2.88,K,A*39
$SMGPS,0.0 m,+0.01 m/s,5.38 VRx,0.00 km,3 m,289.3 °,1:-- (  0.0 km/h)*E1
$SMGPS2,-0.01 X,-0.09 Y,+1.00 Z,0 ENL,0 us*42
$GPRMC,142050.142,A,4752.0388,N,01109.7793,E,1.44,150.13,180214,,,A*66
$GPGGA,142050.142,4752.0388,N,01109.7793,E,1,8,1.22,546.0,M,47.7,M,,*57
$GPGSA,A,3,09,08,05,26,13,02,07,10,,,,,1.46,1.22,0.81*0F
$GPVTG,150.13,T,,M,1.44,N,2.66,K,A*38
$SMGPS,0.0 m,+0.01 m/s,5.38 VRx,0.00 km,2 m,270.0 °,1:-- (  0.0 km/h)*E5
$SMGPS2,-0.02 X,-0.09 Y,+1.00 Z,0 ENL,0 us*41
$GPRMC,142050.242,A,4752.0387,N,01109.7794,E,1.44,150.09,180214,,,A*66
$GPGGA,142050.242,4752.0387,N,01109.7794,E,1,8,1.22,546.0,M,47.7,M,,*5C
$GPGSA,A,3,09,08,05,26,13,02,07,10,,,,,1.46,1.22,0.81*0F
$GPVTG,150.09,T,,M,1.44,N,2.67,K,A*32
$SMGPS,0.0 m,+0.03 m/s,5.38 VRx,0.00 km,2 m,270.0 °,1:-- (  0.0 km/h)*E7
$SMGPS2,-0.02 X,-0.09 Y,+1.01 Z,0 ENL,0 us*40
$GPRMC,142050.342,A,4752.0386,N,01109.7795,E,1.41,149.89,180214,,,A*62
$GPGGA,142050.342,4752.0386,N,01109.7795,E,1,8,1.22,546.0,M,47.7,M,,*5D
$GPGSA,A,3,09,08,05,26,13,02,07,10,,,,,1.46,1.22,0.81*0F
$GPVTG,149.89,T,,M,1.41,N,2.60,K,A*30
$SMGPS,0.0 m,+0.04 m/s,5.38 VRx,0.00 km,2 m,270.0 °,1:-- (  0.0 km/h)*E0
$SMGPS2,-0.01 X,-0.09 Y,+1.01 Z,0 ENL,0 us*43
$GPRMC,142050.442,A,4752.0386,N,01109.7796,E,1.37,151.04,180214,,,A*6B
$GPGGA,142050.442,4752.0386,N,01109.7796,E,1,8,1.22,546.0,M,47.7,M,,*59
$GPGSA,A,3,09,08,05,26,13,02,07,10,,,,,1.46,1.22,0.81*0F
$GPVTG,151.04,T,,M,1.37,N,2.55,K,A*3B
$SMGPS,0.0 m,+0.03 m/s,5.38 VRx,0.00 km,2 m,270.0 °,1:-- (  0.0 km/h)*E7
$SMGPS2,-0.02 X,-0.09 Y,+0.99 Z,0 ENL,0 us*40
$GPRMC,142050.542,A,4752.0386,N,01109.7796,E,1.27,151.56,180214,,,A*6C
$GPGGA,142050.542,4752.0386,N,01109.7796,E,1,8,1.22,546.0,M,47.7,M,,*58
$GPGSA,A,3,09,08,05,26,13,02,07,10,,,,,1.46,1.22,0.81*0F
$GPVTG,151.56,T,,M,1.27,N,2.36,K,A*38
$SMGPS,-0.0 m,+0.04 m/s,5.38 VRx,0.00 km,1 m,270.0 °,1:-- (  0.0 km/h)*CE
$SMGPS2,-0.02 X,-0.10 Y,+0.99 Z,0 ENL,0 us*48
$GPRMC,142050.642,A,4752.0386,N,01109.7796,E,1.14,150.13,180214,,,A*6F
$GPGGA,142050.642,4752.0386,N,01109.7796,E,1,8,1.22,546.0,M,47.7,M,,*5B
$GPGSA,A,3,09,08,05,26,13,02,07,10,,,,,1.46,1.22,0.81*0F
$GPVTG,150.13,T,,M,1.14,N,2.11,K,A*3D
$SMGPS,0.0 m,+0.05 m/s,5.38 VRx,0.00 km,1 m,270.0 °,1:-- (  0.0 km/h)*E2
$SMGPS2,-0.03 X,-0.09 Y,+1.01 Z,0 ENL,0 us*41
$GPRMC,142050.742,A,4752.0386,N,01109.7797,E,1.03,149.10,180214,,,A*62
$GPGGA,142050.742,4752.0386,N,01109.7797,E,1,8,1.22,546.0,M,47.7,M,,*5B
$GPGSA,A,3,09,08,05,26,13,02,07,10,,,,,1.46,1.22,0.81*0F
$GPVTG,149.10,T,,M,1.03,N,1.91,K,A*3B
$SMGPS,0.0 m,+0.05 m/s,5.37 VRx,0.00 km,1 m,270.0 °,1:-- (  0.0 km/h)*ED
$SMGPS2,-0.02 X,-0.08 Y,+1.01 Z,0 ENL,0 us*41
$GPRMC,142050.842,A,4752.0386,N,01109.7797,E,1.00,148.69,180214,,,A*61
$GPGGA,142050.842,4752.0386,N,01109.7797,E,1,8,1.22,546.0,M,47.7,M,,*54
$GPGSA,A,3,09,08,05,26,13,02,07,10,,,,,1.46,1.22,0.81*0F
$GPVTG,148.69,T,,M,1.00,N,1.85,K,A*32
$SMGPS,0.0 m,+0.05 m/s,5.38 VRx,0.00 km,1 m,270.0 °,1:-- (  0.0 km/h)*E2
$SMGPS2,-0.00 X,-0.08 Y,+1.00 Z,0 ENL,0 us*42
$GPRMC,142050.942,A,4752.0387,N,01109.7796,E,0.94,148.04,180214,,,A*67
$GPGGA,142050.942,4752.0387,N,01109.7796,E,1,8,1.22,546.0,M,47.7,M,,*55
$GPGSA,A,3,09,08,05,26,13,02,07,10,,,,,1.46,1.22,0.81*0F
$GPVTG,148.04,T,,M,0.94,N,1.74,K,A*3B
$SMGPS,0.0 m,+0.05 m/s,5.38 VRx,0.00 km,1 m,270.0 °,1:-- (  0.0 km/h)*E2
$SMGPS2,-0.01 X,-0.09 Y,+1.00 Z,0 ENL,0 us*42
$GPRMC,142051.042,A,4752.0387,N,01109.7796,E,0.89,147.31,180214,,,A*6A
$GPGGA,142051.042,4752.0387,N,01109.7796,E,1,8,1.22,546.0,M,47.7,M,,*5D
$GPGSA,A,3,09,08,05,26,13,02,07,10,,,,,1.46,1.22,0.81*0F
$GPVTG,147.31,T,,M,0.88,N,1.63,K,A*39
$SMGPS,0.0 m,+0.05 m/s,5.38 VRx,0.00 km,1 m,270.0 °,1:-- (  0.0 km/h)*E2
$SMGPS2,-0.02 X,-0.09 Y,+1.00 Z,0 ENL,0 us*41
$GPRMC,142051.142,A,4752.0387,N,01109.7796,E,0.84,147.01,180214,,,A*65
$GPGGA,142051.142,4752.0387,N,01109.7796,E,1,8,1.22,546.1,M,47.7,M,,*5D
$GPGSA,A,3,09,08,05,26,13,02,07,10,,,,,1.46,1.22,0.81*0F
$GPVTG,147.01,T,,M,0.84,N,1.55,K,A*33
$SMGPS,0.1 m,+0.05 m/s,5.38 VRx,0.00 km,1 m,270.0 °,1:-- (  0.0 km/h)*E3
$SMGPS2,-0.01 X,-0.09 Y,+1.00 Z,0 ENL,0 us*42
$GPRMC,142051.242,A,4752.0387,N,01109.7796,E,0.83,146.44,180214,,,A*61
$GPGGA,142051.242,4752.0387,N,01109.7796,E,1,8,1.22,546.0,M,47.7,M,,*5F
$GPGSA,A,3,09,08,05,26,13,02,07,10,,,,,1.46,1.22,0.81*0F
$GPVTG,146.44,T,,M,0.83,N,1.53,K,A*32
$SMGPS,0.0 m,+0.04 m/s,5.38 VRx,0.00 km,1 m,270.0 °,1:-- (  0.0 km/h)*E3
$SMGPS2,-0.02 X,-0.08 Y,+0.99 Z,0 ENL,0 us*41
$GPRMC,142051.342,A,4752.0387,N,01109.7797,E,0.82,146.14,180214,,,A*65
$GPGGA,142051.342,4752.0387,N,01109.7797,E,1,8,1.22,546.0,M,47.7,M,,*5F
$GPGSA,A,3,09,08,05,26,13,02,07,10,,,,,1.46,1.22,0.81*0F
$GPVTG,146.14,T,,M,0.82,N,1.51,K,A*34
$SMGPS,0.0 m,+0.03 m/s,5.38 VRx,0.00 km,1 m,270.0 °,1:-- (  0.0 km/h)*E4
$SMGPS2,-0.01 X,-0.09 Y,+1.01 Z,0 ENL,0 us*43
$GPRMC,142051.442,A,4752.0387,N,01109.7797,E,0.79,144.88,180214,,,A*61
$GPGGA,142051.442,4752.0387,N,01109.7797,E,1,8,1.22,546.0,M,47.7,M,,*58
$GPGSA,A,3,09,08,05,26,13,02,07,10,,,,,1.46,1.22,0.81*0F
$GPVTG,144.88,T,,M,0.79,N,1.46,K,A*31
$SMGPS,0.0 m,+0.04 m/s,5.38 VRx,0.00 km,1 m,270.0 °,1:-- (  0.0 km/h)*E3
$SMGPS2,-0.02 X,-0.10 Y,+1.00 Z,0 ENL,0 us*49
$GPRMC,142051.542,A,4752.0387,N,01109.7796,E,0.78,143.66,180214,,,A*67
$GPGGA,142051.542,4752.0387,N,01109.7796,E,1,8,1.22,546.0,M,47.7,M,,*58
$GPGSA,A,3,09,08,05,26,13,02,07,10,,,,,1.46,1.22,0.81*0F
$GPVTG,143.66,T,,M,0.77,N,1.44,K,A*3A
$SMGPS,0.0 m,+0.05 m/s,5.38 VRx,0.00 km,1 m,270.0 °,1:-- (  0.0 km/h)*E2
$SMGPS2,-0.01 X,-0.09 Y,+1.00 Z,0 ENL,0 us*42
$GPRMC,142051.642,A,4752.0387,N,01109.7796,E,0.75,142.28,180214,,,A*62
$GPGGA,142051.642,4752.0387,N,01109.7796,E,1,8,1.22,546.0,M,47.7,M,,*5B
$GPGSA,A,3,09,08,05,26,13,02,07,10,,,,,1.46,1.22,0.81*0F
$GPVTG,142.28,T,,M,0.75,N,1.38,K,A*38
$SMGPS,0.0 m,+0.03 m/s,5.38 VRx,0.00 km,1 m,270.0 °,1:-- (  0.0 km/h)*E4
$SMGPS2,-0.02 X,-0.09 Y,+1.01 Z,0 ENL,0 us*40
$GPRMC,142051.742,A,4752.0388,N,01109.7796,E,0.68,139.85,180214,,,A*6B
$GPGGA,142051.742,4752.0388,N,01109.7796,E,1,8,1.22,546.0,M,47.7,M,,*55
$GPGSA,A,3,09,08,05,26,13,02,07,10,,,,,1.46,1.22,0.81*0F
$GPVTG,139.85,T,,M,0.68,N,1.27,K,A*31
$SMGPS,0.0 m,+0.04 m/s,5.38 VRx,0.00 km,1 m,270.0 °,1:-- (  0.0 km/h)*E3
$SMGPS2,-0.02 X,-0.09 Y,+1.00 Z,0 ENL,0 us*41
$GPRMC,142051.842,A,4752.0388,N,01109.7797,E,0.69,139.32,180214,,,A*68
$GPGGA,142051.842,4752.0388,N,01109.7797,E,1,8,1.22,546.0,M,47.7,M,,*5B
$GPGSA,A,3,09,08,05,26,13,02,07,10,,,,,1.46,1.22,0.81*0F
$GPVTG,139.32,T,,M,0.68,N,1.26,K,A*3C
$SMGPS,0.0 m,+0.04 m/s,5.38 VRx,0.00 km,1 m,270.0 °,1:-- (  0.0 km/h)*E3
$SMGPS2,-0.02 X,-0.09 Y,+0.99 Z,0 ENL,0 us*40
$GPRMC,142051.942,A,4752.0388,N,01109.7798,E,0.66,139.17,180214,,,A*6E
$GPGGA,142051.942,4752.0388,N,01109.7798,E,1,8,1.22,546.0,M,47.7,M,,*55
$GPGSA,A,3,09,08,05,26,13,02,07,10,,,,,1.46,1.22,0.81*0F
$GPVTG,139.17,T,,M,0.65,N,1.20,K,A*30
$SMGPS,0.0 m,+0.05 m/s,5.38 VRx,0.00 km,1 m,270.0 °,1:-- (  0.0 km/h)*E2
$SMGPS2,-0.02 X,-0.10 Y,+1.00 Z,0 ENL,0 us*49
$GPRMC,142052.042,A,4752.0389,N,01109.7799,E,0.62,138.93,180214,,,A*6D
$GPGGA,142052.042,4752.0389,N,01109.7799,E,1,8,1.22,546.0,M,47.7,M,,*5F
$GPGSA,A,3,09,08,05,26,13,02,07,10,,,,,1.46,1.22,0.81*0F
$GPVTG,138.93,T,,M,0.61,N,1.12,K,A*38
$SMGPS,0.0 m,+0.04 m/s,5.38 VRx,0.00 km,1 m,270.0 °,1:-- (  0.0 km/h)*E3
$SMGPS2,-0.01 X,-0.10 Y,+1.00 Z,0 ENL,0 us*4A
$GPRMC,142052.143,A,4752.0389,N,01109.7800,E,0.57,138.93,180214,,,A*64
$GPGGA,142052.143,4752.0389,N,01109.7800,E,1,8,1.22,546.1,M,47.7,M,,*51
$GPGSA,A,3,09,08,05,26,13,02,07,10,,,,,1.46,1.22,0.81*0F
$GPVTG,138.93,T,,M,0.56,N,1.03,K,A*3C
$SMGPS,0.1 m,+0.06 m/s,5.38 VRx,0.00 km,1 m,270.0 °,1:-- (  0.0 km/h)*E0
$SMGPS2,-0.01 X,-0.09 Y,+1.00 Z,0 ENL,0 us*42
$GPRMC,142052.243,A,4752.0389,N,01109.7800,E,0.54,138.93,180214,,,A*64
$GPGGA,142052.243,4752.0389,N,01109.7800,E,1,8,1.22,546.1,M,47.7,M,,*52
$GPGSA,A,3,09,08,05,26,13,02,07,10,,,,,1.46,1.22,0.81*0F
$GPVTG,138.93,T,,M,0.54,N,1.00,K,A*3D
$SMGPS,0.1 m,+0.03 m/s,5.38 VRx,0.00 km,1 m,308.5 °,1:-- (  0.0 km/h)*EE
$SMGPS2,-0.02 X,-0.09 Y,+1.00 Z,0 ENL,0 us*41
$GPRMC,142052.343,A,4752.0390,N,01109.7800,E,0.53,138.93,180214,,,A*6A
$GPGGA,142052.343,4752.0390,N,01109.7800,E,1,8,1.22,546.0,M,47.7,M,,*5A
$GPGSA,A,3,09,08,05,26,13,02,07,10,,,,,1.46,1.22,0.81*0F
$GPVTG,138.93,T,,M,0.52,N,0.96,K,A*35
$SMGPS,0.0 m,+0.04 m/s,5.38 VRx,0.00 km,1 m,312.5 °,1:-- (  0.0 km/h)*E3
$SMGPS2,-0.03 X,-0.10 Y,+1.01 Z,0 ENL,0 us*49
$GPRMC,142052.443,A,4752.0390,N,01109.7800,E,0.50,138.93,180214,,,A*6E
$GPGGA,142052.443,4752.0390,N,01109.7800,E,1,8,1.22,546.1,M,47.7,M,,*5C
$GPGSA,A,3,09,08,05,26,13,02,07,10,,,,,1.46,1.22,0.81*0F
$GPVTG,138.93,T,,M,0.50,N,0.93,K,A*32
$SMGPS,0.1 m,+0.03 m/s,5.38 VRx,0.00 km,1 m,312.5 °,1:-- (  0.0 km/h)*E5
$SMGPS2,-0.02 X,-0.08 Y,+1.00 Z,0 ENL,0 us*40
$GPRMC,142052.543,A,4752.0390,N,01109.7800,E,0.47,138.93,180214,,,A*69
$GPGGA,142052.543,4752.0390,N,01109.7800,E,1,8,1.22,546.1,M,47.7,M,,*5D
$GPGSA,A,3,09,08,05,26,13,02,07,10,,,,,1.46,1.22,0.81*0F
$GPVTG,138.93,T,,M,0.47,N,0.87,K,A*31
$SMGPS,0.1 m,+0.03 m/s,5.38 VRx,0.00 km,1 m,312.5 °,1:-- (  0.0 km/h)*E5
$SMGPS2,-0.01 X,-0.07 Y,+1.00 Z,0 ENL,0 us*4C
$GPRMC,142052.643,A,4752.0391,N,01109.7800,E,0.45,138.93,180214,,,A*69
$GPGGA,142052.643,4752.0391,N,01109.7800,E,1,8,1.22,546.0,M,47.7,M,,*5E
$GPGSA,A,3,09,08,05,26,13,02,07,10,,,,,1.46,1.22,0.81*0F
$GPVTG,138.93,T,,M,0.45,N,0.84,K,A*30
$SMGPS,0.0 m,+0.03 m/s,5.38 VRx,0.00 km,1 m,312.5 °,1:-- (  0.0 km/h)*E4
$SMGPS2,-0.02 X,-0.08 Y,+1.01 Z,0 ENL,0 us*41
$GPRMC,142052.743,A,4752.0391,N,01109.7802,E,0.44,138.93,180214,,,A*6B
$GPGGA,142052.743,4752.0391,N,01109.7802,E,1,8,1.22,546.0,M,47.7,M,,*5D
$GPGSA,A,3,09,08,05,26,13,02,07,10,,,,,1.46,1.22,0.81*0F
$GPVTG,138.93,T,,M,0.43,N,0.80,K,A*32
$SMGPS,0.0 m,+0.05 m/s,5.38 VRx,0.00 km,1 m,312.5 °,1:-- (  0.0 km/h)*E2
$SMGPS2,-0.01 X,-0.07 Y,+1.00 Z,12 ENL,0 us*7F
$GPRMC,142052.843,A,4752.0391,N,01109.7803,E,0.42,138.93,180214,,,A*63
$GPGGA,142052.843,4752.0391,N,01109.7803,E,1,8,1.22,546.1,M,47.7,M,,*52
$GPGSA,A,3,09,08,05,26,13,02,07,10,,,,,1.46,1.22,0.81*0F
$GPVTG,138.93,T,,M,0.41,N,0.76,K,A*39
$SMGPS,0.1 m,+0.04 m/s,5.38 VRx,0.00 km,1 m,312.5 °,1:-- (  0.0 km/h)*E2
$SMGPS2,-0.01 X,-0.09 Y,+0.98 Z,9 ENL,0 us*4B
$GPRMC,142052.943,A,4752.0391,N,01109.7804,E,0.40,138.93,180214,,,A*67
$GPGGA,142052.943,4752.0391,N,01109.7804,E,1,8,1.22,546.1,M,47.7,M,,*54
$GPGSA,A,3,09,08,05,26,13,02,07,10,,,,,1.46,1.22,0.81*0F
$GPVTG,138.93,T,,M,0.39,N,0.73,K,A*33
$SMGPS,0.1 m,+0.05 m/s,5.38 VRx,0.00 km,1 m,320.0 °,1:-- (  0.0 km/h)*E7
$SMGPS2,-0.02 X,-0.08 Y,+1.01 Z,0 ENL,0 us*41
$GPRMC,142053.043,A,4752.0391,N,01109.7805,E,0.37,138.93,180214,,,A*6E
$GPGGA,142053.043,4752.0391,N,01109.7805,E,1,8,1.22,546.0,M,47.7,M,,*5C
$GPGSA,A,3,09,08,05,26,13,02,07,10,,,,,1.46,1.22,0.81*0F
$GPVTG,138.93,T,,M,0.37,N,0.69,K,A*36
$SMGPS,0.0 m,+0.03 m/s,5.38 VRx,0.00 km,1 m,326.1 °,1:-- (  0.0 km/h)*E7
$SMGPS2,-0.02 X,-0.10 Y,+1.01 Z,0 ENL,0 us*48
$GPRMC,142053.143,A,4752.0391,N,01109.7806,E,0.36,138.93,180214,,,A*6D
$GPGGA,142053.143,4752.0391,N,01109.7806,E,1,8,1.22,546.0,M,47.7,M,,*5E
$GPGSA,A,3,09,08,05,26,13,02,07,10,,,,,1.46,1.22,0.81*0F
$GPVTG,138.93,T,,M,0.36,N,0.66,K,A*38
$SMGPS,0.0 m,+0.03 m/s,5.38 VRx,0.00 km,1 m,333.3 °,1:-- (  0.0 km/h)*E1
$SMGPS2,-0.02 X,-0.10 Y,+1.01 Z,0 ENL,0 us*48
$GPRMC,142053.243,A,4752.0391,N,01109.7807,E,0.36,138.93,180214,,,A*6F
$GPGGA,142053.243,4752.0391,N,01109.7807,E,1,8,1.22,546.0,M,47.7,M,,*5C
$GPGSA,A,3,09,08,05,26,13,02,07,10,,,,,1.46,1.22,0.81*0F
$GPVTG,138.93,T,,M,0.36,N,0.66,K,A*38
$SMGPS,0.0 m,-0.00 m/s,5.38 VRx,0.00 km,1 m,341.5 °,1:-- (  0.0 km/h)*E7
$SMGPS2,-0.01 X,-0.10 Y,+1.00 Z,4 ENL,0 us*4E
$GPRMC,142053.343,A,4752.0391,N,01109.7807,E,0.35,138.93,180214,,,A*6D
$GPGGA,142053.343,4752.0391,N,01109.7807,E,1,8,1.22,546.0,M,47.7,M,,*5D
$GPGSA,A,3,09,08,05,26,13,02,07,10,,,,,1.46,1.22,0.81*0F
$GPVTG,138.93,T,,M,0.35,N,0.66,K,A*3B
$SMGPS,0.0 m,+0.01 m/s,5.38 VRx,0.00 km,1 m,350.5 °,1:-- (  0.0 km/h)*E0
$SMGPS2,-0.01 X,-0.15 Y,+1.03 Z,34 ENL,0 us*7B
$GPRMC,142053.443,A,4752.0391,N,01109.7807,E,0.35,138.93,180214,,,A*6A
$GPGGA,142053.443,4752.0391,N,01109.7807,E,1,8,1.22,546.0,M,47.7,M,,*5A
$GPGSA,A,3,09,08,05,26,13,02,07,10,,,,,1.46,1.22,0.81*0F
$GPVTG,138.93,T,,M,0.35,N,0.66,K,A*3B
$SMGPS,-0.0 m,+0.02 m/s,5.38 VRx,0.00 km,1 m,350.5 °,1:-- (  0.0 km/h)*CE
$SMGPS2,-0.03 X,-0.09 Y,+1.00 Z,0 ENL,0 us*40
$GPRMC,142053.543,A,4752.0391,N,01109.7807,E,0.36,138.93,180214,,,A*68
$GPGGA,142053.543,4752.0391,N,01109.7807,E,1,8,1.22,546.0,M,47.7,M,,*5B
$GPGSA,A,3,09,08,05,26,13,02,07,10,,,,,1.46,1.22,0.81*0F
$GPVTG,138.93,T,,M,0.35,N,0.66,K,A*3B
$SMGPS,0.0 m,+0.04 m/s,5.38 VRx,0.00 km,1 m,350.5 °,1:-- (  0.0 km/h)*E5
$SMGPS2,-0.02 X,-0.07 Y,+1.00 Z,0 ENL,0 us*4F
$GPRMC,142053.643,A,4752.0391,N,01109.7807,E,0.37,138.93,180214,,,A*6A
$GPGGA,142053.643,4752.0391,N,01109.7807,E,1,8,1.22,546.0,M,47.7,M,,*58
$GPGSA,A,3,09,08,05,26,13,02,07,10,,,,,1.46,1.22,0.81*0F
$GPVTG,138.93,T,,M,0.35,N,0.66,K,A*3B
$SMGPS,0.0 m,+0.06 m/s,5.38 VRx,0.00 km,1 m,350.5 °,1:-- (  0.0 km/h)*E7
$SMGPS2,-0.02 X,-0.11 Y,+1.00 Z,1 ENL,0 us*49
$GPRMC,142053.743,A,4752.0391,N,01109.7807,E,0.36,138.93,180214,,,A*6A
$GPGGA,142053.743,4752.0391,N,01109.7807,E,1,8,1.22,546.0,M,47.7,M,,*59
$GPGSA,A,3,09,08,05,26,13,02,07,10,,,,,1.46,1.22,0.81*0F
$GPVTG,138.93,T,,M,0.35,N,0.65,K,A*38
$SMGPS,0.0 m,+0.04 m/s,5.38 VRx,0.00 km,1 m,350.5 °,1:-- (  0.0 km/h)*E5
$SMGPS2,-0.02 X,-0.10 Y,+1.00 Z,9 ENL,0 us*40
$GPRMC,142053.843,A,4752.0391,N,01109.7807,E,0.36,138.93,180214,,,A*65
$GPGGA,142053.843,4752.0391,N,01109.7807,E,1,8,1.22,546.0,M,47.7,M,,*56
$GPGSA,A,3,09,08,05,26,13,02,07,10,,,,,1.46,1.22,0.81*0F
$GPVTG,138.93,T,,M,0.35,N,0.65,K,A*38
$SMGPS,0.0 m,+0.04 m/s,5.38 VRx,0.00 km,1 m,350.5 °,1:-- (  0.0 km/h)*E5
$SMGPS2,-0.02 X,-0.13 Y,+1.01 Z,33 ENL,0 us*7B
$GPRMC,142053.943,A,4752.0392,N,01109.7807,E,0.36,138.93,180214,,,A*67
$GPGGA,142053.943,4752.0392,N,01109.7807,E,1,8,1.22,546.0,M,47.7,M,,*54
$GPGSA,A,3,09,08,05,26,13,02,07,10,,,,,1.46,1.22,0.81*0F
$GPVTG,138.93,T,,M,0.35,N,0.65,K,A*38
$SMGPS,0.0 m,+0.04 m/s,5.37 VRx,0.00 km,1 m,350.5 °,1:-- (  0.0 km/h)*EA
$SMGPS2,-0.02 X,-0.08 Y,+1.00 Z,0 ENL,0 us*40
$GPRMC,142054.043,A,4752.0392,N,01109.7807,E,0.36,138.93,180214,,,A*69
$GPGGA,142054.043,4752.0392,N,01109.7807,E,1,8,1.22,546.0,M,47.7,M,,*5A
$GPGSA,A,3,09,08,05,26,13,02,07,10,,,,,1.46,1.22,0.81*0F
$GPVTG,138.93,T,,M,0.35,N,0.65,K,A*38
$SMGPS,0.0 m,+0.04 m/s,5.38 VRx,0.00 km,1 m,350.5 °,1:-- (  0.0 km/h)*E5
$SMGPS2,-0.02 X,-0.09 Y,+0.99 Z,0 ENL,0 us*40
$GPRMC,142054.143,A,4752.0392,N,01109.7807,E,0.35,138.93,180214,,,A*6B
$GPGGA,142054.143,4752.0392,N,01109.7807,E,1,8,1.22,546.0,M,47.7,M,,*5B
$GPGSA,A,3,09,08,05,26,13,02,07,10,,,,,1.46,1.22,0.81*0F
$GPVTG,138.93,T,,M,0.35,N,0.65,K,A*38
$SMGPS,0.0 m,+0.03 m/s,5.38 VRx,0.00 km,1 m,350.5 °,1:-- (  0.0 km/h)*E2
$SMGPS2,-0.01 X,-0.08 Y,+1.00 Z,351 ENL,0 us*44
$GPRMC,142054.243,A,4752.0392,N,01109.7807,E,0.35,138.93,180214,,,A*68
$GPGGA,142054.243,4752.0392,N,01109.7807,E,1,8,1.22,546.0,M,47.7,M,,*58
$GPGSA,A,3,09,08,05,26,13,02,07,10,,,,,1.46,1.22,0.81*0F
$GPVTG,138.93,T,,M,0.35,N,0.65,K,A*38
$SMGPS,0.0 m,+0.03 m/s,5.38 VRx,0.00 km,1 m,350.5 °,1:-- (  0.0 km/h)*E2
$SMGPS2,-0.03 X,-0.12 Y,+1.02 Z,24 ENL,0 us*7E
$GPRMC,142054.343,A,4752.0392,N,01109.7807,E,0.35,138.93,180214,,,A*69
$GPGGA,142054.343,4752.0392,N,01109.7807,E,1,8,1.22,546.0,M,47.7,M,,*59
$GPGSA,A,3,09,08,05,26,13,02,07,10,,,,,1.46,1.22,0.81*0F
$GPVTG,138.93,T,,M,0.35,N,0.65,K,A*38
$SMGPS,0.0 m,+0.00 m/s,5.38 VRx,0.00 km,1 m,350.5 °,1:-- (  0.0 km/h)*E1
$SMGPS2,-0.03 X,-0.08 Y,+1.00 Z,0 ENL,0 us*41
$GPRMC,142054.443,A,4752.0392,N,01109.7807,E,0.35,138.93,180214,,,A*6E
$GPGGA,142054.443,4752.0392,N,01109.7807,E,1,8,1.22,546.0,M,47.7,M,,*5E
$GPGSA,A,3,09,08,05,26,13,02,07,10,,,,,1.46,1.22,0.81*0F
$GPVTG,138.93,T,,M,0.35,N,0.65,K,A*38
$SMGPS,0.0 m,+0.01 m/s,5.38 VRx,0.00 km,1 m,350.5 °,1:-- (  0.0 km/h)*E0
$SMGPS2,-0.03 X,-0.10 Y,+1.04 Z,2 ENL,0 us*4E
$GPRMC,142054.543,A,4752.0392,N,01109.7807,E,0.35,138.93,180214,,,A*6F
$GPGGA,142054.543,4752.0392,N,01109.7807,E,1,8,1.22,546.0,M,47.7,M,,*5F
$GPGSA,A,3,09,08,05,26,13,02,07,10,,,,,1.46,1.22,0.81*0F
$GPVTG,138.93,T,,M,0.35,N,0.65,K,A*38
$SMGPS,0.0 m,+0.02 m/s,5.38 VRx,0.00 km,1 m,350.5 °,1:-- (  0.0 km/h)*E3
$SMGPS2,-0.02 X,-0.09 Y,+1.01 Z,2 ENL,0 us*42
$GPRMC,142054.643,A,4752.0392,N,01109.7807,E,0.35,138.93,180214,,,A*6C
$GPGGA,142054.643,4752.0392,N,01109.7807,E,1,8,1.22,546.0,M,47.7,M,,*5C
$GPGSA,A,3,09,08,05,26,13,02,07,10,,,,,1.46,1.22,0.81*0F
$GPVTG,138.93,T,,M,0.35,N,0.64,K,A*39
$SMGPS,0.0 m,+0.01 m/s,5.38 VRx,0.00 km,1 m,350.5 °,1:-- (  0.0 km/h)*E0
$SMGPS2,-0.02 X,-0.05 Y,+0.99 Z,27 ENL,0 us*79
$GPRMC,142054.743,A,4752.0392,N,01109.7807,E,0.34,138.93,180214,,,A*6C
$GPGGA,142054.743,4752.0392,N,01109.7807,E,1,8,1.22,546.0,M,47.7,M,,*5D
$GPGSA,A,3,09,08,05,26,13,02,07,10,,,,,1.46,1.22,0.81*0F
$GPVTG,138.93,T,,M,0.34,N,0.62,K,A*3E
$SMGPS,0.0 m,+0.02 m/s,5.38 VRx,0.00 km,1 m,350.5 °,1:-- (  0.0 km/h)*E3
$SMGPS2,-0.04 X,-0.08 Y,+1.00 Z,0 ENL,0 us*46
$GPRMC,142054.843,A,4752.0393,N,01109.7807,E,0.32,138.93,180214,,,A*64
$GPGGA,142054.843,4752.0393,N,01109.7807,E,1,8,1.22,546.0,M,47.7,M,,*53
$GPGSA,A,3,09,08,05,26,13,02,07,10,,,,,1.46,1.22,0.81*0F
$GPVTG,138.93,T,,M,0.32,N,0.59,K,A*30
$SMGPS,0.0 m,+0.02 m/s,5.38 VRx,0.00 km,1 m,350.5 °,1:-- (  0.0 km/h)*E3
$SMGPS2,-0.03 X,-0.11 Y,+1.00 Z,5 ENL,0 us*4C
$GPRMC,142054.943,A,4752.0393,N,01109.7807,E,0.31,138.93,180214,,,A*66
$GPGGA,142054.943,4752.0393,N,01109.7807,E,1,8,1.22,546.0,M,47.7,M,,*52
$GPGSA,A,3,09,08,05,26,13,02,07,10,,,,,1.46,1.22,0.81*0F
$GPVTG,138.93,T,,M,0.30,N,0.55,K,A*3E
$SMGPS,0.0 m,+0.03 m/s,5.38 VRx,0.00 km,1 m,350.5 °,1:-- (  0.0 km/h)*E2
$SMGPS2,-0.02 X,-0.09 Y,+1.01 Z,2 ENL,0 us*42
$GPRMC,142055.043,A,4752.0394,N,01109.7806,E,0.29,138.93,180214,,,A*61
$GPGGA,142055.043,4752.0394,N,01109.7806,E,1,8,1.22,546.0,M,47.7,M,,*5C
$GPGSA,A,3,09,08,05,26,13,02,07,10,,,,,1.46,1.22,0.81*0F
$GPVTG,138.93,T,,M,0.28,N,0.52,K,A*30
$SMGPS,0.0 m,+0.03 m/s,5.38 VRx,0.00 km,1 m,350.5 °,1:-- (  0.0 km/h)*E2
$SMGPS2,-0.02 X,-0.10 Y,+1.00 Z,0 ENL,0 us*49
$GPRMC,142055.143,A,4752.0394,N,01109.7806,E,0.28,138.93,180214,,,A*61
$GPGGA,142055.143,4752.0394,N,01109.7806,E,1,8,1.22,546.0,M,47.7,M,,*5D
$GPGSA,A,3,09,08,05,26,13,02,07,10,,,,,1.46,1.22,0.81*0F
$GPVTG,138.93,T,,M,0.27,N,0.50,K,A*3D
$SMGPS,0.0 m,+0.04 m/s,5.38 VRx,0.00 km,1 m,350.5 °,1:-- (  0.0 km/h)*E5
$SMGPS2,-0.03 X,-0.07 Y,+0.99 Z,83 ENL,0 us*74
$GPRMC,142055.243,A,4752.0395,N,01109.7806,E,0.27,138.93,180214,,,A*6C
$GPGGA,142055.243,4752.0395,N,01109.7806,E,1,8,1.22,546.0,M,47.7,M,,*5F
$GPGSA,A,3,09,08,05,26,13,02,07,10,,,,,1.46,1.22,0.81*0F
$GPVTG,138.93,T,,M,0.27,N,0.50,K,A*3D
$SMGPS,0.0 m,+0.01 m/s,5.38 VRx,0.00 km,2 m,355.2 °,1:-- (  0.0 km/h)*E1
$SMGPS2,-0.01 X,-0.09 Y,+1.01 Z,0 ENL,0 us*43
$GPRMC,142055.343,A,4752.0395,N,01109.7806,E,0.27,138.93,180214,,,A*6D
$GPGGA,142055.343,4752.0395,N,01109.7806,E,1,8,1.22,546.0,M,47.7,M,,*5E
$GPGSA,A,3,09,08,05,26,13,02,07,10,,,,,1.46,1.22,0.81*0F
$GPVTG,138.93,T,,M,0.27,N,0.49,K,A*35
$SMGPS,0.0 m,+0.02 m/s,5.38 VRx,0.00 km,2 m,355.2 °,1:-- (  0.0 km/h)*E2
$SMGPS2,-0.02 X,-0.09 Y,+1.01 Z,0 ENL,0 us*40
$GPRMC,142055.444,A,4752.0396,N,01109.7806,E,0.26,138.93,180214,,,A*6F
$GPGGA,142055.444,4752.0396,N,01109.7806,E,1,8,1.22,546.0,M,47.7,M,,*5D
$GPGSA,A,3,09,08,05,26,13,02,07,10,,,,,1.46,1.22,0.81*0F
$GPVTG,138.93,T,,M,0.26,N,0.49,K,A*34
$SMGPS,0.0 m,+0.02 m/s,5.38 VRx,0.00 km,2 m,355.2 °,1:-- (  0.0 km/h)*E2
$SMGPS2,-0.05 X,-0.07 Y,+0.92 Z,89 ENL,0 us*73
$GPRMC,142055.544,A,4752.0396,N,01109.7806,E,0.27,138.93,180214,,,A*6F
$GPGGA,142055.544,4752.0396,N,01109.7806,E,1,8,1.22,546.0,M,47.7,M,,*5C
$GPGSA,A,3,09,08,05,26,13,02,07,10,,,,,1.46,1.22,0.81*0F
$GPVTG,138.93,T,,M,0.27,N,0.49,K,A*35
$SMGPS,0.0 m,+0.03 m/s,5.38 VRx,0.00 km,2 m,355.2 °,1:-- (  0.0 km/h)*E3
$SMGPS2,+0.01 X,-0.10 Y,+1.02 Z,83 ENL,0 us*75
$GPRMC,142055.644,A,4752.0396,N,01109.7806,E,0.27,138.93,180214,,,A*6C
$GPGGA,142055.644,4752.0396,N,01109.7806,E,1,8,1.22,546.0,M,47.7,M,,*5F
$GPGSA,A,3,09,08,05,26,13,02,07,10,,,,,1.46,1.22,0.81*0F
$GPVTG,138.93,T,,M,0.26,N,0.49,K,A*34
$SMGPS,-0.0 m,+0.05 m/s,5.38 VRx,0.00 km,2 m,355.2 °,1:-- (  0.0 km/h)*C8
$SMGPS2,-0.03 X,-0.11 Y,+1.00 Z,206 ENL,0 us*4D
$GPRMC,142055.744,A,4752.0396,N,01109.7805,E,0.27,138.93,180214,,,A*6E
$GPGGA,142055.744,4752.0396,N,01109.7805,E,1,8,1.22,546.0,M,47.7,M,,*5D
$GPGSA,A,3,09,08,05,26,13,02,07,10,,,,,1.46,1.22,0.81*0F
$GPVTG,138.93,T,,M,0.26,N,0.48,K,A*35
$SMGPS,0.0 m,+0.04 m/s,5.38 VRx,0.00 km,2 m,355.2 °,1:-- (  0.0 km/h)*E4
$SMGPS2,-0.03 X,-0.08 Y,+0.99 Z,92 ENL,0 us*7B
$GPRMC,142055.844,A,4752.0397,N,01109.7805,E,0.27,138.93,180214,,,A*60
$GPGGA,142055.844,4752.0397,N,01109.7805,E,1,8,1.22,546.0,M,47.7,M,,*53
$GPGSA,A,3,09,08,05,26,13,02,07,10,,,,,1.46,1.22,0.81*0F
$GPVTG,138.93,T,,M,0.26,N,0.48,K,A*35
$SMGPS,0.0 m,+0.04 m/s,5.38 VRx,0.00 km,2 m,355.2 °,1:-- (  0.0 km/h)*E4
$SMGPS2,-0.02 X,-0.10 Y,+0.97 Z,230 ENL,0 us*47
$GPRMC,142055.944,A,4752.0397,N,01109.7805,E,0.26,138.93,180214,,,A*60
$GPGGA,142055.944,4752.0397,N,01109.7805,E,1,8,1.22,546.0,M,47.7,M,,*52
$GPGSA,A,3,09,08,05,26,13,02,07,10,,,,,1.46,1.22,0.81*0F
$GPVTG,138.93,T,,M,0.26,N,0.47,K,A*3A
$SMGPS,0.0 m,+0.01 m/s,5.38 VRx,0.00 km,2 m,350.5 °,1:-- (  0.0 km/h)*E3
$SMGPS2,-0.01 X,-0.11 Y,+1.01 Z,104 ENL,0 us*4F
$GPRMC,142056.044,A,4752.0397,N,01109.7805,E,0.25,138.93,180214,,,A*69
$GPGGA,142056.044,4752.0397,N,01109.7805,E,1,8,1.22,546.0,M,47.7,M,,*58
$GPGSA,A,3,09,08,05,26,13,02,07,10,,,,,1.46,1.22,0.81*0F
$GPVTG,138.93,T,,M,0.25,N,0.47,K,A*39
$SMGPS,0.0 m,-0.00 m/s,5.38 VRx,0.00 km,2 m,350.5 °,1:-- (  0.0 km/h)*E4
$SMGPS2,-0.02 X,-0.08 Y,+1.00 Z,40 ENL,0 us*74
$GPRMC,142056.144,A,4752.0397,N,01109.7805,E,0.26,138.93,180214,,,A*6B
$GPGGA,142056.144,4752.0397,N,01109.7805,E,1,8,1.22,546.0,M,47.7,M,,*59
$GPGSA,A,3,09,08,05,26,13,02,07,10,,,,,1.46,1.22,0.81*0F
$GPVTG,138.93,T,,M,0.26,N,0.48,K,A*35
$SMGPS,0.0 m,-0.01 m/s,5.38 VRx,0.00 km,2 m,350.5 °,1:-- (  0.0 km/h)*E5
$SMGPS2,-0.03 X,-0.09 Y,+1.00 Z,0 ENL,0 us*40
$GPRMC,142056.244,A,4752.0398,N,01109.7805,E,0.26,138.93,180214,,,A*67
$GPGGA,142056.244,4752.0398,N,01109.7805,E,1,8,1.22,546.0,M,47.7,M,,*55
$GPGSA,A,3,09,08,05,26,13,02,07,10,,,,,1.46,1.22,0.81*0F
$GPVTG,138.93,T,,M,0.26,N,0.48,K,A*35
$SMGPS,-0.0 m,+0.01 m/s,5.38 VRx,0.00 km,2 m,350.5 °,1:-- (  0.0 km/h)*CE
$SMGPS2,-0.00 X,-0.09 Y,+1.01 Z,0 ENL,0 us*42
$GPRMC,142056.344,A,4752.0398,N,01109.7805,E,0.26,138.93,180214,,,A*66
$GPGGA,142056.344,4752.0398,N,01109.7805,E,1,8,1.22,546.0,M,47.7,M,,*54
$GPGSA,A,3,09,08,05,26,13,02,07,10,,,,,1.46,1.22,0.81*0F
$GPVTG,138.93,T,,M,0.26,N,0.48,K,A*35
$SMGPS,-0.0 m,+0.02 m/s,5.38 VRx,0.00 km,2 m,350.5 °,1:-- (  0.0 km/h)*CD
$SMGPS2,-0.01 X,-0.08 Y,+0.99 Z,0 ENL,0 us*42
$GPRMC,142056.444,A,4752.0398,N,01109.7805,E,0.26,138.93,180214,,,A*61
$GPGGA,142056.444,4752.0398,N,01109.7805,E,1,8,1.22,546.0,M,47.7,M,,*53
$GPGSA,A,3,09,08,05,26,13,02,07,10,,,,,1.46,1.22,0.81*0F
$GPVTG,138.93,T,,M,0.26,N,0.49,K,A*34
$SMGPS,0.0 m,+0.02 m/s,5.38 VRx,0.00 km,3 m,353.6 °,1:-- (  0.0 km/h)*E1
$SMGPS2,-0.01 X,-0.09 Y,+1.00 Z,0 ENL,0 us*42
$GPRMC,142056.544,A,4752.0398,N,01109.7805,E,0.26,138.93,180214,,,A*60
$GPGGA,142056.544,4752.0398,N,01109.7805,E,1,8,1.22,546.0,M,47.7,M,,*52
$GPGSA,A,3,09,08,05,26,13,02,07,10,,,,,1.46,1.22,0.81*0F
$GPVTG,138.93,T,,M,0.26,N,0.49,K,A*34
$SMGPS,0.0 m,+0.03 m/s,5.38 VRx,0.00 km,3 m,353.6 °,1:-- (  0.0 km/h)*E0
$SMGPS2,-0.02 X,-0.10 Y,+1.00 Z,0 ENL,0 us*49
$GPRMC,142056.644,A,4752.0398,N,01109.7805,E,0.27,138.93,180214,,,A*62
$GPGGA,142056.644,4752.0398,N,01109.7805,E,1,8,1.22,546.0,M,47.7,M,,*51
$GPGSA,A,3,09,08,05,26,13,02,07,10,,,,,1.46,1.22,0.81*0F
$GPVTG,138.93,T,,M,0.26,N,0.49,K,A*34
$SMGPS,0.0 m,+0.03 m/s,5.38 VRx,0.00 km,3 m,353.6 °,1:-- (  0.0 km/h)*E0
$SMGPS2,-0.02 X,-0.09 Y,+1.01 Z,0 ENL,0 us*40
$GPRMC,142056.744,A,4752.0398,N,01109.7805,E,0.27,138.93,180214,,,A*63
$GPGGA,142056.744,4752.0398,N,01109.7805,E,1,8,1.22,546.0,M,47.7,M,,*50
$GPGSA,A,3,09,08,05,26,13,02,07,10,,,,,1.46,1.22,0.81*0F
$GPVTG,138.93,T,,M,0.26,N,0.49,K,A*34
$SMGPS,-0.0 m,+0.03 m/s,5.38 VRx,0.00 km,3 m,353.6 °,1:-- (  0.0 km/h)*CD
$SMGPS2,-0.02 X,-0.09 Y,+1.00 Z,0 ENL,0 us*41
$GPRMC,142056.844,A,4752.0398,N,01109.7804,E,0.26,138.93,180214,,,A*6C
$GPGGA,142056.844,4752.0398,N,01109.7804,E,1,8,1.22,546.0,M,47.7,M,,*5E
$GPGSA,A,3,09,08,05,26,13,02,07,10,,,,,1.46,1.22,0.81*0F
$GPVTG,138.93,T,,M,0.26,N,0.48,K,A*35
$SMGPS,-0.0 m,+0.00 m/s,5.38 VRx,0.00 km,3 m,353.6 °,1:-- (  0.0 km/h)*CE
$SMGPS2,-0.02 X,-0.10 Y,+1.01 Z,0 ENL,0 us*48
$GPRMC,142056.944,A,4752.0398,N,01109.7804,E,0.26,138.93,180214,,,A*6D
$GPGGA,142056.944,4752.0398,N,01109.7804,E,1,8,1.22,546.0,M,47.7,M,,*5F
$GPGSA,A,3,09,08,05,26,13,02,07,10,,,,,1.46,1.22,0.81*0F
$GPVTG,138.93,T,,M,0.26,N,0.48,K,A*35
$SMGPS,-0.0 m,+0.01 m/s,5.38 VRx,0.00 km,3 m,353.6 °,1:-- (  0.0 km/h)*CF
$SMGPS2,-0.02 X,-0.09 Y,+1.00 Z,0 ENL,0 us*41
$GPRMC,142057.044,A,4752.0398,N,01109.7804,E,0.26,138.93,180214,,,A*65
$GPGGA,142057.044,4752.0398,N,01109.7804,E,1,8,1.22,546.0,M,47.7,M,,*57
$GPGSA,A,3,09,08,05,26,13,02,07,10,,,,,1.46,1.22,0.81*0F
$GPVTG,138.93,T,,M,0.25,N,0.47,K,A*39
$SMGPS,-0.0 m,+0.05 m/s,5.38 VRx,0.00 km,3 m,350.5 °,1:-- (  0.0 km/h)*CB
$SMGPS2,-0.02 X,-0.10 Y,+1.00 Z,0 ENL,0 us*49
$GPRMC,142057.144,A,4752.0398,N,01109.7804,E,0.27,138.93,180214,,,A*65
$GPGGA,142057.144,4752.0398,N,01109.7804,E,1,8,1.22,546.0,M,47.7,M,,*56
$GPGSA,A,3,09,08,05,26,13,02,07,10,,,,,1.46,1.22,0.81*0F
$GPVTG,138.93,T,,M,0.26,N,0.48,K,A*35
$SMGPS,-0.0 m,+0.05 m/s,5.37 VRx,0.00 km,3 m,350.5 °,1:-- (  0.0 km/h)*C4
$SMGPS2,-0.02 X,-0.09 Y,+1.01 Z,0 ENL,0 us*40
$GPRMC,142057.244,A,4752.0397,N,01109.7804,E,0.27,138.93,180214,,,A*69
$GPGGA,142057.244,4752.0397,N,01109.7804,E,1,8,1.22,546.0,M,47.7,M,,*5A
$GPGSA,A,3,09,08,05,26,13,02,07,10,,,,,1.46,1.22,0.81*0F
$GPVTG,138.93,T,,M,0.26,N,0.48,K,A*35
$SMGPS,-0.0 m,+0.05 m/s,5.38 VRx,0.00 km,3 m,350.5 °,1:-- (  0.0 km/h)*CB
$SMGPS2,-0.02 X,-0.09 Y,+0.99 Z,0 ENL,0 us*40
$GPRMC,142057.344,A,4752.0397,N,01109.7804,E,0.27,138.93,180214,,,A*68
$GPGGA,142057.344,4752.0397,N,01109.7804,E,1,8,1.22,546.0,M,47.7,M,,*5B
$GPGSA,A,3,09,08,05,26,13,02,07,10,,,,,1.46,1.22,0.81*0F
$GPVTG,138.93,T,,M,0.26,N,0.49,K,A*34
$SMGPS,-0.0 m,+0.05 m/s,5.38 VRx,0.00 km,3 m,350.5 °,1:-- (  0.0 km/h)*CB
$SMGPS2,-0.01 X,-0.08 Y,+0.98 Z,0 ENL,0 us*43
$GPRMC,142057.444,A,4752.0397,N,01109.7805,E,0.27,138.93,180214,,,A*6E
$GPGGA,142057.444,4752.0397,N,01109.7805,E,1,8,1.22,546.0,M,47.7,M,,*5D
$GPGSA,A,3,09,08,05,26,13,02,07,10,,,,,1.46,1.22,0.81*0F
$GPVTG,138.93,T,,M,0.26,N,0.49,K,A*34
$SMGPS,-0.0 m,+0.04 m/s,5.38 VRx,0.00 km,2 m,345.9 °,1:-- (  0.0 km/h)*C3
$SMGPS2,-0.02 X,-0.09 Y,+1.01 Z,0 ENL,0 us*40
$GPRMC,142057.544,A,4752.0397,N,01109.7805,E,0.27,138.93,180214,,,A*6F
$GPGGA,142057.544,4752.0397,N,01109.7805,E,1,8,1.22,546.0,M,47.7,M,,*5C
$GPGSA,A,3,09,08,05,26,13,02,07,10,,,,,1.46,1.22,0.81*0F
$GPVTG,138.93,T,,M,0.27,N,0.49,K,A*35
$SMGPS,0.0 m,+0.01 m/s,5.38 VRx,0.00 km,2 m,345.9 °,1:-- (  0.0 km/h)*EB
$SMGPS2,-0.02 X,-0.10 Y,+1.00 Z,0 ENL,0 us*49
$GPRMC,142057.644,A,4752.0397,N,01109.7804,E,0.27,138.93,180214,,,A*6D
$GPGGA,142057.644,4752.0397,N,01109.7804,E,1,8,1.22,546.0,M,47.7,M,,*5E
$GPGSA,A,3,09,08,05,26,13,02,07,10,,,,,1.46,1.22,0.81*0F
$GPVTG,138.93,T,,M,0.26,N,0.49,K,A*34
$SMGPS,0.0 m,+0.03 m/s,5.38 VRx,0.00 km,2 m,350.5 °,1:-- (  0.0 km/h)*E1
$SMGPS2,-0.02 X,-0.10 Y,+0.99 Z,0 ENL,0 us*48
$GPRMC,142057.744,A,4752.0397,N,01109.7805,E,0.26,138.93,180214,,,A*6C
$GPGGA,142057.744,4752.0397,N,01109.7805,E,1,8,1.22,546.0,M,47.7,M,,*5E
$GPGSA,A,3,09,08,05,26,13,02,07,10,,,,,1.46,1.22,0.81*0F
$GPVTG,138.93,T,,M,0.26,N,0.49,K,A*34
$SMGPS,-0.0 m,+0.02 m/s,5.38 VRx,0.00 km,2 m,350.5 °,1:-- (  0.0 km/h)*CD
$SMGPS2,-0.02 X,-0.10 Y,+1.00 Z,0 ENL,0 us*49
$GPRMC,142057.844,A,4752.0397,N,01109.7805,E,0.26,138.93,180214,,,A*63
$GPGGA,142057.844,4752.0397,N,01109.7805,E,1,8,1.22,546.0,M,47.7,M,,*51
$GPGSA,A,3,09,08,05,26,13,02,07,10,,,,,1.46,1.22,0.81*0F
$GPVTG,138.93,T,,M,0.26,N,0.49,K,A*34
$SMGPS,-0.0 m,+0.00 m/s,5.38 VRx,0.00 km,2 m,345.9 °,1:-- (  0.0 km/h)*C7
$SMGPS2,-0.01 X,-0.09 Y,+1.00 Z,0 ENL,0 us*42
$GPRMC,142057.944,A,4752.0397,N,01109.7805,E,0.27,138.93,180214,,,A*63
$GPGGA,142057.944,4752.0397,N,01109.7805,E,1,8,1.22,546.0,M,47.7,M,,*50
$GPGSA,A,3,09,08,05,26,13,02,07,10,,,,,1.46,1.22,0.81*0F
$GPVTG,138.93,T,,M,0.27,N,0.49,K,A*35
$SMGPS,-0.0 m,+0.02 m/s,5.38 VRx,0.00 km,2 m,350.5 °,1:-- (  0.0 km/h)*CD
$SMGPS2,-0.02 X,-0.08 Y,+1.01 Z,0 ENL,0 us*41
$GPRMC,142058.044,A,4752.0397,N,01109.7805,E,0.28,138.93,180214,,,A*6A
$GPGGA,142058.044,4752.0397,N,01109.7805,E,1,8,1.22,546.0,M,47.7,M,,*56
$GPGSA,A,3,09,08,05,26,13,02,07,10,,,,,1.46,1.22,0.81*0F
$GPVTG,138.93,T,,M,0.27,N,0.50,K,A*3D
$SMGPS,-0.0 m,+0.03 m/s,5.38 VRx,0.00 km,2 m,350.5 °,1:-- (  0.0 km/h)*CC
$SMGPS2,-0.02 X,-0.09 Y,+1.00 Z,0 ENL,0 us*41
$GPRMC,142058.144,A,4752.0397,N,01109.7805,E,0.28,138.93,180214,,,A*6B
$GPGGA,142058.144,4752.0397,N,01109.7805,E,1,8,1.22,546.0,M,47.7,M,,*57
$GPGSA,A,3,09,08,05,26,13,02,07,10,,,,,1.46,1.22,0.81*0F
$GPVTG,138.93,T,,M,0.28,N,0.51,K,A*33
$SMGPS,0.0 m,+0.01 m/s,5.38 VRx,0.00 km,2 m,350.5 °,1:-- (  0.0 km/h)*E3
$SMGPS2,-0.00 X,-0.11 Y,+1.01 Z,0 ENL,0 us*4B
$GPRMC,142058.244,A,4752.0397,N,01109.7805,E,0.29,138.93,180214,,,A*69
$GPGGA,142058.244,4752.0397,N,01109.7805,E,1,8,1.22,546.0,M,47.7,M,,*54
$GPGSA,A,3,09,08,05,26,13,02,07,10,,,,,1.46,1.22,0.81*0F
$GPVTG,138.93,T,,M,0.28,N,0.52,K,A*30
$SMGPS,0.0 m,+0.03 m/s,5.38 VRx,0.00 km,2 m,350.5 °,1:-- (  0.0 km/h)*E1
$SMGPS2,-0.02 X,-0.10 Y,+1.01 Z,0 ENL,0 us*48
$GPRMC,142058.344,A,4752.0397,N,01109.7805,E,0.30,138.93,180214,,,A*60
$GPGGA,142058.344,4752.0397,N,01109.7805,E,1,8,1.22,546.0,M,47.7,M,,*55
$GPGSA,A,3,09,08,05,26,13,02,07,10,,,,,1.46,1.22,0.81*0F
$GPVTG,138.93,T,,M,0.28,N,0.52,K,A*30
$SMGPS,0.0 m,+0.05 m/s,5.38 VRx,0.00 km,2 m,350.5 °,1:-- (  0.0 km/h)*E7
$SMGPS2,-0.02 X,-0.09 Y,+1.00 Z,0 ENL,0 us*41
$GPRMC,142058.444,A,4752.0397,N,01109.7806,E,0.31,138.93,180214,,,A*65
$GPGGA,142058.444,4752.0397,N,01109.7806,E,1,8,1.22,546.0,M,47.7,M,,*51
$GPGSA,A,3,09,08,05,26,13,02,07,10,,,,,1.46,1.22,0.81*0F
$GPVTG,138.93,T,,M,0.29,N,0.53,K,A*30
$SMGPS,0.0 m,+0.05 m/s,5.38 VRx,0.00 km,2 m,350.5 °,1:-- (  0.0 km/h)*E7
$SMGPS2,-0.02 X,-0.10 Y,+1.00 Z,0 ENL,0 us*49
$GPRMC,142058.544,A,4752.0398,N,01109.7806,E,0.30,138.93,180214,,,A*6A
$GPGGA,142058.544,4752.0398,N,01109.7806,E,1,8,1.22,546.0,M,47.7,M,,*5F
$GPGSA,A,3,09,08,05,26,13,02,07,10,,,,,1.46,1.22,0.81*0F
$GPVTG,138.93,T,,M,0.29,N,0.54,K,A*37
$SMGPS,0.0 m,+0.05 m/s,5.38 VRx,0.00 km,2 m,350.5 °,1:-- (  0.0 km/h)*E7
$SMGPS2,-0.02 X,-0.10 Y,+1.00 Z,0 ENL,0 us*49
$GPRMC,142058.644,A,4752.0398,N,01109.7806,E,0.30,138.93,180214,,,A*69
$GPGGA,142058.644,4752.0398,N,01109.7806,E,1,8,1.22,546.0,M,47.7,M,,*5C
$GPGSA,A,3,09,08,05,26,13,02,07,10,,,,,1.46,1.22,0.81*0F
$GPVTG,138.93,T,,M,0.29,N,0.54,K,A*37
$SMGPS,0.0 m,+0.04 m/s,5.38 VRx,0.00 km,2 m,355.2 °,1:-- (  0.0 km/h)*E4
$SMGPS2,-0.02 X,-0.09 Y,+1.00 Z,0 ENL,0 us*41
$GPRMC,142058.744,A,4752.0398,N,01109.7807,E,0.31,138.93,180214,,,A*68
$GPGGA,142058.744,4752.0398,N,01109.7807,E,1,8,1.22,546.0,M,47.7,M,,*5C
$GPGSA,A,3,09,08,05,26,13,02,07,10,,,,,1.46,1.22,0.81*0F
$GPVTG,138.93,T,,M,0.30,N,0.55,K,A*3E
$SMGPS,0.0 m,+0.05 m/s,5.38 VRx,0.00 km,3 m,356.8 °,1:-- (  0.0 km/h)*ED
$SMGPS2,-0.02 X,-0.10 Y,+1.01 Z,0 ENL,0 us*48
$GPRMC,142058.844,A,4752.0398,N,01109.7808,E,0.32,138.93,180214,,,A*6B
$GPGGA,142058.844,4752.0398,N,01109.7808,E,1,8,1.22,546.0,M,47.7,M,,*5C
$GPGSA,A,3,09,08,05,26,13,02,07,10,,,,,1.46,1.22,0.81*0F
$GPVTG,138.93,T,,M,0.31,N,0.57,K,A*3D
$SMGPS,0.0 m,+0.04 m/s,5.38 VRx,0.00 km,3 m,356.8 °,1:-- (  0.0 km/h)*EC
$SMGPS2,-0.02 X,-0.10 Y,+1.01 Z,0 ENL,0 us*48
$GPRMC,142058.944,A,4752.0398,N,01109.7809,E,0.32,138.93,180214,,,A*6B
$GPGGA,142058.944,4752.0398,N,01109.7809,E,1,8,1.22,546.0,M,47.7,M,,*5C
$GPGSA,A,3,09,08,05,26,13,02,07,10,,,,,1.46,1.22,0.81*0F
$GPVTG,138.93,T,,M,0.32,N,0.59,K,A*30
$SMGPS,0.0 m,+0.02 m/s,5.38 VRx,0.00 km,3 m,356.8 °,1:-- (  0.0 km/h)*EA
$SMGPS2,-0.02 X,-0.09 Y,+1.01 Z,0 ENL,0 us*40
$GPRMC,142059.044,A,4752.0398,N,01109.7809,E,0.33,138.93,180214,,,A*62
$GPGGA,142059.044,4752.0398,N,01109.7809,E,1,8,1.22,546.0,M,47.7,M,,*54
$GPGSA,A,3,09,08,05,26,13,02,07,10,,,,,1.46,1.22,0.81*0F
$GPVTG,138.93,T,,M,0.32,N,0.59,K,A*30
$SMGPS,0.0 m,+0.03 m/s,5.38 VRx,0.00 km,3 m,0.0 °,1:-- (  0.0 km/h)*E3
$SMGPS2,-0.02 X,-0.10 Y,+1.00 Z,0 ENL,0 us*49
$GPRMC,142059.144,A,4752.0399,N,01109.7810,E,0.32,138.93,180214,,,A*6B
$GPGGA,142059.144,4752.0399,N,01109.7810,E,1,8,1.22,546.0,M,47.7,M,,*5C
$GPGSA,A,3,09,08,05,26,13,02,07,10,,,,,1.46,1.22,0.81*0F
$GPVTG,138.93,T,,M,0.32,N,0.60,K,A*3A
$SMGPS,0.0 m,+0.03 m/s,5.38 VRx,0.00 km,3 m,3.2 °,1:-- (  0.0 km/h)*E2
$SMGPS2,-0.02 X,-0.10 Y,+1.01 Z,0 ENL,0 us*48
$GPRMC,142059.244,A,4752.0399,N,01109.7811,E,0.33,138.93,180214,,,A*68
$GPGGA,142059.244,4752.0399,N,01109.7811,E,1,8,1.22,546.0,M,47.7,M,,*5E
$GPGSA,A,3,09,08,05,26,13,02,07,10,,,,,1.46,1.22,0.81*0F
$GPVTG,138.93,T,,M,0.33,N,0.62,K,A*39
$SMGPS,0.0 m,+0.03 m/s,5.38 VRx,0.00 km,3 m,3.2 °,1:-- (  0.0 km/h)*E2
$SMGPS2,-0.03 X,-0.09 Y,+1.00 Z,0 ENL,0 us*40
$GPRMC,142059.344,A,4752.0399,N,01109.7812,E,0.34,138.93,180214,,,A*6D
$GPGGA,142059.344,4752.0399,N,01109.7812,E,1,8,1.22,546.0,M,47.7,M,,*5C
$GPGSA,A,3,09,08,05,26,13,02,07,10,,,,,1.46,1.22,0.81*0F
$GPVTG,138.93,T,,M,0.34,N,0.63,K,A*3F
$SMGPS,0.0 m,+0.01 m/s,5.38 VRx,0.00 km,3 m,6.4 °,1:-- (  0.0 km/h)*E3
$SMGPS2,-0.02 X,-0.09 Y,+1.01 Z,0 ENL,0 us*40
$GPRMC,142059.444,A,4752.0399,N,01109.7813,E,0.35,138.93,180214,,,A*6A
$GPGGA,142059.444,4752.0399,N,01109.7813,E,1,8,1.22,546.0,M,47.7,M,,*5A
$GPGSA,A,3,09,08,05,26,13,02,07,10,,,,,1.46,1.22,0.81*0F
$GPVTG,138.93,T,,M,0.35,N,0.64,K,A*39
$SMGPS,0.0 m,+0.01 m/s,5.38 VRx,0.00 km,3 m,11.1 °,1:-- (  0.0 km/h)*D0
$SMGPS2,-0.02 X,-0.09 Y,+1.01 Z,0 ENL,0 us*40
$GPRMC,142059.544,A,4752.0399,N,01109.7814,E,0.36,138.93,180214,,,A*6F
$GPGGA,142059.544,4752.0399,N,01109.7814,E,1,8,1.22,546.0,M,47.7,M,,*5C
$GPGSA,A,3,09,08,05,26,13,02,07,10,,,,,1.46,1.22,0.81*0F
$GPVTG,138.93,T,,M,0.36,N,0.67,K,A*39
$SMGPS,0.0 m,-0.01 m/s,5.38 VRx,0.00 km,3 m,14.1 °,1:-- (  0.0 km/h)*D3
$SMGPS2,-0.02 X,-0.10 Y,+1.00 Z,0 ENL,0 us*49
$GPRMC,142059.644,A,4752.0399,N,01109.7814,E,0.37,138.93,180214,,,A*6D
$GPGGA,142059.644,4752.0399,N,01109.7814,E,1,8,1.22,546.1,M,47.7,M,,*5E
$GPGSA,A,3,09,08,05,26,13,02,07,10,,,,,1.46,1.22,0.81*0F
$GPVTG,138.93,T,,M,0.37,N,0.68,K,A*37
$SMGPS,0.1 m,-0.01 m/s,5.38 VRx,0.00 km,3 m,14.1 °,1:-- (  0.0 km/h)*D2
$SMGPS2,-0.02 X,-0.09 Y,+1.01 Z,0 ENL,0 us*40
$GPRMC,142059.744,A,4752.0399,N,01109.7815,E,0.38,138.93,180214,,,A*62
$GPGGA,142059.744,4752.0399,N,01109.7815,E,1,8,1.22,546.1,M,47.7,M,,*5E
$GPGSA,A,3,09,08,05,26,13,02,07,10,,,,,1.46,1.22,0.81*0F
$GPVTG,138.93,T,,M,0.38,N,0.70,K,A*31
$SMGPS,0.1 m,+0.01 m/s,5.38 VRx,0.00 km,3 m,17.1 °,1:-- (  0.0 km/h)*D7
$SMGPS2,-0.02 X,-0.10 Y,+1.01 Z,0 ENL,0 us*48
$GPRMC,142059.844,A,4752.0399,N,01109.7815,E,0.38,138.93,180214,,,A*6D
$GPGGA,142059.844,4752.0399,N,01109.7815,E,1,8,1.22,546.0,M,47.7,M,,*50
$GPGSA,A,3,09,08,05,26,13,02,07,10,,,,,1.46,1.22,0.81*0F
$GPVTG,138.93,T,,M,0.38,N,0.71,K,A*30
$SMGPS,0.0 m,+0.01 m/s,5.38 VRx,0.00 km,3 m,17.1 °,1:-- (  0.0 km/h)*D6
$SMGPS2,-0.02 X,-0.09 Y,+1.00 Z,0 ENL,0 us*41
$GPRMC,142059.944,A,4752.0399,N,01109.7816,E,0.40,138.93,180214,,,A*60
$GPGGA,142059.944,4752.0399,N,01109.7816,E,1,8,1.22,546.0,M,47.7,M,,*52
$GPGSA,A,3,09,08,05,26,13,02,07,10,,,,,1.46,1.22,0.81*0F
$GPVTG,138.93,T,,M,0.40,N,0.74,K,A*3A
$SMGPS,0.0 m,+0.03 m/s,5.38 VRx,0.00 km,3 m,20.0 °,1:-- (  0.0 km/h)*D1
$SMGPS2,-0.02 X,-0.09 Y,+1.01 Z,0 ENL,0 us*40
$GPRMC,142100.044,A,4752.0399,N,01109.7817,E,0.41,138.93,180214,,,A*64
$GPGGA,142100.044,4752.0399,N,01109.7817,E,1,8,1.22,546.1,M,47.7,M,,*56
$GPGSA,A,3,09,08,05,26,13,02,07,10,,,,,1.46,1.22,0.81*0F
$GPVTG,138.93,T,,M,0.41,N,0.76,K,A*39
$SMGPS,0.1 m,+0.03 m/s,5.38 VRx,0.00 km,3 m,20.0 °,1:-- (  0.0 km/h)*D0
$SMGPS2,-0.03 X,-0.09 Y,+1.01 Z,0 ENL,0 us*41
$GPRMC,142100.144,A,4752.0399,N,01109.7817,E,0.42,138.93,180214,,,A*66
$GPGGA,142100.144,4752.0399,N,01109.7817,E,1,8,1.22,546.1,M,47.7,M,,*57
$GPGSA,A,3,09,08,05,26,13,02,07,10,,,,,1.46,1.22,0.81*0F
$GPVTG,138.93,T,,M,0.42,N,0.78,K,A*34
$SMGPS,0.1 m,+0.02 m/s,5.38 VRx,0.00 km,3 m,22.7 °,1:-- (  0.0 km/h)*D4
$SMGPS2,-0.02 X,-0.10 Y,+1.01 Z,0 ENL,0 us*48
$GPRMC,142100.244,A,4752.0399,N,01109.7818,E,0.42,138.93,180214,,,A*6A
$GPGGA,142100.244,4752.0399,N,01109.7818,E,1,8,1.22,546.1,M,47.7,M,,*5B
$GPGSA,A,3,09,08,05,26,13,02,07,10,,,,,1.46,1.22,0.81*0F
$GPVTG,138.93,T,,M,0.42,N,0.78,K,A*34
$SMGPS,0.1 m,-0.00 m/s,5.38 VRx,0.00 km,3 m,25.4 °,1:-- (  0.0 km/h)*D4
$SMGPS2,-0.02 X,-0.10 Y,+1.01 Z,0 ENL,0 us*48
$GPRMC,142100.344,A,4752.0399,N,01109.7818,E,0.42,138.93,180214,,,A*6B
$GPGGA,142100.344,4752.0399,N,01109.7818,E,1,8,1.22,546.1,M,47.7,M,,*5A
$GPGSA,A,3,09,08,05,26,13,02,07,10,,,,,1.46,1.22,0.81*0F
$GPVTG,138.93,T,,M,0.42,N,0.78,K,A*34
$SMGPS,0.1 m,-0.00 m/s,5.37 VRx,0.00 km,3 m,25.4 °,1:-- (  0.0 km/h)*DB
$SMGPS2,-0.02 X,-0.09 Y,+1.00 Z,0 ENL,0 us*41
$GPRMC,142100.444,A,4752.0399,N,01109.7819,E,0.42,138.93,180214,,,A*6D
$GPGGA,142100.444,4752.0399,N,01109.7819,E,1,8,1.22,546.1,M,47.7,M,,*5C
$GPGSA,A,3,09,08,05,26,13,02,07,10,,,,,1.46,1.22,0.81*0F
$GPVTG,138.93,T,,M,0.42,N,0.78,K,A*34
$SMGPS,0.1 m,-0.00 m/s,5.38 VRx,0.00 km,3 m,28.0 °,1:-- (  0.0 km/h)*DD
$SMGPS2,-0.03 X,-0.09 Y,+1.01 Z,0 ENL,0 us*41
$GPRMC,142100.544,A,4752.0399,N,01109.7819,E,0.42,138.93,180214,,,A*6C
$GPGGA,142100.544,4752.0399,N,01109.7819,E,1,8,1.22,546.1,M,47.7,M,,*5D
$GPGSA,A,3,09,08,05,26,13,02,07,10,,,,,1.46,1.22,0.81*0F
$GPVTG,138.93,T,,M,0.42,N,0.78,K,A*34
$SMGPS,0.1 m,-0.00 m/s,5.38 VRx,0.00 km,3 m,28.0 °,1:-- (  0.0 km/h)*DD
$SMGPS2,-0.02 X,-0.09 Y,+1.01 Z,0 ENL,0 us*40
$GPRMC,142100.644,A,4752.0399,N,01109.7819,E,0.42,138.93,180214,,,A*6F
$GPGGA,142100.644,4752.0399,N,01109.7819,E,1,8,1.22,546.0,M,47.7,M,,*5F
$GPGSA,A,3,09,08,05,26,13,02,07,10,,,,,1.46,1.22,0.81*0F
$GPVTG,138.93,T,,M,0.42,N,0.78,K,A*34
$SMGPS,0.0 m,-0.00 m/s,5.38 VRx,0.00 km,3 m,28.0 °,1:-- (  0.0 km/h)*DC
$SMGPS2,-0.02 X,-0.10 Y,+1.00 Z,0 ENL,0 us*49
$GPRMC,142100.744,A,4752.0399,N,01109.7820,E,0.42,138.93,180214,,,A*64
$GPGGA,142100.744,4752.0399,N,01109.7820,E,1,8,1.22,546.1,M,47.7,M,,*55
$GPGSA,A,3,09,08,05,26,13,02,07,10,,,,,1.46,1.22,0.81*0F
$GPVTG,138.93,T,,M,0.42,N,0.78,K,A*34
$SMGPS,0.1 m,-0.01 m/s,5.38 VRx,0.00 km,3 m,28.0 °,1:-- (  0.0 km/h)*DC
$SMGPS2,-0.02 X,-0.10 Y,+1.01 Z,0 ENL,0 us*48
$GPRMC,142100.844,A,4752.0399,N,01109.7820,E,0.42,138.93,180214,,,A*6B
$GPGGA,142100.844,4752.0399,N,01109.7820,E,1,8,1.22,546.1,M,47.7,M,,*5A
$GPGSA,A,3,09,08,05,26,13,02,07,10,,,,,1.46,1.22,0.81*0F
$GPVTG,138.93,T,,M,0.42,N,0.78,K,A*34
$SMGPS,0.1 m,+0.00 m/s,5.38 VRx,0.00 km,3 m,28.0 °,1:-- (  0.0 km/h)*DB
$SMGPS2,-0.01 X,-0.09 Y,+1.01 Z,0 ENL,0 us*43
$GPRMC,142100.944,A,4752.0399,N,01109.7820,E,0.41,138.93,180214,,,A*69
$GPGGA,142100.944,4752.0399,N,01109.7820,E,1,8,1.22,546.0,M,47.7,M,,*5A
$GPGSA,A,3,09,08,05,26,13,02,07,10,,,,,1.46,1.22,0.81*0F
$GPVTG,138.93,T,,M,0.41,N,0.76,K,A*39
$SMGPS,0.0 m,-0.02 m/s,5.38 VRx,0.00 km,3 m,31.6 °,1:-- (  0.0 km/h)*D0
$SMGPS2,-0.03 X,-0.09 Y,+1.00 Z,0 ENL,0 us*40
$GPRMC,142101.044,A,4752.0399,N,01109.7820,E,0.40,138.93,180214,,,A*60
$GPGGA,142101.044,4752.0399,N,01109.7820,E,1,8,1.22,546.1,M,47.7,M,,*53
$GPGSA,A,3,09,08,05,26,13,02,07,10,,,,,1.46,1.22,0.81*0F
$GPVTG,138.93,T,,M,0.40,N,0.75,K,A*3B
$SMGPS,0.1 m,+0.00 m/s,5.38 VRx,0.00 km,3 m,31.6 °,1:-- (  0.0 km/h)*D5
$SMGPS2,-0.02 X,-0.09 Y,+1.00 Z,0 ENL,0 us*41
$GPRMC,142101.144,A,4752.0399,N,01109.7820,E,0.39,138.93,180214,,,A*6F
$GPGGA,142101.144,4752.0399,N,01109.7820,E,1,8,1.22,546.1,M,47.7,M,,*52
$GPGSA,A,3,09,08,05,26,13,02,07,10,,,,,1.46,1.22,0.81*0F
$GPVTG,138.93,T,,M,0.39,N,0.73,K,A*33
$SMGPS,0.1 m,+0.01 m/s,5.38 VRx,0.00 km,3 m,31.6 °,1:-- (  0.0 km/h)*D4
$SMGPS2,-0.02 X,-0.10 Y,+1.01 Z,0 ENL,0 us*48
$GPRMC,142101.244,A,4752.0399,N,01109.7821,E,0.39,138.93,180214,,,A*6D
$GPGGA,142101.244,4752.0399,N,01109.7821,E,1,8,1.22,546.1,M,47.7,M,,*50
$GPGSA,A,3,09,08,05,26,13,02,07,10,,,,,1.46,1.22,0.81*0F
$GPVTG,138.93,T,,M,0.39,N,0.72,K,A*32
$SMGPS,0.1 m,+0.02 m/s,5.38 VRx,0.00 km,3 m,31.6 °,1:-- (  0.0 km/h)*D7
$SMGPS2,-0.01 X,-0.09 Y,+1.01 Z,0 ENL,0 us*43
$GPRMC,142101.344,A,4752.0399,N,01109.7821,E,0.38,138.93,180214,,,A*6D
$GPGGA,142101.344,4752.0399,N,01109.7821,E,1,8,1.22,546.1,M,47.7,M,,*51
$GPGSA,A,3,09,08,05,26,13,02,07,10,,,,,1.46,1.22,0.81*0F
$GPVTG,138.93,T,,M,0.38,N,0.71,K,A*30
$SMGPS,0.1 m,+0.03 m/s,5.38 VRx,0.00 km,3 m,31.6 °,1:-- (  0.0 km/h)*D6
$SMGPS2,-0.02 X,-0.10 Y,+1.01 Z,0 ENL,0 us*48
$GPRMC,142101.444,A,4752.0399,N,01109.7821,E,0.38,138.93,180214,,,A*6A
$GPGGA,142101.444,4752.0399,N,01109.7821,E,1,8,1.22,546.1,M,47.7,M,,*56
$GPGSA,A,3,09,08,05,26,13,02,07,10,,,,,1.46,1.22,0.81*0F
$GPVTG,138.93,T,,M,0.38,N,0.70,K,A*31
$SMGPS,0.1 m,+0.03 m/s,5.38 VRx,0.00 km,3 m,33.9 °,1:-- (  0.0 km/h)*DB
$SMGPS2,-0.02 X,-0.09 Y,+1.01 Z,0 ENL,0 us*40
$GPRMC,142101.544,A,4752.0399,N,01109.7821,E,0.37,138.93,180214,,,A*64
$GPGGA,142101.544,4752.0399,N,01109.7821,E,1,8,1.22,546.1,M,47.7,M,,*57
$GPGSA,A,3,09,08,05,26,13,02,07,10,,,,,1.46,1.22,0.81*0F
$GPVTG,138.93,T,,M,0.36,N,0.68,K,A*36
$SMGPS,0.1 m,+0.05 m/s,5.38 VRx,0.00 km,3 m,33.9 °,1:-- (  0.0 km/h)*DD
$SMGPS2,-0.02 X,-0.09 Y,+1.01 Z,0 ENL,0 us*40
$GPRMC,142101.644,A,4752.0399,N,01109.7821,E,0.37,138.93,180214,,,A*67
$GPGGA,142101.644,4752.0399,N,01109.7821,E,1,8,1.22,546.1,M,47.7,M,,*54
$GPGSA,A,3,09,08,05,26,13,02,07,10,,,,,1.46,1.22,0.81*0F
$GPVTG,138.93,T,,M,0.36,N,0.66,K,A*38
$SMGPS,0.1 m,+0.04 m/s,5.38 VRx,0.00 km,3 m,33.9 °,1:-- (  0.0 km/h)*DC
$SMGPS2,-0.02 X,-0.10 Y,+1.00 Z,0 ENL,0 us*49
$GPRMC,142101.744,A,4752.0399,N,01109.7822,E,0.36,138.93,180214,,,A*64
$GPGGA,142101.744,4752.0399,N,01109.7822,E,1,8,1.22,546.1,M,47.7,M,,*56
$GPGSA,A,3,09,08,05,26,13,02,07,10,,,,,1.46,1.22,0.81*0F
$GPVTG,138.93,T,,M,0.35,N,0.66,K,A*3B
$SMGPS,0.1 m,+0.05 m/s,5.38 VRx,0.00 km,3 m,33.9 °,1:-- (  0.0 km/h)*DD
$SMGPS2,-0.02 X,-0.10 Y,+1.01 Z,0 ENL,0 us*48
$GPRMC,142101.844,A,4752.0399,N,01109.7822,E,0.34,138.93,180214,,,A*69
$GPGGA,142101.844,4752.0399,N,01109.7822,E,1,8,1.22,546.1,M,47.7,M,,*59
$GPGSA,A,3,09,08,05,26,13,02,07,10,,,,,1.46,1.22,0.81*0F
$GPVTG,138.93,T,,M,0.34,N,0.64,K,A*38
$SMGPS,0.1 m,+0.02 m/s,5.38 VRx,0.00 km,3 m,33.9 °,1:-- (  0.0 km/h)*DA
$SMGPS2,-0.03 X,-0.09 Y,+1.00 Z,0 ENL,0 us*40
$GPRMC,142101.944,A,4752.0400,N,01109.7822,E,0.33,138.93,180214,,,A*68
$GPGGA,142101.944,4752.0400,N,01109.7822,E,1,8,1.22,546.1,M,47.7,M,,*5F
$GPGSA,A,3,09,08,05,26,13,02,07,10,,,,,1.46,1.22,0.81*0F
$GPVTG,138.93,T,,M,0.33,N,0.61,K,A*3A
$SMGPS,0.1 m,+0.03 m/s,5.38 VRx,0.00 km,3 m,36.0 °,1:-- (  0.0 km/h)*D7
$SMGPS2,-0.03 X,-0.10 Y,+1.02 Z,0 ENL,0 us*4A
$GPRMC,142102.044,A,4752.0400,N,01109.7822,E,0.32,138.93,180214,,,A*63
$GPGGA,142102.044,4752.0400,N,01109.7822,E,1,8,1.22,546.1,M,47.7,M,,*55
$GPGSA,A,3,09,08,05,26,13,02,07,10,,,,,1.46,1.22,0.81*0F
$GPVTG,138.93,T,,M,0.32,N,0.59,K,A*30
$SMGPS,0.1 m,+0.00 m/s,5.38 VRx,0.00 km,3 m,36.0 °,1:-- (  0.0 km/h)*D4
$SMGPS2,-0.02 X,-0.10 Y,+1.01 Z,0 ENL,0 us*48
$GPRMC,142102.144,A,4752.0400,N,01109.7823,E,0.31,138.93,180214,,,A*60
$GPGGA,142102.144,4752.0400,N,01109.7823,E,1,8,1.22,546.1,M,47.7,M,,*55
$GPGSA,A,3,09,08,05,26,13,02,07,10,,,,,1.46,1.22,0.81*0F
$GPVTG,138.93,T,,M,0.31,N,0.57,K,A*3D
$SMGPS,0.1 m,+0.01 m/s,5.38 VRx,0.00 km,3 m,36.0 °,1:-- (  0.0 km/h)*D5
$SMGPS2,-0.02 X,-0.10 Y,+1.00 Z,0 ENL,0 us*49
$GPRMC,142102.244,A,4752.0400,N,01109.7823,E,0.30,138.93,180214,,,A*62
$GPGGA,142102.244,4752.0400,N,01109.7823,E,1,8,1.22,546.1,M,47.7,M,,*56
$GPGSA,A,3,09,08,05,26,13,02,07,10,,,,,1.46,1.22,0.81*0F
$GPVTG,138.93,T,,M,0.30,N,0.56,K,A*3D
$SMGPS,0.1 m,-0.00 m/s,5.38 VRx,0.00 km,3 m,36.0 °,1:-- (  0.0 km/h)*D2
$SMGPS2,-0.02 X,-0.09 Y,+1.00 Z,0 ENL,0 us*41
$GPRMC,142102.344,A,4752.0400,N,01109.7823,E,0.29,138.93,180214,,,A*6B
$GPGGA,142102.344,4752.0400,N,01109.7823,E,1,8,1.22,546.1,M,47.7,M,,*57
$GPGSA,A,3,09,08,05,26,13,02,07,10,,,,,1.46,1.22,0.81*0F
$GPVTG,138.93,T,,M,0.29,N,0.54,K,A*37
$SMGPS,0.1 m,+0.02 m/s,5.38 VRx,0.00 km,3 m,38.0 °,1:-- (  0.0 km/h)*D8
$SMGPS2,-0.02 X,-0.10 Y,+1.01 Z,0 ENL,0 us*48
$GPRMC,142102.444,A,4752.0400,N,01109.7823,E,0.29,138.93,180214,,,A*6C
$GPGGA,142102.444,4752.0400,N,01109.7823,E,1,8,1.22,546.1,M,47.7,M,,*50
$GPGSA,A,3,09,08,05,26,13,02,07,10,,,,,1.46,1.22,0.81*0F
$GPVTG,138.93,T,,M,0.29,N,0.54,K,A*37
$SMGPS,0.1 m,+0.01 m/s,5.38 VRx,0.00 km,3 m,38.0 °,1:-- (  0.0 km/h)*DB
$SMGPS2,-0.02 X,-0.09 Y,+1.00 Z,0 ENL,0 us*41
$GPRMC,142102.544,A,4752.0400,N,01109.7823,E,0.29,138.93,180214,,,A*6D
$GPGGA,142102.544,4752.0400,N,01109.7823,E,1,8,1.22,546.1,M,47.7,M,,*51
$GPGSA,A,3,09,08,05,26,13,02,07,10,,,,,1.46,1.22,0.81*0F
$GPVTG,138.93,T,,M,0.29,N,0.54,K,A*37
$SMGPS,0.1 m,+0.01 m/s,5.38 VRx,0.00 km,3 m,38.0 °,1:-- (  0.0 km/h)*DB
$SMGPS2,-0.01 X,-0.09 Y,+1.01 Z,0 ENL,0 us*43
$GPRMC,142102.644,A,4752.0400,N,01109.7823,E,0.29,138.93,180214,,,A*6E
$GPGGA,142102.644,4752.0400,N,01109.7823,E,1,8,1.22,546.1,M,47.7,M,,*52
$GPGSA,A,3,09,08,05,26,13,02,07,10,,,,,1.46,1.22,0.81*0F
$GPVTG,138.93,T,,M,0.29,N,0.53,K,A*30
$SMGPS,0.1 m,+0.02 m/s,5.38 VRx,0.00 km,3 m,38.0 °,1:-- (  0.0 km/h)*D8
$SMGPS2,-0.02 X,-0.10 Y,+1.01 Z,0 ENL,0 us*48
$GPRMC,142102.744,A,4752.0400,N,01109.7824,E,0.28,138.93,180214,,,A*69
$GPGGA,142102.744,4752.0400,N,01109.7824,E,1,8,1.22,546.1,M,47.7,M,,*54
$GPGSA,A,3,09,08,05,26,13,02,07,10,,,,,1.46,1.22,0.81*0F
$GPVTG,138.93,T,,M,0.28,N,0.52,K,A*30
$SMGPS,0.1 m,+0.00 m/s,5.38 VRx,0.00 km,3 m,38.0 °,1:-- (  0.0 km/h)*DA
$SMGPS2,-0.02 X,-0.09 Y,+1.00 Z,0 ENL,0 us*41
$GPRMC,142102.844,A,4752.0400,N,01109.7824,E,0.27,138.93,180214,,,A*69
$GPGGA,142102.844,4752.0400,N,01109.7824,E,1,8,1.22,546.1,M,47.7,M,,*5B
$GPGSA,A,3,09,08,05,26,13,02,07,10,,,,,1.46,1.22,0.81*0F
$GPVTG,138.93,T,,M,0.27,N,0.50,K,A*3D
$SMGPS,0.1 m,+0.01 m/s,5.38 VRx,0.00 km,3 m,38.0 °,1:-- (  0.0 km/h)*DB
$SMGPS2,-0.03 X,-0.11 Y,+1.03 Z,1 ENL,0 us*4B
$GPRMC,142102.944,A,4752.0400,N,01109.7824,E,0.27,138.93,180214,,,A*68
$GPGGA,142102.944,4752.0400,N,01109.7824,E,1,8,1.22,546.1,M,47.7,M,,*5A
$GPGSA,A,3,09,08,05,26,13,02,07,10,,,,,1.46,1.22,0.81*0F
$GPVTG,138.93,T,,M,0.27,N,0.49,K,A*35
$SMGPS,0.1 m,+0.01 m/s,5.38 VRx,0.00 km,3 m,38.0 °,1:-- (  0.0 km/h)*DB
$SMGPS2,-0.01 X,-0.14 Y,+1.01 Z,0 ENL,0 us*4F
$GPRMC,142103.044,A,4752.0400,N,01109.7824,E,0.26,138.93,180214,,,A*61
$GPGGA,142103.044,4752.0400,N,01109.7824,E,1,8,1.22,546.1,M,47.7,M,,*52
$GPGSA,A,3,09,08,05,26,13,02,07,10,,,,,1.46,1.22,0.81*0F
$GPVTG,138.93,T,,M,0.26,N,0.49,K,A*34
$SMGPS,0.1 m,+0.02 m/s,5.38 VRx,0.00 km,3 m,38.0 °,1:-- (  0.0 km/h)*D8
$SMGPS2,-0.02 X,-0.11 Y,+1.00 Z,0 ENL,0 us*48
$GPRMC,142103.144,A,4752.0400,N,01109.7824,E,0.26,138.93,180214,,,A*60
$GPGGA,142103.144,4752.0400,N,01109.7824,E,1,8,1.22,546.1,M,47.7,M,,*53
$GPGSA,A,3,09,08,05,26,13,02,07,10,,,,,1.46,1.22,0.81*0F
$GPVTG,138.93,T,,M,0.26,N,0.48,K,A*35
$SMGPS,0.1 m,+0.02 m/s,5.38 VRx,0.00 km,3 m,38.0 °,1:-- (  0.0 km/h)*D8
$SMGPS2,-0.02 X,-0.11 Y,+1.14 Z,0 ENL,0 us*4D
$GPRMC,142103.244,A,4752.0400,N,01109.7824,E,0.27,138.93,180214,,,A*62
$GPGGA,142103.244,4752.0400,N,01109.7824,E,1,8,1.22,546.0,M,47.7,M,,*51
$GPGSA,A,3,09,08,05,26,13,02,07,10,,,,,1.46,1.22,0.81*0F
$GPVTG,138.93,T,,M,0.26,N,0.48,K,A*35
$SMGPS,0.0 m,+0.03 m/s,5.38 VRx,0.00 km,3 m,38.0 °,1:-- (  0.0 km/h)*D8
$SMGPS2,-0.06 X,-0.13 Y,+1.21 Z,0 ENL,0 us*4D
$GPRMC,142103.354,A,4752.0373,N,01109.7866,E,0.30,138.93,180214,,,A*61
$GPGGA,142103.354,4752.0373,N,01109.7866,E,1,8,1.22,546.0,M,47.7,M,,*54
$GPGSA,A,3,09,08,05,26,13,02,07,10,,,,,1.46,1.22,0.81*0F
$GPVTG,138.93,T,,M,0.30,N,0.55,K,A*3E
$SMGPS,0.0 m,+0.01 m/s,5.38 VRx,0.00 km,3 m,38.0 °,1:-- (  0.0 km/h)*DA
$SMGPS2,-0.07 X,-0.19 Y,+1.07 Z,3 ENL,0 us*41
$GPRMC,142103.500,A,4752.0373,N,01109.7867,E,0.31,138.93,180214,,,A*66
$GPGGA,142103.500,4752.0373,N,01109.7867,E,1,8,1.22,546.0,M,47.7,M,,*52
$GPGSA,A,3,09,08,05,26,13,02,07,10,,,,,1.46,1.22,0.81*0F
$GPVTG,138.93,T,,M,0.29,N,0.55,K,A*36
$SMGPS,0.0 m,+0.06 m/s,5.38 VRx,0.00 km,3 m,38.0 °,1:-- (  0.0 km/h)*DD
$SMGPS2,+0.11 X,-0.25 Y,+1.16 Z,1 ENL,0 us*4D
$GPRMC,142103.600,A,4752.0373,N,01109.7867,E,0.31,138.93,180214,,,A*65
$GPGGA,142103.600,4752.0373,N,01109.7867,E,1,8,1.22,546.0,M,47.7,M,,*51
$GPGSA,A,3,09,08,05,26,13,02,07,10,,,,,1.46,1.22,0.81*0F
$GPVTG,138.93,T,,M,0.29,N,0.54,K,A*37
$SMGPS,0.0 m,+0.06 m/s,5.37 VRx,0.00 km,8 m,109.2 °,1:-- (  0.0 km/h)*E8
$SMGPS2,-0.09 X,-0.22 Y,+1.42 Z,0 ENL,0 us*45
$GPRMC,142103.700,A,4752.0374,N,01109.7867,E,0.31,138.93,180214,,,A*63
$GPGGA,142103.700,4752.0374,N,01109.7867,E,1,8,1.22,546.0,M,47.7,M,,*57
$GPGSA,A,3,09,08,05,26,13,02,07,10,,,,,1.46,1.22,0.81*0F
$GPVTG,138.93,T,,M,0.29,N,0.54,K,A*37
$SMGPS,0.0 m,+0.06 m/s,5.38 VRx,0.00 km,8 m,108.8 °,1:-- (  0.0 km/h)*EC
$SMGPS2,-0.14 X,-0.08 Y,+1.47 Z,0 ENL,0 us*44
$GPRMC,142103.800,A,4752.0374,N,01109.7867,E,0.31,138.93,180214,,,A*6C
$GPGGA,142103.800,4752.0374,N,01109.7867,E,1,8,1.22,546.0,M,47.7,M,,*58
$GPGSA,A,3,09,08,05,26,13,02,07,10,,,,,1.46,1.22,0.81*0F
$GPVTG,138.93,T,,M,0.29,N,0.54,K,A*37
$SMGPS,0.0 m,+0.06 m/s,5.38 VRx,0.00 km,8 m,108.8 °,1:-- (  0.0 km/h)*EC
$SMGPS2,-0.12 X,-0.14 Y,+1.30 Z,0 ENL,0 us*4F
$GPRMC,142103.900,A,4752.0374,N,01109.7867,E,0.37,138.93,180214,,,A*6B
$GPGGA,142103.900,4752.0374,N,01109.7867,E,1,8,1.22,546.1,M,47.7,M,,*58
$GPGSA,A,3,09,08,05,26,13,02,07,10,,,,,1.46,1.22,0.81*0F
$GPVTG,138.93,T,,M,0.29,N,0.54,K,A*37
$SMGPS,0.1 m,+0.12 m/s,5.38 VRx,0.00 km,8 m,102.8 °,1:-- (  0.0 km/h)*E2
$SMGPS2,-0.12 X,-0.17 Y,+1.29 Z,0 ENL,0 us*44
$GPRMC,142104.000,A,4752.0374,N,01109.7867,E,0.58,138.93,180214,,,A*6C
$GPGGA,142104.000,4752.0374,N,01109.7867,E,1,8,1.22,546.2,M,47.7,M,,*55
$GPGSA,A,3,09,08,05,26,13,02,07,10,,,,,1.46,1.22,0.81*0F
$GPVTG,138.93,T,,M,0.29,N,0.54,K,A*37
$SMGPS,0.2 m,+0.26 m/s,5.38 VRx,0.00 km,8 m,102.8 °,1:-- (  0.0 km/h)*E6
$SMGPS2,+0.03 X,-0.07 Y,+1.06 Z,0 ENL,0 us*4E
$GPRMC,142104.100,A,4752.0374,N,01109.7867,E,0.83,138.93,180214,,,A*6B
$GPGGA,142104.100,4752.0374,N,01109.7867,E,1,8,1.22,546.2,M,47.7,M,,*54
$GPGSA,A,3,09,08,05,26,13,02,07,10,,,,,1.46,1.22,0.81*0F
$GPVTG,138.93,T,,M,0.30,N,0.56,K,A*3D
$SMGPS,0.2 m,+0.40 m/s,5.38 VRx,0.00 km,8 m,102.8 °,1:-- (  0.0 km/h)*E6
$SMGPS2,-0.11 X,+0.05 Y,+0.45 Z,13 ENL,0 us*7B
$GPRMC,142104.200,A,4752.0374,N,01109.7868,E,1.07,138.93,180214,,,A*6A
$GPGGA,142104.200,4752.0374,N,01109.7868,E,1,8,1.22,546.4,M,47.7,M,,*5E
$GPGSA,A,3,09,08,05,26,13,02,07,10,,,,,1.46,1.22,0.81*0F
$GPVTG,138.93,T,,M,0.31,N,0.57,K,A*3D
$SMGPS,0.4 m,+0.53 m/s,5.38 VRx,0.00 km,8 m,102.8 °,1:-- (  0.0 km/h)*E2
$SMGPS2,-0.13 X,+0.01 Y,+0.16 Z,1 ENL,0 us*48
$GPRMC,142104.300,A,4752.0374,N,01109.7868,E,1.23,138.93,180214,,,A*6D
$GPGGA,142104.300,4752.0374,N,01109.7868,E,1,8,1.22,546.5,M,47.7,M,,*5E
$GPGSA,A,3,09,08,05,26,13,02,07,10,,,,,1.46,1.22,0.81*0F
$GPVTG,138.93,T,,M,0.31,N,0.58,K,A*32
$SMGPS,0.5 m,+0.61 m/s,5.38 VRx,0.00 km,8 m,102.8 °,1:-- (  0.0 km/h)*E2
$SMGPS2,-0.23 X,-0.22 Y,+0.67 Z,1 ENL,0 us*4A
$GPRMC,142104.400,A,4752.0375,N,01109.7868,E,1.31,138.93,180214,,,A*68
$GPGGA,142104.400,4752.0375,N,01109.7868,E,1,8,1.22,546.5,M,47.7,M,,*58
$GPGSA,A,3,09,08,05,26,13,02,07,10,,,,,1.46,1.22,0.81*0F
$GPVTG,138.93,T,,M,0.32,N,0.59,K,A*30
$SMGPS,0.5 m,+0.66 m/s,5.38 VRx,0.00 km,8 m,102.8 °,1:-- (  0.0 km/h)*E5
$SMGPS2,-0.33 X,-0.19 Y,+1.05 Z,0 ENL,0 us*47
$GPRMC,142104.500,A,4752.0375,N,01109.7869,E,1.39,138.93,180214,,,A*60
$GPGGA,142104.500,4752.0375,N,01109.7869,E,1,8,1.22,546.6,M,47.7,M,,*5B
$GPGSA,A,3,09,08,05,26,13,02,07,10,,,,,1.46,1.22,0.81*0F
$GPVTG,138.93,T,,M,0.34,N,0.62,K,A*3E
$SMGPS,0.6 m,+0.70 m/s,5.38 VRx,0.00 km,8 m,102.8 °,1:-- (  0.0 km/h)*E1
$SMGPS2,-0.41 X,-0.24 Y,+0.94 Z,0 ENL,0 us*45
$GPRMC,142104.600,A,4752.0375,N,01109.7869,E,1.44,138.93,180214,,,A*69
$GPGGA,142104.600,4752.0375,N,01109.7869,E,1,8,1.22,546.8,M,47.7,M,,*56
$GPGSA,A,3,09,08,05,26,13,02,07,10,,,,,1.46,1.22,0.81*0F
$GPVTG,138.93,T,,M,0.35,N,0.65,K,A*38
$SMGPS,0.8 m,+0.72 m/s,5.38 VRx,0.01 km,8 m,102.8 °,1:-- (  0.0 km/h)*EC
$SMGPS2,-0.41 X,-0.17 Y,+0.94 Z,0 ENL,0 us*45
$GPRMC,142104.700,A,4752.0375,N,01109.7869,E,1.49,138.93,180214,,,A*65
$GPGGA,142104.700,4752.0375,N,01109.7869,E,1,8,1.22,546.9,M,47.7,M,,*56
$GPGSA,A,3,09,08,05,26,13,02,07,10,,,,,1.46,1.22,0.81*0F
$GPVTG,138.93,T,,M,0.37,N,0.68,K,A*37
$SMGPS,0.9 m,+0.74 m/s,5.38 VRx,0.01 km,8 m,102.6 °,1:-- (  0.0 km/h)*E5
$SMGPS2,-0.40 X,-0.14 Y,+0.90 Z,0 ENL,0 us*43
$GPRMC,142104.800,A,4752.0376,N,01109.7870,E,1.50,138.93,180214,,,A*69
$GPGGA,142104.800,4752.0376,N,01109.7870,E,1,8,1.22,546.9,M,47.7,M,,*52
$GPGSA,A,3,09,08,05,26,13,02,07,10,,,,,1.46,1.22,0.81*0F
$GPVTG,138.93,T,,M,0.39,N,0.72,K,A*32
$SMGPS,0.9 m,+0.74 m/s,5.38 VRx,0.01 km,8 m,102.6 °,1:-- (  0.0 km/h)*E5
$SMGPS2,-0.39 X,+0.04 Y,+0.52 Z,0 ENL,0 us*44
$GPRMC,142104.900,A,4752.0376,N,01109.7870,E,1.51,138.93,180214,,,A*69
$GPGGA,142104.900,4752.0376,N,01109.7870,E,1,8,1.22,547.0,M,47.7,M,,*5B
$GPGSA,A,3,09,08,05,26,13,02,07,10,,,,,1.46,1.22,0.81*0F
$GPVTG,138.93,T,,M,0.41,N,0.75,K,A*3A
$SMGPS,1.0 m,+0.75 m/s,5.38 VRx,0.01 km,8 m,102.6 °,1:-- (  0.0 km/h)*EC
$SMGPS2,-0.22 X,+0.13 Y,+0.28 Z,2 ENL,0 us*47
$GPRMC,142105.000,A,4752.0376,N,01109.7871,E,1.47,138.93,180214,,,A*67
$GPGGA,142105.000,4752.0376,N,01109.7871,E,1,8,1.22,547.1,M,47.7,M,,*53
$GPGSA,A,3,09,08,05,26,13,02,07,10,,,,,1.46,1.22,0.81*0F
$GPVTG,138.93,T,,M,0.43,N,0.80,K,A*32
$SMGPS,1.1 m,+0.72 m/s,5.38 VRx,0.01 km,8 m,102.3 °,1:-- (  0.0 km/h)*EF
$SMGPS2,-0.74 X,-0.03 Y,+1.08 Z,479 ENL,0 us*48
$GPRMC,142105.100,A,4752.0376,N,01109.7872,E,1.41,138.93,180214,,,A*63
$GPGGA,142105.100,4752.0376,N,01109.7872,E,1,8,1.22,547.1,M,47.7,M,,*51
$GPGSA,A,3,09,08,05,26,13,02,07,10,,,,,1.46,1.22,0.81*0F
$GPVTG,138.93,T,,M,0.45,N,0.84,K,A*30
