$GPSSETUP,5EAC,3,1,1,0,0,0,0,0,0,1,5,0,0,0,0,1C,13,FA,82,1F4,1C2,32,64,7C,64,7D0,5,0,0,A,0,0,0,0,0,0,3,4,10,5,6,10,10,10,10,10,10,10,10,10,10,0,76,0,0,0,0,0,0,0,0,0,0,0,0,0,0,0,0,0,0,0,0,0,0,0,0,0,0,0,0,0,0,0,0,0,0,0,0,0,0,0,20,C8,29A9*74
$GPRMC,124316.839,A,4838.4737,N,00859.0958,E,0.88,146.52,020517,,,A*6A
$GPGGA,124316.839,4838.4737,N,00859.0958,E,1,8,0.95,483.1,M,48.0,M,,*5B
$GPGSA,A,3,24,25,14,12,06,29,19,32,,,,,1.27,0.95,0.84*05
$GPVTG,146.52,T,,M,0.87,N,1.61,K,A*30
$MLINK,0: 5.7 V,1: 100 % LQI,3: -2.0 m/s,4: 2.0 km/h,5: 0 m,6: 0 m*0F
$SMGPS,-0.2 m,+0.09 m/s,5.61 VRx,0.000 km,0 m,0.0 °,1:-- (  0.0 km/h)*F9
$SMGPS2,+0.37 X,-0.21 Y,+0.93 Z,0 ENL,0 us*40
$GPRMC,124317.840,A,4838.4737,N,00859.0966,E,0.77,147.16,020517,,,A*69
$GPGGA,124317.840,4838.4737,N,00859.0966,E,1,8,0.95,483.4,M,48.0,M,,*5C
$GPGSA,A,3,24,25,14,12,06,29,19,32,,,,,1.27,0.95,0.84*05
$GPVTG,147.16,T,,M,0.77,N,1.44,K,A*39
$MLINK,0: 5.7 V,1: 100 % LQI,3: 2.0 m/s,4: 1.6 km/h,5: 0 m,6: 0 m*27
$SMGPS,0.1 m,+0.00 m/s,5.61 VRx,0.000 km,0 m,0.0 °,1:-- (  0.0 km/h)*DE
$SMGPS2,+0.37 X,-0.21 Y,+0.93 Z,0 ENL,0 us*40
$GPRMC,124318.842,A,4838.4741,N,00859.0971,E,0.61,147.16,020517,,,A*64
$GPGGA,124318.842,4838.4741,N,00859.0971,E,1,9,0.87,482.9,M,48.0,M,,*58
$GPGSA,A,3,24,25,14,12,06,29,19,02,32,,,,1.21,0.87,0.84*02
$GPVTG,147.16,T,,M,0.58,N,1.08,K,A*3C
$MLINK,0: 5.7 V,1: 100 % LQI,3: -2.0 m/s,4: 1.4 km/h,5: 0 m,6: 5 m*0D
$SMGPS,-0.4 m,-0.16 m/s,5.61 VRx,0.000 km,6 m,125.5 °,1:-- (  0.0 km/h)*F2
$SMGPS2,+0.37 X,-0.21 Y,+0.93 Z,0 ENL,0 us*40
$GPRMC,124319.836,A,4838.4737,N,00859.0944,E,0.48,147.16,020517,,,A*6A
$GPGGA,124319.836,4838.4737,N,00859.0944,E,1,9,0.87,483.5,M,48.0,M,,*50
$GPGSA,A,3,24,25,14,12,06,29,19,02,32,,,,1.21,0.87,0.84*02
$GPVTG,147.16,T,,M,0.44,N,0.81,K,A*31
$MLINK,0: 5.7 V,1: 100 % LQI,3: 2.0 m/s,4: 1.1 km/h,5: 0 m,6: 6 m*26
$SMGPS,0.2 m,-0.03 m/s,5.60 VRx,0.000 km,7 m,120.6 °,1:-- (  0.0 km/h)*DB
$SMGPS2,+0.37 X,-0.21 Y,+0.93 Z,0 ENL,0 us*40
$GPRMC,124321.000,A,4838.4736,N,00859.0942,E,0.52,147.16,020517,,,A*60
$GPGGA,124321.000,4838.4736,N,00859.0942,E,1,9,0.87,482.7,M,48.0,M,,*52
$GPGSA,A,3,24,25,14,12,06,29,19,02,32,,,,1.21,0.87,0.84*02
$GPVTG,147.16,T,,M,0.45,N,0.84,K,A*35
$MLINK,0: 5.7 V,1: 100 % LQI,3: -2.0 m/s,4: 0.8 km/h,5: 0 m,6: 6 m*03
$SMGPS,-0.6 m,-0.11 m/s,5.61 VRx,0.000 km,7 m,111.8 °,1:-- (  0.0 km/h)*FC
$SMGPS2,+0.35 X,-0.26 Y,+0.92 Z,0 ENL,0 us*44
$GPRMC,124322.000,A,4838.4734,N,00859.0942,E,0.52,147.16,020517,,,A*61
$GPGGA,124322.000,4838.4734,N,00859.0942,E,1,9,0.87,483.8,M,48.0,M,,*5D
$GPGSA,A,3,24,25,14,12,06,29,19,02,32,,,,1.21,0.87,0.84*02
$GPVTG,147.16,T,,M,0.32,N,0.59,K,A*35
$MLINK,0: 5.7 V,1: 100 % LQI,3: 0.0 m/s,4: 0.9 km/h,5: 0 m,6: 4 m*2F
$SMGPS,0.5 m,-0.01 m/s,5.61 VRx,0.000 km,5 m,137.7 °,1:-- (  0.0 km/h)*DA
$SMGPS2,+0.33 X,-0.32 Y,+0.92 Z,0 ENL,0 us*47
$GPRMC,124323.000,A,4838.4730,N,00859.0931,E,0.28,147.16,020517,,,A*6D
$GPGGA,124323.000,4838.4730,N,00859.0931,E,1,9,0.87,483.7,M,48.0,M,,*53
$GPGSA,A,3,24,25,14,12,06,29,19,02,32,,,,1.21,0.87,0.84*02
$GPVTG,147.16,T,,M,0.05,N,0.10,K,A*3C
$MLINK,0: 5.7 V,1: 100 % LQI,3: 0.0 m/s,4: 0.9 km/h,5: 0 m,6: 4 m*2F
$SMGPS,0.4 m,+0.37 m/s,5.61 VRx,0.000 km,4 m,140.4 °,1:-- (  0.0 km/h)*DA
$SMGPS2,+0.33 X,-0.31 Y,+0.91 Z,0 ENL,0 us*47
$GPRMC,124324.000,A,4838.4727,N,00859.0926,E,0.14,147.16,020517,,,A*65
$GPGGA,124324.000,4838.4727,N,00859.0926,E,1,9,0.87,483.3,M,48.0,M,,*50
$GPGSA,A,3,24,25,14,12,06,29,19,02,32,,,,1.21,0.87,0.84*02
$GPVTG,147.16,T,,M,0.14,N,0.26,K,A*39
$MLINK,0: 5.7 V,1: 100 % LQI,3: 0.0 m/s,4: 0.5 km/h,5: 0 m,6: 4 m*23
$SMGPS,0.0 m,-0.02 m/s,5.60 VRx,0.000 km,4 m,140.4 °,1:-- (  0.0 km/h)*DF
$SMGPS2,+0.33 X,-0.31 Y,+0.92 Z,0 ENL,0 us*44
$GPRMC,124325.000,A,4838.4727,N,00859.0923,E,0.17,147.16,020517,,,A*62
$GPGGA,124325.000,4838.4727,N,00859.0923,E,1,9,0.87,483.2,M,48.0,M,,*55
$GPGSA,A,3,24,25,14,12,06,29,19,02,32,,,,1.21,0.87,0.84*02
$GPVTG,147.16,T,,M,0.15,N,0.28,K,A*36
$MLINK,0: 5.6 V,1: 100 % LQI,3: 0.0 m/s,4: 0.2 km/h,5: 0 m,6: 4 m*25
$SMGPS,-0.1 m,-0.21 m/s,5.61 VRx,0.000 km,4 m,161.7 °,1:-- (  0.0 km/h)*F3
$SMGPS2,+0.35 X,-0.30 Y,+0.93 Z,10 ENL,0 us*73
$GPRMC,124326.000,A,4838.4725,N,00859.0921,E,0.29,147.16,020517,,,A*6C
$GPGGA,124326.000,4838.4725,N,00859.0921,E,1,9,0.87,483.4,M,48.0,M,,*50
$GPGSA,A,3,24,25,14,12,06,29,19,02,32,,,,1.21,0.87,0.84*02
$GPVTG,147.16,T,,M,0.29,N,0.53,K,A*35
$MLINK,0: 5.7 V,1: 100 % LQI,3: 0.0 m/s,4: 0.3 km/h,5: 0 m,6: 5 m*24
$SMGPS,0.1 m,+0.13 m/s,5.60 VRx,0.000 km,5 m,170.6 °,1:-- (  0.0 km/h)*D8
$SMGPS2,+0.26 X,-0.25 Y,+0.98 Z,0 ENL,0 us*4F
$GPRMC,124327.000,A,4838.4723,N,00859.0919,E,0.52,147.16,020517,,,A*6C
$GPGGA,124327.000,4838.4723,N,00859.0919,E,1,9,0.87,483.7,M,48.0,M,,*5F
$GPGSA,A,3,24,25,14,12,06,29,19,02,32,,,,1.21,0.87,0.84*02
$GPVTG,147.16,T,,M,0.47,N,0.87,K,A*34
$MLINK,0: 5.7 V,1: 100 % LQI,3: 0.0 m/s,4: 0.5 km/h,5: 0 m,6: 5 m*22
$SMGPS,0.4 m,+0.10 m/s,5.60 VRx,0.000 km,5 m,174.5 °,1:-- (  0.0 km/h)*D9
$SMGPS2,+0.10 X,-0.01 Y,+1.03 Z,2 ENL,0 us*4D
$GPRMC,124328.000,A,4838.4724,N,00859.0916,E,0.72,147.16,020517,,,A*69
$GPGGA,124328.000,4838.4724,N,00859.0916,E,1,9,0.87,484.2,M,48.0,M,,*5A
$GPGSA,A,3,24,25,14,12,06,29,19,02,32,,,,1.21,0.87,0.84*02
$GPVTG,147.16,T,,M,0.56,N,1.04,K,A*3E
$MLINK,0: 5.7 V,1: 100 % LQI,3: 0.0 m/s,4: 0.9 km/h,5: 0 m,6: 5 m*2E
$SMGPS,0.9 m,+0.29 m/s,5.60 VRx,0.000 km,5 m,177.6 °,1:-- (  0.0 km/h)*DE
$SMGPS2,+0.23 X,+0.04 Y,+0.90 Z,0 ENL,0 us*47
$GPRMC,124329.000,A,4838.4723,N,00859.0914,E,0.79,147.16,020517,,,A*66
$GPGGA,124329.000,4838.4723,N,00859.0914,E,1,9,0.87,484.7,M,48.0,M,,*5B
$GPGSA,A,3,24,25,14,12,06,29,19,02,32,,,,1.21,0.87,0.84*02
$GPVTG,147.16,T,,M,0.52,N,0.96,K,A*30
$MLINK,0: 5.7 V,1: 100 % LQI,3: 0.0 m/s,4: 1.3 km/h,5: 0 m,6: 6 m*26
$SMGPS,1.4 m,+0.43 m/s,5.61 VRx,0.000 km,6 m,180.0 °,1:-- (  0.0 km/h)*D2
$SMGPS2,+0.31 X,+0.06 Y,+0.96 Z,0 ENL,0 us*40
$GPRMC,124330.000,A,4838.4722,N,00859.0915,E,0.49,147.16,020517,,,A*6D
$GPGGA,124330.000,4838.4722,N,00859.0915,E,1,9,0.87,484.4,M,48.0,M,,*50
$GPGSA,A,3,24,25,14,12,06,29,19,02,32,,,,1.21,0.87,0.84*02
$GPVTG,147.16,T,,M,0.41,N,0.77,K,A*3D
$MLINK,0: 5.6 V,1: 100 % LQI,3: 0.0 m/s,4: 1.4 km/h,5: 1 m,6: 6 m*21
$SMGPS,1.1 m,+0.12 m/s,5.59 VRx,0.000 km,7 m,183.2 °,1:-- (  0.0 km/h)*D8
$SMGPS2,+0.31 X,-0.09 Y,+0.97 Z,0 ENL,0 us*48
$GPRMC,124331.000,A,4838.4720,N,00859.0917,E,0.36,147.16,020517,,,A*64
$GPGGA,124331.000,4838.4720,N,00859.0917,E,1,9,0.87,484.4,M,48.0,M,,*51
$GPGSA,A,3,24,25,14,12,06,29,19,02,32,,,,1.21,0.87,0.84*02
$GPVTG,147.16,T,,M,0.30,N,0.56,K,A*38
$MLINK,0: 5.5 V,1: 100 % LQI,3: 0.0 m/s,4: 0.9 km/h,5: 1 m,6: 6 m*2E
$SMGPS,1.1 m,-0.02 m/s,5.59 VRx,0.000 km,6 m,185.7 °,1:-- (  0.0 km/h)*DD
$SMGPS2,+0.35 X,-0.21 Y,+0.94 Z,0 ENL,0 us*45
$GPRMC,124332.000,A,4838.4721,N,00859.0919,E,0.24,147.16,020517,,,A*6B
$GPGGA,124332.000,4838.4721,N,00859.0919,E,1,9,0.87,484.3,M,48.0,M,,*5A
$GPGSA,A,3,24,25,14,12,06,29,19,02,32,,,,1.21,0.87,0.84*02
$GPVTG,147.16,T,,M,0.19,N,0.35,K,A*36
$MLINK,0: 5.5 V,1: 100 % LQI,3: 0.0 m/s,4: 0.6 km/h,5: 1 m,6: 6 m*21
$SMGPS,1.0 m,+0.02 m/s,5.60 VRx,0.000 km,6 m,184.4 °,1:-- (  0.0 km/h)*D2
$SMGPS2,+0.26 X,-0.11 Y,+0.97 Z,0 ENL,0 us*47
$GPRMC,124333.000,A,4838.4719,N,00859.0922,E,0.33,147.16,020517,,,A*6F
$GPGGA,124333.000,4838.4719,N,00859.0922,E,1,9,0.87,483.6,M,48.0,M,,*5A
$GPGSA,A,3,24,25,14,12,06,29,19,02,32,,,,1.21,0.87,0.84*02
$GPVTG,147.16,T,,M,0.20,N,0.38,K,A*31
$MLINK,0: 5.7 V,1: 100 % LQI,3: 0.0 m/s,4: 0.4 km/h,5: 0 m,6: 6 m*20
$SMGPS,0.3 m,-0.03 m/s,5.60 VRx,0.000 km,6 m,182.5 °,1:-- (  0.0 km/h)*D0
$SMGPS2,+0.26 X,-0.19 Y,+0.97 Z,0 ENL,0 us*4F
$GPRMC,124334.000,A,4838.4719,N,00859.0924,E,0.38,147.16,020517,,,A*65
$GPGGA,124334.000,4838.4719,N,00859.0924,E,1,9,0.87,483.4,M,48.0,M,,*59
$GPGSA,A,3,24,25,14,12,06,29,19,02,32,,,,1.21,0.87,0.84*02
$GPVTG,147.16,T,,M,0.17,N,0.32,K,A*3F
$MLINK,0: 5.6 V,1: 100 % LQI,3: 0.0 m/s,4: 0.6 km/h,5: 0 m,6: 6 m*23
$SMGPS,0.1 m,-0.06 m/s,5.59 VRx,0.000 km,6 m,180.0 °,1:-- (  0.0 km/h)*DA
$SMGPS2,+0.29 X,-0.24 Y,+0.95 Z,0 ENL,0 us*4C
$GPRMC,124335.000,A,4838.4721,N,00859.0925,E,0.29,147.16,020517,,,A*6E
$GPGGA,124335.000,4838.4721,N,00859.0925,E,1,9,0.87,483.4,M,48.0,M,,*52
$GPGSA,A,3,24,25,14,12,06,29,19,02,32,,,,1.21,0.87,0.84*02
$GPVTG,147.16,T,,M,0.22,N,0.41,K,A*3D
$MLINK,0: 5.7 V,1: 100 % LQI,3: 0.0 m/s,4: 0.6 km/h,5: 0 m,6: 7 m*23
$SMGPS,0.1 m,+0.00 m/s,5.60 VRx,0.000 km,7 m,177.2 °,1:-- (  0.0 km/h)*DB
$SMGPS2,+0.29 X,-0.28 Y,+0.94 Z,0 ENL,0 us*41
$GPRMC,124336.000,A,4838.4722,N,00859.0925,E,0.37,147.16,020517,,,A*61
$GPGGA,124336.000,4838.4722,N,00859.0925,E,1,9,0.87,483.2,M,48.0,M,,*54
$GPGSA,A,3,24,25,14,12,06,29,19,02,32,,,,1.21,0.87,0.84*02
$GPVTG,147.16,T,,M,0.22,N,0.41,K,A*3D
$MLINK,0: 5.7 V,1: 100 % LQI,3: 0.0 m/s,4: 0.5 km/h,5: 0 m,6: 7 m*20
$SMGPS,-0.1 m,+0.08 m/s,5.59 VRx,0.000 km,7 m,175.0 °,1:-- (  0.0 km/h)*F4
$SMGPS2,+0.27 X,-0.31 Y,+0.93 Z,0 ENL,0 us*40
$GPRMC,124337.000,A,4838.4722,N,00859.0925,E,0.22,147.16,020517,,,A*64
$GPGGA,124337.000,4838.4722,N,00859.0925,E,1,9,0.88,483.3,M,48.0,M,,*5B
$GPGSA,A,3,24,25,14,12,06,29,19,02,32,,,,1.76,0.88,1.52*05
$GPVTG,147.16,T,,M,0.17,N,0.31,K,A*3C
$MLINK,0: 5.7 V,1: 100 % LQI,3: 0.0 m/s,4: 0.6 km/h,5: 0 m,6: 6 m*22
$SMGPS,0.0 m,+0.01 m/s,5.60 VRx,0.000 km,6 m,173.1 °,1:-- (  0.0 km/h)*DD
$SMGPS2,+0.21 X,-0.24 Y,+0.98 Z,0 ENL,0 us*49
$GPRMC,124338.000,A,4838.4723,N,00859.0927,E,0.22,147.16,020517,,,A*68
$GPGGA,124338.000,4838.4723,N,00859.0927,E,1,9,0.88,483.7,M,48.0,M,,*53
$GPGSA,A,3,24,25,14,12,06,29,19,02,32,,,,1.76,0.88,1.52*05
$GPVTG,147.16,T,,M,0.21,N,0.38,K,A*30
$MLINK,0: 5.7 V,1: 100 % LQI,3: 0.0 m/s,4: 0.3 km/h,5: 0 m,6: 6 m*27
$SMGPS,0.4 m,+0.27 m/s,5.60 VRx,0.000 km,6 m,173.1 °,1:-- (  0.0 km/h)*DD
$SMGPS2,+0.12 X,+0.00 Y,+0.99 Z,0 ENL,0 us*48
$GPRMC,124339.000,A,4838.4723,N,00859.0928,E,0.28,147.16,020517,,,A*6C
$GPGGA,124339.000,4838.4723,N,00859.0928,E,1,9,0.88,484.0,M,48.0,M,,*5D
$GPGSA,A,3,24,25,14,12,06,29,19,02,32,,,,1.76,0.88,1.52*05
$GPVTG,147.16,T,,M,0.13,N,0.23,K,A*3B
$MLINK,0: 5.6 V,1: 100 % LQI,3: 0.0 m/s,4: 0.4 km/h,5: 0 m,6: 6 m*21
$SMGPS,0.7 m,+0.19 m/s,5.60 VRx,0.000 km,7 m,173.1 °,1:-- (  0.0 km/h)*D2
$SMGPS2,+0.10 X,+0.04 Y,+0.98 Z,0 ENL,0 us*4F
$GPRMC,124340.000,A,4838.4720,N,00859.0929,E,0.64,178.57,020517,,,A*61
$GPGGA,124340.000,4838.4720,N,00859.0929,E,1,9,0.87,484.1,M,48.0,M,,*5F
$GPGSA,A,3,24,25,14,12,06,29,19,02,32,,,,1.21,0.87,0.84*02
$GPVTG,178.57,T,,M,0.59,N,1.09,K,A*35
$MLINK,0: 5.7 V,1: 100 % LQI,3: 0.0 m/s,4: 0.5 km/h,5: 0 m,6: 6 m*21
$SMGPS,0.8 m,+0.12 m/s,5.60 VRx,0.000 km,7 m,171.2 °,1:-- (  0.0 km/h)*D7
$SMGPS2,+0.01 X,+0.09 Y,+1.01 Z,0 ENL,0 us*43
$GPRMC,124341.000,A,4838.4718,N,00859.0928,E,0.67,196.52,020517,,,A*6C
$GPGGA,124341.000,4838.4718,N,00859.0928,E,1,9,0.87,484.0,M,48.0,M,,*55
$GPGSA,A,3,24,25,14,12,06,29,19,02,32,,,,1.21,0.87,0.84*02
$GPVTG,196.52,T,,M,0.66,N,1.22,K,A*35
$MLINK,0: 5.7 V,1: 100 % LQI,3: 0.0 m/s,4: 1.1 km/h,5: 0 m,6: 6 m*24
$SMGPS,0.7 m,+0.10 m/s,5.60 VRx,0.000 km,7 m,170.6 °,1:-- (  0.0 km/h)*DF
$SMGPS2,+0.08 X,+0.03 Y,+1.02 Z,0 ENL,0 us*43
$GPRMC,124342.000,A,4838.4715,N,00859.0926,E,1.04,209.27,020517,,,A*6F
$GPGGA,124342.000,4838.4715,N,00859.0926,E,1,9,0.87,484.1,M,48.0,M,,*54
$GPGSA,A,3,24,25,14,12,06,29,19,02,32,,,,1.21,0.87,0.84*02
$GPVTG,209.27,T,,M,1.03,N,1.92,K,A*3B
$MLINK,0: 5.7 V,1: 100 % LQI,3: 0.0 m/s,4: 1.2 km/h,5: 0 m,6: 6 m*27
$SMGPS,0.8 m,+0.04 m/s,5.60 VRx,0.000 km,7 m,169.4 °,1:-- (  0.0 km/h)*DF
$SMGPS2,+0.06 X,-0.02 Y,+1.01 Z,0 ENL,0 us*49
$GPRMC,124343.000,A,4838.4711,N,00859.0923,E,1.20,212.38,020517,,,A*6D
$GPGGA,124343.000,4838.4711,N,00859.0923,E,1,9,0.87,484.1,M,48.0,M,,*54
$GPGSA,A,3,24,25,14,12,06,29,19,02,32,,,,1.21,0.87,0.84*02
$GPVTG,212.38,T,,M,1.20,N,2.22,K,A*36
$MLINK,0: 5.7 V,1: 100 % LQI,3: 0.0 m/s,4: 1.9 km/h,5: 0 m,6: 7 m*2D
$SMGPS,0.8 m,+0.16 m/s,5.60 VRx,0.000 km,8 m,171.7 °,1:-- (  0.0 km/h)*D9
$SMGPS2,+0.08 X,-0.04 Y,+0.99 Z,0 ENL,0 us*41
$GPRMC,124344.000,A,4838.4708,N,00859.0921,E,1.18,210.56,020517,,,A*61
$GPGGA,124344.000,4838.4708,N,00859.0921,E,1,9,0.87,484.1,M,48.0,M,,*59
$GPGSA,A,3,24,25,14,12,06,29,19,02,32,,,,1.21,0.87,0.84*02
$GPVTG,210.56,T,,M,1.18,N,2.18,K,A*3E
$MLINK,0: 5.7 V,1: 100 % LQI,3: 0.0 m/s,4: 2.2 km/h,5: 0 m,6: 7 m*25
$SMGPS,0.8 m,+0.02 m/s,5.60 VRx,0.001 km,7 m,173.3 °,1:-- (  0.0 km/h)*D4
$SMGPS2,+0.06 X,-0.15 Y,+1.03 Z,0 ENL,0 us*4D
$GPRMC,124345.000,A,4838.4704,N,00859.0919,E,1.22,203.90,020517,,,A*66
$GPGGA,124345.000,4838.4704,N,00859.0919,E,1,9,0.87,484.2,M,48.0,M,,*5C
$GPGSA,A,3,24,25,14,12,06,29,19,02,32,,,,1.21,0.87,0.84*02
$GPVTG,203.90,T,,M,1.22,N,2.26,K,A*32
$MLINK,0: 5.7 V,1: 100 % LQI,3: 0.0 m/s,4: 2.1 km/h,5: 0 m,6: 8 m*29
$SMGPS,0.9 m,-0.02 m/s,5.60 VRx,0.002 km,8 m,176.5 °,1:-- (  0.0 km/h)*DC
$SMGPS2,+0.01 X,-0.15 Y,+0.99 Z,0 ENL,0 us*48
$GPRMC,124346.000,A,4838.4700,N,00859.0917,E,1.27,199.97,020517,,,A*6D
$GPGGA,124346.000,4838.4700,N,00859.0917,E,1,9,0.87,483.7,M,48.0,M,,*57
$GPGSA,A,3,24,25,14,12,06,29,19,02,32,,,,1.21,0.87,0.84*02
$GPVTG,199.97,T,,M,1.26,N,2.33,K,A*35
$MLINK,0: 5.6 V,1: 100 % LQI,3: 0.0 m/s,4: 2.2 km/h,5: 0 m,6: 9 m*2A
$SMGPS,0.4 m,+0.00 m/s,5.60 VRx,0.003 km,9 m,178.6 °,1:-- (  0.0 km/h)*D8
$SMGPS2,+0.08 X,-0.09 Y,+0.99 Z,0 ENL,0 us*4C
$GPRMC,124347.000,A,4838.4696,N,00859.0916,E,1.56,196.71,020517,,,A*62
$GPGGA,124347.000,4838.4696,N,00859.0916,E,1,9,0.87,483.3,M,48.0,M,,*5D
$GPGSA,A,3,24,25,14,12,06,29,19,02,32,,,,1.21,0.87,0.84*02
$GPVTG,196.71,T,,M,1.52,N,2.82,K,A*3B
$MLINK,0: 5.6 V,1: 100 % LQI,3: 0.0 m/s,4: 2.3 km/h,5: 0 m,6: 9 m*2B
$SMGPS,0.0 m,+0.08 m/s,5.60 VRx,0.003 km,10 m,180.0 °,1:-- (  0.0 km/h)*ED
$SMGPS2,+0.06 X,-0.05 Y,+1.01 Z,0 ENL,0 us*4E
$GPRMC,124348.000,A,4838.4690,N,00859.0914,E,1.88,191.93,020517,,,A*61
$GPGGA,124348.000,4838.4690,N,00859.0914,E,1,9,0.87,483.6,M,48.0,M,,*53
$GPGSA,A,3,24,25,14,12,06,29,19,02,32,,,,1.21,0.87,0.84*02
$GPVTG,191.93,T,,M,1.88,N,3.48,K,A*30
$MLINK,0: 5.7 V,1: 100 % LQI,3: 0.0 m/s,4: 2.8 km/h,5: 0 m,6: 9 m*21
$SMGPS,0.3 m,+0.09 m/s,5.60 VRx,0.004 km,10 m,181.6 °,1:-- (  0.0 km/h)*EF
$SMGPS2,-0.00 X,+0.01 Y,+1.03 Z,0 ENL,0 us*4E
$GPRMC,124349.000,A,4838.4686,N,00859.0912,E,1.81,204.12,020517,,,A*6E
$GPGGA,124349.000,4838.4686,N,00859.0912,E,1,9,0.87,483.6,M,48.0,M,,*53
$GPGSA,A,3,24,25,14,12,06,29,19,02,32,,,,1.21,0.87,0.84*02
$GPVTG,204.12,T,,M,1.81,N,3.35,K,A*35
$MLINK,0: 5.7 V,1: 100 % LQI,3: 0.0 m/s,4: 3.4 km/h,5: 0 m,6: 11 m*15
$SMGPS,0.3 m,+0.21 m/s,5.60 VRx,0.005 km,11 m,181.9 °,1:-- (  0.0 km/h)*EA
$SMGPS2,+0.04 X,+0.03 Y,+0.99 Z,0 ENL,0 us*4C
$GPRMC,124350.000,A,4838.4683,N,00859.0910,E,1.32,206.75,020517,,,A*6A
$GPGGA,124350.000,4838.4683,N,00859.0910,E,1,9,0.87,483.3,M,48.0,M,,*59
$GPGSA,A,3,24,25,14,12,06,29,19,02,32,,,,1.21,0.87,0.84*02
$GPVTG,206.75,T,,M,1.30,N,2.41,K,A*3E
$MLINK,0: 5.7 V,1: 100 % LQI,3: 0.0 m/s,4: 3.3 km/h,5: 0 m,6: 11 m*12
$SMGPS,0.0 m,-0.05 m/s,5.60 VRx,0.006 km,12 m,183.2 °,1:-- (  0.0 km/h)*E0
$SMGPS2,+0.15 X,+0.02 Y,+1.00 Z,0 ENL,0 us*4C
$GPRMC,124351.000,A,4838.4683,N,00859.0910,E,0.71,206.75,020517,,,A*6D
$GPGGA,124351.000,4838.4683,N,00859.0910,E,1,9,0.87,482.8,M,48.0,M,,*52
$GPGSA,A,3,24,25,14,12,06,29,19,02,32,,,,1.21,0.87,0.84*02
$GPVTG,206.75,T,,M,0.57,N,1.05,K,A*3D
$MLINK,0: 5.7 V,1: 100 % LQI,3: 0.0 m/s,4: 2.4 km/h,5: 0 m,6: 12 m*17
$SMGPS,-0.5 m,-0.18 m/s,5.60 VRx,0.007 km,13 m,184.2 °,1:-- (  0.0 km/h)*C3
$SMGPS2,+0.23 X,+0.19 Y,+0.94 Z,1 ENL,0 us*4E
$GPRMC,124352.000,A,4838.4683,N,00859.0910,E,0.37,206.75,020517,,,A*6C
$GPGGA,124352.000,4838.4683,N,00859.0910,E,1,9,0.87,482.7,M,48.0,M,,*5E
$GPGSA,A,3,24,25,14,12,06,29,19,02,32,,,,1.21,0.87,0.84*02
$GPVTG,206.75,T,,M,0.13,N,0.23,K,A*38
$MLINK,0: 5.7 V,1: 100 % LQI,3: 0.0 m/s,4: 1.3 km/h,5: 0 m,6: 13 m*12
$SMGPS,-0.6 m,-0.15 m/s,5.60 VRx,0.007 km,14 m,184.7 °,1:-- (  0.0 km/h)*CF
$SMGPS2,+0.29 X,+0.26 Y,+0.93 Z,4 ENL,0 us*4A
$GPRMC,124353.000,A,4838.4683,N,00859.0909,E,0.23,206.75,020517,,,A*60
$GPGGA,124353.000,4838.4683,N,00859.0909,E,1,9,0.87,482.9,M,48.0,M,,*59
$GPGSA,A,3,24,25,14,12,06,29,19,02,32,,,,1.21,0.87,0.84*02
$GPVTG,206.75,T,,M,0.16,N,0.30,K,A*3F
$MLINK,0: 5.6 V,1: 100 % LQI,3: 0.0 m/s,4: 0.6 km/h,5: 0 m,6: 13 m*17
$SMGPS,-0.4 m,-0.03 m/s,5.60 VRx,0.007 km,14 m,184.7 °,1:-- (  0.0 km/h)*CA
$SMGPS2,+0.24 X,+0.21 Y,+0.95 Z,0 ENL,0 us*42
$GPRMC,124354.000,A,4838.4682,N,00859.0907,E,0.27,206.75,020517,,,A*6C
$GPGGA,124354.000,4838.4682,N,00859.0907,E,1,9,0.87,482.8,M,48.0,M,,*50
$GPGSA,A,3,24,25,14,12,06,29,19,02,32,,,,1.21,0.87,0.84*02
$GPVTG,206.75,T,,M,0.20,N,0.37,K,A*3D
$MLINK,0: 5.7 V,1: 100 % LQI,3: 0.0 m/s,4: 0.4 km/h,5: 0 m,6: 13 m*14
$SMGPS,-0.5 m,-0.02 m/s,5.60 VRx,0.007 km,14 m,184.7 °,1:-- (  0.0 km/h)*CA
$SMGPS2,+0.18 X,+0.32 Y,+0.93 Z,0 ENL,0 us*49
$GPRMC,124355.000,A,4838.4682,N,00859.0906,E,0.07,206.75,020517,,,A*6E
$GPGGA,124355.000,4838.4682,N,00859.0906,E,1,9,0.87,482.9,M,48.0,M,,*51
$GPGSA,A,3,24,25,14,12,06,29,19,02,32,,,,1.21,0.87,0.84*02
$GPVTG,206.75,T,,M,0.02,N,0.03,K,A*3A
$MLINK,0: 5.7 V,1: 100 % LQI,3: 0.0 m/s,4: 0.4 km/h,5: 0 m,6: 13 m*14
$SMGPS,-0.4 m,-0.10 m/s,5.60 VRx,0.007 km,14 m,185.3 °,1:-- (  0.0 km/h)*CD
$SMGPS2,+0.13 X,+0.22 Y,+0.97 Z,0 ENL,0 us*47
$GPRMC,124356.000,A,4838.4682,N,00859.0906,E,0.37,206.75,020517,,,A*6E
$GPGGA,124356.000,4838.4682,N,00859.0906,E,1,9,0.88,483.4,M,48.0,M,,*51
$GPGSA,A,3,24,25,14,12,06,29,19,02,32,,,,1.76,0.88,1.53*04
$GPVTG,206.75,T,,M,0.31,N,0.58,K,A*34
$MLINK,0: 5.7 V,1: 100 % LQI,3: 0.0 m/s,4: 0.1 km/h,5: 0 m,6: 13 m*11
$SMGPS,0.1 m,-0.04 m/s,5.60 VRx,0.007 km,14 m,186.2 °,1:-- (  0.0 km/h)*E2
$SMGPS2,+0.26 X,+0.22 Y,+0.95 Z,0 ENL,0 us*43
$GPRMC,124357.000,A,4838.4682,N,00859.0907,E,0.22,206.75,020517,,,A*6A
$GPGGA,124357.000,4838.4682,N,00859.0907,E,1,9,0.87,483.4,M,48.0,M,,*5E
$GPGSA,A,3,24,25,14,12,06,29,19,02,32,,,,1.21,0.87,0.84*02
$GPVTG,206.75,T,,M,0.14,N,0.26,K,A*3A
$MLINK,0: 5.7 V,1: 100 % LQI,3: 0.0 m/s,4: 0.6 km/h,5: 0 m,6: 13 m*16
$SMGPS,0.1 m,+0.11 m/s,5.60 VRx,0.007 km,14 m,186.8 °,1:-- (  0.0 km/h)*EA
$SMGPS2,+0.15 X,+0.22 Y,+0.96 Z,0 ENL,0 us*40
$GPRMC,124358.000,A,4838.4682,N,00859.0908,E,0.12,206.75,020517,,,A*69
$GPGGA,124358.000,4838.4682,N,00859.0908,E,1,9,0.87,483.3,M,48.0,M,,*59
$GPGSA,A,3,24,25,14,12,06,29,19,02,32,,,,1.21,0.87,0.84*02
$GPVTG,206.75,T,,M,0.10,N,0.18,K,A*33
$MLINK,0: 5.7 V,1: 100 % LQI,3: 0.0 m/s,4: 0.4 km/h,5: 0 m,6: 13 m*14
$SMGPS,-0.0 m,+0.04 m/s,5.60 VRx,0.007 km,14 m,186.8 °,1:-- (  0.0 km/h)*C2
$SMGPS2,+0.12 X,+0.29 Y,+0.96 Z,0 ENL,0 us*4C
$GPRMC,124359.000,A,4838.4683,N,00859.0907,E,0.22,206.75,020517,,,A*65
$GPGGA,124359.000,4838.4683,N,00859.0907,E,1,9,0.87,483.3,M,48.0,M,,*56
$GPGSA,A,3,24,25,14,12,06,29,19,02,32,,,,1.21,0.87,0.84*02
$GPVTG,206.75,T,,M,0.21,N,0.40,K,A*3C
$MLINK,0: 5.7 V,1: 100 % LQI,3: 0.0 m/s,4: 0.2 km/h,5: 0 m,6: 13 m*12
$SMGPS,0.0 m,+0.05 m/s,5.60 VRx,0.007 km,14 m,186.2 °,1:-- (  0.0 km/h)*E4
$SMGPS2,+0.09 X,+0.25 Y,+0.97 Z,0 ENL,0 us*4B
$GPRMC,124400.000,A,4838.4683,N,00859.0907,E,0.15,206.75,020517,,,A*6A
$GPGGA,124400.000,4838.4683,N,00859.0907,E,1,9,0.87,483.3,M,48.0,M,,*5D
$GPGSA,A,3,24,25,14,12,06,29,19,02,32,,,,1.21,0.87,0.84*02
$GPVTG,206.75,T,,M,0.15,N,0.29,K,A*34
$MLINK,0: 5.6 V,1: 100 % LQI,3: 0.0 m/s,4: 0.4 km/h,5: 0 m,6: 13 m*15
$SMGPS,0.0 m,+0.01 m/s,5.60 VRx,0.007 km,14 m,185.6 °,1:-- (  0.0 km/h)*E7
$SMGPS2,+0.14 X,+0.20 Y,+0.97 Z,0 ENL,0 us*42
$GPRMC,124401.000,A,4838.4683,N,00859.0906,E,0.32,206.75,020517,,,A*6F
$GPGGA,124401.000,4838.4683,N,00859.0906,E,1,10,0.82,483.4,M,48.0,M,,*67
$GPGSA,A,3,24,25,14,12,31,06,29,19,02,32,,,1.14,0.82,0.78*00
$GPVTG,206.75,T,,M,0.31,N,0.57,K,A*3B
$MLINK,0: 5.6 V,1: 100 % LQI,3: 0.0 m/s,4: 0.2 km/h,5: 0 m,6: 13 m*13
$SMGPS,0.1 m,+0.09 m/s,5.60 VRx,0.007 km,14 m,186.2 °,1:-- (  0.0 km/h)*E9
$SMGPS2,+0.13 X,+0.27 Y,+0.96 Z,0 ENL,0 us*43
$GPRMC,124402.000,A,4838.4684,N,00859.0905,E,0.32,206.75,020517,,,A*68
$GPGGA,124402.000,4838.4684,N,00859.0905,E,1,10,0.82,483.5,M,48.0,M,,*61
$GPGSA,A,3,24,25,14,12,31,06,29,19,02,32,,,1.14,0.82,0.78*00
$GPVTG,206.75,T,,M,0.30,N,0.56,K,A*3B
$MLINK,0: 5.7 V,1: 100 % LQI,3: 0.0 m/s,4: 0.5 km/h,5: 0 m,6: 13 m*15
$SMGPS,0.2 m,+0.10 m/s,5.60 VRx,0.007 km,14 m,186.2 °,1:-- (  0.0 km/h)*E2
$SMGPS2,+0.13 X,+0.26 Y,+0.95 Z,0 ENL,0 us*41
$GPRMC,124403.000,A,4838.4684,N,00859.0904,E,0.90,214.06,020517,,,A*67
$GPGGA,124403.000,4838.4684,N,00859.0904,E,1,10,0.82,483.4,M,48.0,M,,*60
$GPGSA,A,3,24,25,14,12,31,06,29,19,02,32,,,1.14,0.82,0.78*00
$GPVTG,214.06,T,,M,0.90,N,1.67,K,A*35
$MLINK,0: 5.7 V,1: 100 % LQI,3: 0.0 m/s,4: 0.5 km/h,5: 0 m,6: 13 m*15
$SMGPS,0.1 m,+0.03 m/s,5.60 VRx,0.007 km,14 m,186.8 °,1:-- (  0.0 km/h)*E9
$SMGPS2,+0.13 X,+0.32 Y,+0.96 Z,2 ENL,0 us*45
$GPRMC,124404.000,A,4838.4685,N,00859.0899,E,1.10,297.25,020517,,,A*67
$GPGGA,124404.000,4838.4685,N,00859.0899,E,1,10,0.82,483.7,M,48.0,M,,*60
$GPGSA,A,3,24,25,14,12,31,06,29,19,02,32,,,1.14,0.82,0.78*00
$GPVTG,297.25,T,,M,1.08,N,2.00,K,A*3D
$MLINK,0: 5.6 V,1: 100 % LQI,3: 0.0 m/s,4: 1.6 km/h,5: 0 m,6: 13 m*16
$SMGPS,0.4 m,+0.04 m/s,5.60 VRx,0.007 km,14 m,187.1 °,1:-- (  0.0 km/h)*E3
$SMGPS2,+0.08 X,+0.18 Y,+0.98 Z,0 ENL,0 us*4B
$GPRMC,124405.000,A,4838.4685,N,00859.0896,E,0.61,297.75,020517,,,A*6B
$GPGGA,124405.000,4838.4685,N,00859.0896,E,1,10,0.82,483.5,M,48.0,M,,*6C
$GPGSA,A,3,24,25,14,12,31,06,29,19,02,32,,,1.14,0.82,0.78*00
$GPVTG,297.75,T,,M,0.61,N,1.13,K,A*37
$MLINK,0: 5.7 V,1: 100 % LQI,3: 0.0 m/s,4: 2.0 km/h,5: 0 m,6: 13 m*12
$SMGPS,0.2 m,+0.06 m/s,5.60 VRx,0.007 km,14 m,187.9 °,1:-- (  0.0 km/h)*EF
$SMGPS2,+0.15 X,+0.10 Y,+1.00 Z,0 ENL,0 us*4F
$GPRMC,124406.000,A,4838.4686,N,00859.0892,E,1.13,297.09,020517,,,A*60
$GPGGA,124406.000,4838.4686,N,00859.0892,E,1,10,0.82,483.6,M,48.0,M,,*6B
$GPGSA,A,3,24,25,14,12,31,06,29,19,02,32,,,1.14,0.82,0.79*01
$GPVTG,297.09,T,,M,1.13,N,2.09,K,A*30
$MLINK,0: 5.7 V,1: 100 % LQI,3: 0.0 m/s,4: 1.1 km/h,5: 0 m,6: 14 m*17
$SMGPS,0.3 m,+0.13 m/s,5.60 VRx,0.007 km,14 m,190.2 °,1:-- (  0.0 km/h)*E7
$SMGPS2,+0.05 X,+0.11 Y,+1.04 Z,0 ENL,0 us*4B
$GPRMC,124407.000,A,4838.4688,N,00859.0889,E,1.10,310.98,020517,,,A*60
$GPGGA,124407.000,4838.4688,N,00859.0889,E,1,10,0.82,484.0,M,48.0,M,,*6F
$GPGSA,A,3,24,25,14,12,31,06,29,19,02,32,,,1.14,0.82,0.78*00
$GPVTG,310.98,T,,M,1.06,N,1.97,K,A*36
$MLINK,0: 5.7 V,1: 100 % LQI,3: 0.0 m/s,4: 2.0 km/h,5: 0 m,6: 14 m*15
$SMGPS,0.7 m,+0.40 m/s,5.60 VRx,0.009 km,14 m,191.7 °,1:-- (  0.0 km/h)*EF
$SMGPS2,+0.05 X,+0.02 Y,+0.96 Z,0 ENL,0 us*43
$GPRMC,124408.000,A,4838.4689,N,00859.0888,E,0.36,310.98,020517,,,A*6A
$GPGGA,124408.000,4838.4689,N,00859.0888,E,1,10,0.82,484.0,M,48.0,M,,*60
$GPGSA,A,3,24,25,14,12,31,06,29,19,02,32,,,1.14,0.82,0.78*00
$GPVTG,310.98,T,,M,0.28,N,0.52,K,A*33
$MLINK,0: 5.7 V,1: 100 % LQI,3: 0.0 m/s,4: 2.0 km/h,5: 0 m,6: 13 m*12
$SMGPS,0.7 m,+0.21 m/s,5.60 VRx,0.009 km,13 m,195.3 °,1:-- (  0.0 km/h)*EF
$SMGPS2,+0.11 X,-0.17 Y,+1.01 Z,0 ENL,0 us*4B
$GPRMC,124409.000,A,4838.4689,N,00859.0889,E,0.31,310.98,020517,,,A*6D
$GPGGA,124409.000,4838.4689,N,00859.0889,E,1,10,0.82,484.1,M,48.0,M,,*61
$GPGSA,A,3,24,25,14,12,31,06,29,19,02,32,,,1.14,0.82,0.78*00
$GPVTG,310.98,T,,M,0.24,N,0.44,K,A*38
$MLINK,0: 5.7 V,1: 100 % LQI,3: 0.0 m/s,4: 0.6 km/h,5: 0 m,6: 13 m*16
$SMGPS,0.8 m,+0.12 m/s,5.60 VRx,0.009 km,13 m,196.5 °,1:-- (  0.0 km/h)*E5
$SMGPS2,-0.05 X,-0.03 Y,+0.99 Z,0 ENL,0 us*4D
$GPRMC,124410.000,A,4838.4689,N,00859.0890,E,0.05,310.98,020517,,,A*6A
$GPGGA,124410.000,4838.4689,N,00859.0890,E,1,10,0.82,483.9,M,48.0,M,,*6E
$GPGSA,A,3,24,25,14,12,31,06,29,19,02,32,,,1.14,0.82,0.78*00
$GPVTG,310.98,T,,M,0.03,N,0.05,K,A*38
$MLINK,0: 5.6 V,1: 100 % LQI,3: 0.0 m/s,4: 0.5 km/h,5: 0 m,6: 13 m*14
$SMGPS,0.6 m,-0.00 m/s,5.60 VRx,0.009 km,13 m,197.1 °,1:-- (  0.0 km/h)*EB
$SMGPS2,+0.03 X,-0.07 Y,+1.00 Z,0 ENL,0 us*48
$GPRMC,124411.000,A,4838.4689,N,00859.0890,E,0.03,310.98,020517,,,A*6D
$GPGGA,124411.000,4838.4689,N,00859.0890,E,1,10,0.82,483.9,M,48.0,M,,*6F
$GPGSA,A,3,24,25,14,12,31,06,29,19,02,32,,,1.14,0.82,0.79*01
$GPVTG,310.98,T,,M,0.03,N,0.06,K,A*3B
$MLINK,0: 5.5 V,1: 100 % LQI,3: 0.0 m/s,4: 0.0 km/h,5: 0 m,6: 13 m*12
$SMGPS,0.6 m,-0.01 m/s,5.60 VRx,0.009 km,13 m,196.5 °,1:-- (  0.0 km/h)*EF
$SMGPS2,+0.01 X,-0.01 Y,+1.02 Z,0 ENL,0 us*4E
$GPRMC,124412.000,A,4838.4689,N,00859.0890,E,0.14,310.98,020517,,,A*68
$GPGGA,124412.000,4838.4689,N,00859.0890,E,1,10,0.82,483.6,M,48.0,M,,*63
$GPGSA,A,3,24,25,14,12,31,06,29,19,02,32,,,1.14,0.82,0.79*01
$GPVTG,310.98,T,,M,0.05,N,0.10,K,A*3A
$MLINK,0: 5.7 V,1: 100 % LQI,3: 0.0 m/s,4: 0.0 km/h,5: 0 m,6: 13 m*10
$SMGPS,0.3 m,-0.01 m/s,5.60 VRx,0.009 km,13 m,196.2 °,1:-- (  0.0 km/h)*ED
$SMGPS2,+0.01 X,-0.01 Y,+1.01 Z,0 ENL,0 us*4D
$GPRMC,124413.000,A,4838.4689,N,00859.0890,E,0.25,310.98,020517,,,A*6B
$GPGGA,124413.000,4838.4689,N,00859.0890,E,1,10,0.82,483.3,M,48.0,M,,*67
$GPGSA,A,3,24,25,14,12,31,06,29,19,02,32,,,1.14,0.82,0.79*01
$GPVTG,310.98,T,,M,0.02,N,0.04,K,A*38
$MLINK,0: 5.7 V,1: 100 % LQI,3: 0.0 m/s,4: 0.2 km/h,5: 0 m,6: 13 m*12
$SMGPS,0.0 m,+0.01 m/s,5.60 VRx,0.009 km,13 m,196.2 °,1:-- (  0.0 km/h)*E8
$SMGPS2,+0.02 X,-0.01 Y,+1.01 Z,0 ENL,0 us*4E
$GPRMC,124414.000,A,4838.4689,N,00859.0890,E,0.30,310.98,020517,,,A*68
$GPGGA,124414.000,4838.4689,N,00859.0890,E,1,10,0.82,483.2,M,48.0,M,,*61
$GPGSA,A,3,24,25,14,12,31,06,29,19,02,32,,,1.14,0.82,0.79*01
$GPVTG,310.98,T,,M,0.05,N,0.09,K,A*32
$MLINK,0: 5.7 V,1: 100 % LQI,3: 0.0 m/s,4: 0.4 km/h,5: 0 m,6: 13 m*14
$SMGPS,-0.1 m,-0.02 m/s,5.60 VRx,0.009 km,13 m,196.2 °,1:-- (  0.0 km/h)*C1
$SMGPS2,+0.03 X,-0.03 Y,+1.01 Z,0 ENL,0 us*4D
$GPRMC,124415.000,A,4838.4689,N,00859.0890,E,0.17,310.98,020517,,,A*6C
$GPGGA,124415.000,4838.4689,N,00859.0890,E,1,10,0.82,483.3,M,48.0,M,,*61
$GPGSA,A,3,24,25,14,12,31,06,29,19,02,32,,,1.14,0.82,0.79*01
$GPVTG,310.98,T,,M,0.08,N,0.15,K,A*32
$MLINK,0: 5.7 V,1: 100 % LQI,3: 0.0 m/s,4: 0.5 km/h,5: 0 m,6: 13 m*15
$SMGPS,-0.0 m,+0.01 m/s,5.60 VRx,0.009 km,13 m,196.2 °,1:-- (  0.0 km/h)*C5
$SMGPS2,+0.01 X,-0.05 Y,+1.01 Z,0 ENL,0 us*49
$GPRMC,124416.000,A,4838.4688,N,00859.0890,E,0.11,310.98,020517,,,A*68
$GPGGA,124416.000,4838.4688,N,00859.0890,E,1,10,0.82,483.3,M,48.0,M,,*63
$GPGSA,A,3,24,25,14,12,31,06,29,19,02,32,,,1.14,0.82,0.79*01
$GPVTG,310.98,T,,M,0.06,N,0.10,K,A*39
$MLINK,0: 5.7 V,1: 100 % LQI,3: 0.0 m/s,4: 0.3 km/h,5: 0 m,6: 13 m*13
$SMGPS,0.0 m,+0.01 m/s,5.60 VRx,0.009 km,13 m,196.2 °,1:-- (  0.0 km/h)*E8
$SMGPS2,-0.00 X,-0.06 Y,+1.01 Z,0 ENL,0 us*4D
$GPRMC,124417.000,A,4838.4688,N,00859.0890,E,0.22,310.98,020517,,,A*69
$GPGGA,124417.000,4838.4688,N,00859.0890,E,1,10,0.82,483.1,M,48.0,M,,*60
$GPGSA,A,3,24,25,14,12,31,06,29,19,02,32,,,1.14,0.82,0.79*01
$GPVTG,310.98,T,,M,0.07,N,0.13,K,A*3B
$MLINK,0: 5.5 V,1: 100 % LQI,3: 0.0 m/s,4: 0.1 km/h,5: 0 m,6: 13 m*13
$SMGPS,-0.2 m,-0.00 m/s,5.60 VRx,0.009 km,13 m,196.2 °,1:-- (  0.0 km/h)*C0
$SMGPS2,+0.03 X,-0.09 Y,+1.00 Z,0 ENL,0 us*46
$GPRMC,124418.000,A,4838.4689,N,00859.0890,E,0.20,310.98,020517,,,A*65
$GPGGA,124418.000,4838.4689,N,00859.0890,E,1,10,0.83,483.2,M,48.0,M,,*6C
$GPGSA,A,3,24,25,14,12,31,06,29,19,02,32,,,1.52,0.83,1.27*08
$GPVTG,310.98,T,,M,0.17,N,0.31,K,A*3A
$MLINK,0: 5.5 V,1: 100 % LQI,3: 0.0 m/s,4: 0.4 km/h,5: 0 m,6: 13 m*16
$SMGPS,-0.1 m,-0.04 m/s,5.60 VRx,0.009 km,13 m,196.2 °,1:-- (  0.0 km/h)*C7
$SMGPS2,+0.11 X,-0.04 Y,+0.97 Z,0 ENL,0 us*47
$GPRMC,124419.000,A,4838.4689,N,00859.0890,E,0.96,130.69,020517,,,A*67
$GPGGA,124419.000,4838.4689,N,00859.0890,E,1,10,0.82,482.9,M,48.0,M,,*66
$GPGSA,A,3,24,25,14,12,31,06,29,19,02,32,,,1.14,0.82,0.79*01
$GPVTG,130.69,T,,M,0.93,N,1.73,K,A*3F
$MLINK,0: 5.7 V,1: 100 % LQI,3: 0.0 m/s,4: 0.3 km/h,5: 0 m,6: 13 m*13
$SMGPS,-0.4 m,-0.23 m/s,5.60 VRx,0.009 km,13 m,196.2 °,1:-- (  0.0 km/h)*C7
$SMGPS2,+0.27 X,-0.05 Y,+0.99 Z,0 ENL,0 us*4D
$GPRMC,124420.000,A,4838.4686,N,00859.0893,E,1.20,142.51,020517,,,A*63
$GPGGA,124420.000,4838.4686,N,00859.0893,E,1,10,0.82,482.8,M,48.0,M,,*61
$GPGSA,A,3,24,25,14,12,31,06,29,19,02,32,,,1.14,0.82,0.79*01
$GPVTG,142.51,T,,M,1.18,N,2.18,K,A*3D
$MLINK,0: 5.7 V,1: 100 % LQI,3: 0.0 m/s,4: 1.7 km/h,5: 0 m,6: 13 m*16
$SMGPS,-0.5 m,-0.21 m/s,5.60 VRx,0.009 km,13 m,196.2 °,1:-- (  0.0 km/h)*C4
$SMGPS2,+0.39 X,-0.08 Y,+0.95 Z,0 ENL,0 us*43
$GPRMC,124421.000,A,4838.4683,N,00859.0896,E,1.26,147.40,020517,,,A*61
$GPGGA,124421.000,4838.4683,N,00859.0896,E,1,10,0.82,482.7,M,48.0,M,,*6F
$GPGSA,A,3,24,25,14,12,31,06,29,19,02,32,,,1.14,0.82,0.79*01
$GPVTG,147.40,T,,M,1.25,N,2.32,K,A*3E
$MLINK,0: 5.7 V,1: 100 % LQI,3: 0.0 m/s,4: 2.2 km/h,5: 0 m,6: 13 m*10
$SMGPS,-0.6 m,-0.07 m/s,5.60 VRx,0.009 km,13 m,196.2 °,1:-- (  0.0 km/h)*C3
$SMGPS2,+0.32 X,-0.02 Y,+0.97 Z,0 ENL,0 us*40
$GPRMC,124422.000,A,4838.4680,N,00859.0900,E,1.31,144.41,020517,,,A*6B
$GPGGA,124422.000,4838.4680,N,00859.0900,E,1,10,0.82,482.9,M,48.0,M,,*6F
$GPGSA,A,3,24,25,14,12,31,06,29,19,02,32,,,1.14,0.82,0.79*01
$GPVTG,144.41,T,,M,1.31,N,2.43,K,A*3F
$MLINK,0: 5.7 V,1: 100 % LQI,3: 0.0 m/s,4: 2.3 km/h,5: 0 m,6: 12 m*10
$SMGPS,-0.4 m,+0.00 m/s,5.60 VRx,0.011 km,13 m,194.7 °,1:-- (  0.0 km/h)*CE
$SMGPS2,+0.39 X,+0.04 Y,+0.91 Z,0 ENL,0 us*4D
$GPRMC,124423.000,A,4838.4679,N,00859.0905,E,1.31,141.31,020517,,,A*6B
$GPGGA,124423.000,4838.4679,N,00859.0905,E,1,10,0.82,483.1,M,48.0,M,,*64
$GPGSA,A,3,24,25,14,12,31,06,29,19,02,32,,,1.14,0.82,0.79*01
$GPVTG,141.31,T,,M,1.31,N,2.43,K,A*3D
$MLINK,0: 5.7 V,1: 100 % LQI,3: 0.0 m/s,4: 2.4 km/h,5: 0 m,6: 14 m*11
$SMGPS,-0.2 m,+0.08 m/s,5.60 VRx,0.012 km,14 m,191.7 °,1:-- (  0.0 km/h)*C1
$SMGPS2,+0.51 X,-0.10 Y,+0.90 Z,0 ENL,0 us*41
$GPRMC,124424.000,A,4838.4678,N,00859.0910,E,1.10,106.63,020517,,,A*6E
$GPGGA,124424.000,4838.4678,N,00859.0910,E,1,10,0.82,483.2,M,48.0,M,,*65
$GPGSA,A,3,24,25,14,12,31,06,29,19,02,32,,,1.14,0.82,0.79*01
$GPVTG,106.63,T,,M,1.09,N,2.02,K,A*37
$MLINK,0: 5.7 V,1: 100 % LQI,3: 0.0 m/s,4: 2.4 km/h,5: 0 m,6: 14 m*11
$SMGPS,-0.1 m,+0.08 m/s,5.60 VRx,0.012 km,15 m,189.1 °,1:-- (  0.0 km/h)*CC
$SMGPS2,+0.47 X,-0.10 Y,+0.88 Z,0 ENL,0 us*4F
$GPRMC,124425.000,A,4838.4677,N,00859.0913,E,0.88,107.19,020517,,,A*6F
$GPGGA,124425.000,4838.4677,N,00859.0913,E,1,10,0.82,483.1,M,48.0,M,,*6B
$GPGSA,A,3,24,25,14,12,31,06,29,19,02,32,,,1.14,0.82,0.79*01
$GPVTG,107.19,T,,M,0.88,N,1.63,K,A*37
$MLINK,0: 5.5 V,1: 100 % LQI,3: 0.0 m/s,4: 2.0 km/h,5: 0 m,6: 14 m*17
$SMGPS,-0.2 m,+0.05 m/s,5.60 VRx,0.013 km,15 m,186.7 °,1:-- (  0.0 km/h)*CA
$SMGPS2,+0.43 X,+0.05 Y,+0.92 Z,0 ENL,0 us*42
$GPRMC,124426.000,A,4838.4676,N,00859.0916,E,0.34,107.19,020517,,,A*6F
$GPGGA,124426.000,4838.4676,N,00859.0916,E,1,10,0.82,483.3,M,48.0,M,,*6E
$GPGSA,A,3,24,25,14,12,31,06,29,19,02,32,,,1.14,0.82,0.79*01
$GPVTG,107.19,T,,M,0.33,N,0.62,K,A*37
$MLINK,0: 5.7 V,1: 100 % LQI,3: 0.0 m/s,4: 1.6 km/h,5: 0 m,6: 14 m*10
$SMGPS,0.0 m,+0.04 m/s,5.60 VRx,0.013 km,15 m,184.4 °,1:-- (  0.0 km/h)*E5
$SMGPS2,+0.37 X,+0.07 Y,+0.93 Z,0 ENL,0 us*42
$GPRMC,124427.000,A,4838.4676,N,00859.0916,E,0.08,107.19,020517,,,A*61
$GPGGA,124427.000,4838.4676,N,00859.0916,E,1,10,0.82,483.2,M,48.0,M,,*6E
$GPGSA,A,3,24,25,14,12,31,06,29,19,02,32,,,1.14,0.82,0.79*01
$GPVTG,107.19,T,,M,0.07,N,0.13,K,A*36
$MLINK,0: 5.7 V,1: 100 % LQI,3: 0.0 m/s,4: 0.6 km/h,5: 0 m,6: 14 m*11
$SMGPS,-0.1 m,+0.02 m/s,5.60 VRx,0.013 km,15 m,183.1 °,1:-- (  0.0 km/h)*CD
$SMGPS2,+0.41 X,+0.05 Y,+0.92 Z,0 ENL,0 us*40
$GPRMC,124428.000,A,4838.4676,N,00859.0916,E,0.09,107.19,020517,,,A*6F
$GPGGA,124428.000,4838.4676,N,00859.0916,E,1,10,0.83,483.2,M,48.0,M,,*60
$GPGSA,A,3,24,25,14,12,31,06,29,19,02,32,,,1.52,0.83,1.27*08
$GPVTG,107.19,T,,M,0.09,N,0.17,K,A*3C
$MLINK,0: 5.6 V,1: 100 % LQI,3: 0.0 m/s,4: 0.1 km/h,5: 0 m,6: 14 m*17
$SMGPS,-0.1 m,-0.02 m/s,5.60 VRx,0.013 km,15 m,181.4 °,1:-- (  0.0 km/h)*CC
$SMGPS2,+0.44 X,+0.02 Y,+0.91 Z,0 ENL,0 us*41
$GPRMC,124429.000,A,4838.4675,N,00859.0915,E,0.12,107.19,020517,,,A*64
$GPGGA,124429.000,4838.4675,N,00859.0915,E,1,10,0.82,483.4,M,48.0,M,,*66
$GPGSA,A,3,24,25,14,12,31,06,29,19,02,32,,,1.14,0.82,0.79*01
$GPVTG,107.19,T,,M,0.05,N,0.10,K,A*37
$MLINK,0: 5.6 V,1: 100 % LQI,3: 0.0 m/s,4: 0.1 km/h,5: 0 m,6: 14 m*17
$SMGPS,0.1 m,-0.03 m/s,5.60 VRx,0.013 km,15 m,181.4 °,1:-- (  0.0 km/h)*E0
$SMGPS2,+0.44 X,+0.06 Y,+0.90 Z,0 ENL,0 us*44
$GPRMC,124430.000,A,4838.4675,N,00859.0915,E,0.05,107.19,020517,,,A*6A
$GPGGA,124430.000,4838.4675,N,00859.0915,E,1,10,0.82,483.3,M,48.0,M,,*69
$GPGSA,A,3,24,25,14,12,31,06,29,19,02,32,,,1.14,0.82,0.79*01
$GPVTG,107.19,T,,M,0.05,N,0.09,K,A*3F
$MLINK,0: 5.7 V,1: 100 % LQI,3: 0.0 m/s,4: 0.2 km/h,5: 0 m,6: 14 m*15
$SMGPS,-0.0 m,-0.04 m/s,5.60 VRx,0.013 km,15 m,181.4 °,1:-- (  0.0 km/h)*CB
$SMGPS2,+0.45 X,+0.11 Y,+0.90 Z,0 ENL,0 us*43
$GPRMC,124431.000,A,4838.4675,N,00859.0915,E,0.06,107.19,020517,,,A*68
$GPGGA,124431.000,4838.4675,N,00859.0915,E,1,10,0.82,483.2,M,48.0,M,,*69
$GPGSA,A,3,24,25,14,12,31,06,29,19,02,32,,,1.14,0.82,0.79*01
$GPVTG,107.19,T,,M,0.04,N,0.08,K,A*3F
$MLINK,0: 5.7 V,1: 100 % LQI,3: 0.0 m/s,4: 0.0 km/h,5: 0 m,6: 15 m*16
$SMGPS,-0.1 m,+0.04 m/s,5.60 VRx,0.013 km,15 m,181.8 °,1:-- (  0.0 km/h)*C0
$SMGPS2,+0.44 X,+0.11 Y,+0.90 Z,0 ENL,0 us*42
$GPRMC,124432.000,A,4838.4675,N,00859.0914,E,0.09,107.19,020517,,,A*65
$GPGGA,124432.000,4838.4675,N,00859.0914,E,1,10,0.82,483.4,M,48.0,M,,*6D
$GPGSA,A,3,24,25,14,12,31,06,29,19,02,32,,,1.14,0.82,0.79*01
$GPVTG,107.19,T,,M,0.06,N,0.12,K,A*36
$MLINK,0: 5.7 V,1: 100 % LQI,3: 0.0 m/s,4: 0.1 km/h,5: 0 m,6: 15 m*17
$SMGPS,0.1 m,+0.03 m/s,5.60 VRx,0.013 km,15 m,181.8 °,1:-- (  0.0 km/h)*EA
$SMGPS2,+0.44 X,+0.12 Y,+0.90 Z,0 ENL,0 us*41
$GPRMC,124433.000,A,4838.4675,N,00859.0914,E,0.14,107.19,020517,,,A*68
$GPGGA,124433.000,4838.4675,N,00859.0914,E,1,10,0.82,483.4,M,48.0,M,,*6C
$GPGSA,A,3,24,25,14,12,31,06,29,19,02,32,,,1.14,0.82,0.79*01
$GPVTG,107.19,T,,M,0.13,N,0.25,K,A*36
$MLINK,0: 5.7 V,1: 100 % LQI,3: 0.0 m/s,4: 0.1 km/h,5: 0 m,6: 15 m*17
$SMGPS,0.1 m,+0.04 m/s,5.60 VRx,0.013 km,15 m,181.8 °,1:-- (  0.0 km/h)*ED
$SMGPS2,+0.41 X,+0.07 Y,+0.92 Z,0 ENL,0 us*42
$GPRMC,124434.000,A,4838.4675,N,00859.0915,E,0.11,107.19,020517,,,A*6B
$GPGGA,124434.000,4838.4675,N,00859.0915,E,1,10,0.82,483.1,M,48.0,M,,*6F
$GPGSA,A,3,24,25,14,12,31,06,29,19,02,32,,,1.14,0.82,0.79*01
$GPVTG,107.19,T,,M,0.06,N,0.12,K,A*36
$MLINK,0: 5.7 V,1: 100 % LQI,3: 0.0 m/s,4: 0.2 km/h,5: 0 m,6: 15 m*14
$SMGPS,-0.2 m,-0.03 m/s,5.60 VRx,0.013 km,16 m,182.4 °,1:-- (  0.0 km/h)*CE
$SMGPS2,+0.43 X,+0.03 Y,+0.90 Z,0 ENL,0 us*46
$GPRMC,124435.000,A,4838.4675,N,00859.0915,E,0.10,107.19,020517,,,A*6B
$GPGGA,124435.000,4838.4675,N,00859.0915,E,1,10,0.82,483.4,M,48.0,M,,*6B
$GPGSA,A,3,24,25,14,12,31,06,29,19,02,32,,,1.14,0.82,0.79*01
$GPVTG,107.19,T,,M,0.08,N,0.14,K,A*3E
$MLINK,0: 5.7 V,1: 100 % LQI,3: 0.0 m/s,4: 0.2 km/h,5: 0 m,6: 15 m*14
$SMGPS,0.1 m,-0.06 m/s,5.60 VRx,0.013 km,15 m,182.4 °,1:-- (  0.0 km/h)*E6
$SMGPS2,+0.47 X,-0.02 Y,+0.89 Z,0 ENL,0 us*4D
$GPRMC,124436.000,A,4838.4675,N,00859.0915,E,0.06,107.19,020517,,,A*6F
$GPGGA,124436.000,4838.4675,N,00859.0915,E,1,10,0.82,483.4,M,48.0,M,,*68
$GPGSA,A,3,24,25,14,12,31,06,29,19,02,32,,,1.14,0.82,0.79*01
$GPVTG,107.19,T,,M,0.02,N,0.03,K,A*32
$MLINK,0: 5.6 V,1: 100 % LQI,3: 0.0 m/s,4: 0.1 km/h,5: 0 m,6: 15 m*16
$SMGPS,0.1 m,-0.05 m/s,5.60 VRx,0.013 km,15 m,181.8 °,1:-- (  0.0 km/h)*EA
$SMGPS2,+0.47 X,+0.03 Y,+0.90 Z,0 ENL,0 us*42
$GPRMC,124437.000,A,4838.4676,N,00859.0915,E,0.12,107.19,020517,,,A*68
$GPGGA,124437.000,4838.4676,N,00859.0915,E,1,10,0.83,483.4,M,48.0,M,,*6B
$GPGSA,A,3,24,25,14,12,31,06,29,19,02,32,,,1.52,0.83,1.27*08
$GPVTG,107.19,T,,M,0.08,N,0.15,K,A*3F
$MLINK,0: 5.7 V,1: 100 % LQI,3: 0.0 m/s,4: 0.1 km/h,5: 0 m,6: 15 m*17
$SMGPS,0.1 m,-0.00 m/s,5.60 VRx,0.013 km,15 m,181.8 °,1:-- (  0.0 km/h)*EF
$SMGPS2,+0.41 X,+0.01 Y,+0.91 Z,0 ENL,0 us*47
$GPRMC,124438.000,A,4838.4675,N,00859.0916,E,0.11,107.19,020517,,,A*64
$GPGGA,124438.000,4838.4675,N,00859.0916,E,1,10,0.82,483.3,M,48.0,M,,*62
$GPGSA,A,3,24,25,14,12,31,06,29,19,02,32,,,1.14,0.82,0.79*01
$GPVTG,107.19,T,,M,0.11,N,0.21,K,A*30
$MLINK,0: 5.6 V,1: 100 % LQI,3: 0.0 m/s,4: 0.2 km/h,5: 0 m,6: 15 m*15
$SMGPS,0.0 m,+0.03 m/s,5.60 VRx,0.013 km,15 m,181.8 °,1:-- (  0.0 km/h)*EB
$SMGPS2,+0.39 X,+0.01 Y,+0.94 Z,0 ENL,0 us*4D
$GPRMC,124439.000,A,4838.4675,N,00859.0916,E,0.03,107.19,020517,,,A*66
$GPGGA,124439.000,4838.4675,N,00859.0916,E,1,10,0.82,483.3,M,48.0,M,,*63
$GPGSA,A,3,24,25,14,12,31,06,29,19,02,32,,,1.14,0.82,0.79*01
$GPVTG,107.19,T,,M,0.03,N,0.05,K,A*35
$MLINK,0: 5.7 V,1: 100 % LQI,3: 0.0 m/s,4: 0.2 km/h,5: 0 m,6: 14 m*15
$SMGPS,0.0 m,+0.03 m/s,5.60 VRx,0.013 km,15 m,181.9 °,1:-- (  0.0 km/h)*EA
$SMGPS2,+0.40 X,+0.02 Y,+0.92 Z,0 ENL,0 us*46
$GPRMC,124440.000,A,4838.4675,N,00859.0916,E,0.01,107.19,020517,,,A*6A
$GPGGA,124440.000,4838.4675,N,00859.0916,E,1,10,0.82,483.3,M,48.0,M,,*6D
$GPGSA,A,3,24,25,14,12,31,06,29,19,02,32,,,1.14,0.82,0.79*01
$GPVTG,107.19,T,,M,0.01,N,0.03,K,A*31
$MLINK,0: 5.7 V,1: 100 % LQI,3: 0.0 m/s,4: 0.0 km/h,5: 0 m,6: 15 m*16
$SMGPS,0.0 m,-0.00 m/s,5.60 VRx,0.013 km,15 m,181.3 °,1:-- (  0.0 km/h)*E5
$SMGPS2,+0.41 X,+0.03 Y,+0.92 Z,0 ENL,0 us*46
$GPRMC,124441.000,A,4838.4675,N,00859.0916,E,0.12,107.19,020517,,,A*69
$GPGGA,124441.000,4838.4675,N,00859.0916,E,1,10,0.82,483.3,M,48.0,M,,*6C
$GPGSA,A,3,24,25,14,12,31,06,29,19,02,32,,,1.14,0.82,0.79*01
$GPVTG,107.19,T,,M,0.11,N,0.21,K,A*30
$MLINK,0: 5.7 V,1: 100 % LQI,3: 0.0 m/s,4: 0.0 km/h,5: 0 m,6: 15 m*16
$SMGPS,-0.0 m,+0.01 m/s,5.60 VRx,0.013 km,15 m,181.3 °,1:-- (  0.0 km/h)*CF
$SMGPS2,+0.43 X,+0.01 Y,+0.93 Z,0 ENL,0 us*47
$GPRMC,124442.000,A,4838.4676,N,00859.0915,E,0.15,107.19,020517,,,A*6D
$GPGGA,124442.000,4838.4676,N,00859.0915,E,1,10,0.82,483.2,M,48.0,M,,*6E
$GPGSA,A,3,24,25,14,12,31,06,29,19,02,32,,,1.14,0.82,0.79*01
$GPVTG,107.19,T,,M,0.14,N,0.25,K,A*31
$MLINK,0: 5.7 V,1: 100 % LQI,3: 0.0 m/s,4: 0.2 km/h,5: 0 m,6: 15 m*14
$SMGPS,-0.1 m,+0.01 m/s,5.60 VRx,0.013 km,15 m,181.3 °,1:-- (  0.0 km/h)*CE
$SMGPS2,+0.43 X,-0.04 Y,+0.91 Z,0 ENL,0 us*46
$GPRMC,124443.000,A,4838.4675,N,00859.0915,E,0.05,107.19,020517,,,A*6E
$GPGGA,124443.000,4838.4675,N,00859.0915,E,1,10,0.82,483.4,M,48.0,M,,*6A
$GPGSA,A,3,24,25,14,12,31,06,29,19,02,32,,,1.14,0.82,0.79*01
$GPVTG,107.19,T,,M,0.01,N,0.02,K,A*30
$MLINK,0: 5.6 V,1: 100 % LQI,3: 0.0 m/s,4: 0.2 km/h,5: 0 m,6: 15 m*15
$SMGPS,0.1 m,+0.03 m/s,5.60 VRx,0.013 km,15 m,181.3 °,1:-- (  0.0 km/h)*E1
$SMGPS2,+0.48 X,-0.08 Y,+0.89 Z,0 ENL,0 us*48
$GPRMC,124444.000,A,4838.4675,N,00859.0915,E,0.07,107.19,020517,,,A*6B
$GPGGA,124444.000,4838.4675,N,00859.0915,E,1,10,0.82,483.2,M,48.0,M,,*6B
$GPGSA,A,3,24,25,14,12,31,06,29,19,02,32,,,1.14,0.82,0.79*01
$GPVTG,107.19,T,,M,0.01,N,0.03,K,A*31
$MLINK,0: 5.6 V,1: 100 % LQI,3: 0.0 m/s,4: 0.0 km/h,5: 0 m,6: 14 m*16
$SMGPS,-0.1 m,-0.02 m/s,5.60 VRx,0.013 km,15 m,181.9 °,1:-- (  0.0 km/h)*C1
$SMGPS2,+0.49 X,-0.05 Y,+0.89 Z,0 ENL,0 us*44
$GPRMC,124445.000,A,4838.4676,N,00859.0915,E,0.07,107.19,020517,,,A*69
$GPGGA,124445.000,4838.4676,N,00859.0915,E,1,10,0.82,483.2,M,48.0,M,,*69
$GPGSA,A,3,24,25,14,12,31,06,29,19,02,32,,,1.14,0.82,0.79*01
$GPVTG,107.19,T,,M,0.03,N,0.05,K,A*35
$MLINK,0: 5.7 V,1: 100 % LQI,3: 0.0 m/s,4: 0.1 km/h,5: 0 m,6: 15 m*17
$SMGPS,-0.1 m,-0.02 m/s,5.60 VRx,0.013 km,15 m,181.8 °,1:-- (  0.0 km/h)*C0
$SMGPS2,+0.47 X,+0.06 Y,+0.89 Z,0 ENL,0 us*4F
$GPRMC,124446.000,A,4838.4676,N,00859.0915,E,0.04,107.19,020517,,,A*69
$GPGGA,124446.000,4838.4676,N,00859.0915,E,1,10,0.83,483.2,M,48.0,M,,*6B
$GPGSA,A,3,24,25,14,12,31,06,29,19,02,32,,,1.52,0.83,1.27*08
$GPVTG,107.19,T,,M,0.03,N,0.05,K,A*35
$MLINK,0: 5.7 V,1: 100 % LQI,3: 0.0 m/s,4: 0.1 km/h,5: 0 m,6: 15 m*17
$SMGPS,-0.1 m,-0.04 m/s,5.60 VRx,0.013 km,15 m,181.8 °,1:-- (  0.0 km/h)*C6
$SMGPS2,+0.50 X,+0.07 Y,+0.87 Z,0 ENL,0 us*46
$GPRMC,124447.000,A,4838.4676,N,00859.0915,E,0.03,107.19,020517,,,A*6F
$GPGGA,124447.000,4838.4676,N,00859.0915,E,1,10,0.83,483.3,M,48.0,M,,*6B
$GPGSA,A,3,24,25,14,12,31,06,29,19,02,32,,,1.52,0.83,1.28*07
$GPVTG,107.19,T,,M,0.03,N,0.05,K,A*35
$MLINK,0: 5.7 V,1: 100 % LQI,3: 0.0 m/s,4: 0.0 km/h,5: 0 m,6: 14 m*17
$SMGPS,-0.0 m,-0.01 m/s,5.60 VRx,0.013 km,15 m,181.9 °,1:-- (  0.0 km/h)*C3
$SMGPS2,+0.50 X,+0.06 Y,+0.87 Z,0 ENL,0 us*47
$GPRMC,124448.000,A,4838.4676,N,00859.0915,E,0.03,107.19,020517,,,A*60
$GPGGA,124448.000,4838.4676,N,00859.0915,E,1,10,0.83,483.3,M,48.0,M,,*64
$GPGSA,A,3,24,25,14,12,31,06,29,19,02,32,,,1.52,0.83,1.28*07
$GPVTG,107.19,T,,M,0.02,N,0.04,K,A*35
$MLINK,0: 5.7 V,1: 100 % LQI,3: 0.0 m/s,4: 0.0 km/h,5: 0 m,6: 14 m*17
$SMGPS,-0.0 m,+0.00 m/s,5.60 VRx,0.013 km,15 m,181.9 °,1:-- (  0.0 km/h)*C4
$SMGPS2,+0.52 X,-0.05 Y,+0.89 Z,0 ENL,0 us*4E
$GPRMC,124449.000,A,4838.4676,N,00859.0915,E,1.18,107.19,020517,,,A*6A
$GPGGA,124449.000,4838.4676,N,00859.0915,E,1,10,0.83,483.8,M,48.0,M,,*6E
$GPGSA,A,3,24,25,14,12,31,06,29,19,02,32,,,1.52,0.83,1.28*07
$GPVTG,107.19,T,,M,1.16,N,2.15,K,A*33
$MLINK,0: 5.6 V,1: 100 % LQI,3: 0.0 m/s,4: 0.0 km/h,5: 0 m,6: 14 m*16
$SMGPS,0.5 m,+0.22 m/s,5.60 VRx,0.013 km,15 m,181.9 °,1:-- (  0.0 km/h)*EC
$SMGPS2,+0.30 X,-0.01 Y,+0.98 Z,0 ENL,0 us*4E
$GPRMC,124450.000,A,4838.4676,N,00859.0908,E,1.97,277.88,020517,,,A*65
$GPGGA,124450.000,4838.4676,N,00859.0908,E,1,10,0.82,483.9,M,48.0,M,,*6A
$GPGSA,A,3,24,25,14,12,31,06,29,19,02,32,,,1.14,0.82,0.79*01
$GPVTG,277.88,T,,M,1.96,N,3.63,K,A*37
$MLINK,0: 5.6 V,1: 100 % LQI,3: 0.0 m/s,4: 2.1 km/h,5: 0 m,6: 14 m*15
$SMGPS,0.6 m,+0.37 m/s,5.60 VRx,0.013 km,15 m,181.9 °,1:-- (  0.0 km/h)*EB
$SMGPS2,-0.03 X,+0.09 Y,+0.96 Z,0 ENL,0 us*48
$GPRMC,124451.000,A,4838.4678,N,00859.0900,E,1.30,300.44,020517,,,A*6E
$GPGGA,124451.000,4838.4678,N,00859.0900,E,1,10,0.82,483.5,M,48.0,M,,*61
$GPGSA,A,3,24,25,14,12,31,06,29,19,02,32,,,1.14,0.82,0.79*01
$GPVTG,300.44,T,,M,1.30,N,2.41,K,A*3B
$MLINK,0: 5.7 V,1: 100 % LQI,3: 0.0 m/s,4: 3.6 km/h,5: 0 m,6: 14 m*12
$SMGPS,0.2 m,+0.11 m/s,5.60 VRx,0.014 km,15 m,181.9 °,1:-- (  0.0 km/h)*EC
$SMGPS2,-0.07 X,-0.07 Y,+0.96 Z,778 ENL,0 us*4C
$GPRMC,124452.000,A,4838.4682,N,00859.0895,E,2.65,330.82,020517,,,A*6F
$GPGGA,124452.000,4838.4682,N,00859.0895,E,1,10,0.82,483.2,M,48.0,M,,*6D
$GPGSA,A,3,24,25,14,12,31,06,29,19,02,32,,,1.14,0.82,0.79*01
$GPVTG,330.82,T,,M,2.65,N,4.92,K,A*39
$MLINK,0: 5.7 V,1: 100 % LQI,3: 0.0 m/s,4: 2.4 km/h,5: 0 m,6: 14 m*11
$SMGPS,-0.1 m,-0.37 m/s,5.59 VRx,0.015 km,15 m,185.3 °,1:-- (  0.0 km/h)*C5
$SMGPS2,-0.74 X,+0.10 Y,+1.36 Z,999 ENL,0 us*42
$GPRMC,124453.000,A,4838.4706,N,00859.0887,E,14.98,351.83,020517,,,A*53
$GPGGA,124453.000,4838.4706,N,00859.0887,E,1,10,0.82,485.5,M,48.0,M,,*63
$GPGSA,A,3,24,25,14,12,31,06,29,19,02,32,,,1.14,0.82,0.79*01
$GPVTG,351.83,T,,M,14.93,N,27.67,K,A*3A
$MLINK,0: 5.6 V,1: 100 % LQI,3: 0.0 m/s,4: 4.9 km/h,5: 0 m,6: 14 m*1B
$SMGPS,2.2 m,+0.46 m/s,5.59 VRx,0.016 km,15 m,189.1 °,1:-- (  0.0 km/h)*E4
$SMGPS2,-0.42 X,+0.01 Y,+1.49 Z,999 ENL,0 us*4F
$GPRMC,124454.000,A,4838.4754,N,00859.0884,E,19.28,3.03,020517,,,A*5A
$GPGGA,124454.000,4838.4754,N,00859.0884,E,1,10,0.83,491.3,M,48.0,M,,*62
$GPGSA,A,3,24,25,14,12,31,06,29,19,02,32,,,1.52,0.83,1.28*07
$GPVTG,3.03,T,,M,18.88,N,34.98,K,A*32
$MLINK,0: 5.6 V,1: 100 % LQI,3: 0.0 m/s,4: 27.7 km/h,5: 2 m,6: 14 m*26
$SMGPS,8.0 m,+3.69 m/s,5.59 VRx,0.021 km,15 m,192.5 °,1:-- (  0.0 km/h)*E8
$SMGPS2,-0.37 X,+0.07 Y,+1.04 Z,999 ENL,0 us*42
$GPRMC,124455.000,A,4838.4808,N,00859.0887,E,20.08,3.25,020517,,,A*52
$GPGGA,124455.000,4838.4808,N,00859.0887,E,1,10,0.83,498.4,M,48.0,M,,*68
$GPGSA,A,3,24,25,14,12,31,06,29,19,02,32,,,1.52,0.83,1.28*07
$GPVTG,3.25,T,,M,18.95,N,35.11,K,A*3A
$MLINK,0: 5.6 V,1: 100 % LQI,3: 0.0 m/s,4: 35.6 km/h,5: 8 m,6: 14 m*2E
$SMGPS,15.1 m,+5.10 m/s,5.59 VRx,0.030 km,14 m,203.8 °,1:-- (  0.0 km/h)*DA
$SMGPS2,-0.31 X,+0.00 Y,+1.09 Z,999 ENL,0 us*4E
$GPRMC,124456.000,A,4838.4863,N,00859.0898,E,21.93,12.06,020517,,,A*60
$GPGGA,124456.000,4838.4863,N,00859.0898,E,1,10,0.83,505.3,M,48.0,M,,*6A
$GPGSA,A,3,24,25,14,12,31,06,29,19,02,32,,,1.52,0.83,1.28*07
$GPVTG,12.06,T,,M,20.16,N,37.36,K,A*0C
$MLINK,0: 5.7 V,1: 100 % LQI,3: 0.0 m/s,4: 37.1 km/h,5: 15 m,6: 18 m*1A
$SMGPS,22.0 m,+6.66 m/s,5.59 VRx,0.040 km,18 m,270.0 °,1:-- (  0.0 km/h)*DA
$SMGPS2,-0.32 X,+0.09 Y,+0.84 Z,999 ENL,0 us*40
$GPRMC,124457.000,A,4838.4913,N,00859.0910,E,18.93,9.78,020517,,,A*5F
$GPGGA,124457.000,4838.4913,N,00859.0910,E,1,10,0.83,511.5,M,48.0,M,,*6F
$GPGSA,A,3,24,25,14,12,31,06,29,19,02,32,,,1.52,0.83,1.28*07
$GPVTG,9.78,T,,M,16.35,N,30.29,K,A*32
$MLINK,0: 5.5 V,1: 100 % LQI,3: 0.0 m/s,4: 40.6 km/h,5: 21 m,6: 26 m*15
$SMGPS,28.2 m,+6.58 m/s,5.59 VRx,0.050 km,27 m,338.9 °,1:-- (  0.0 km/h)*D6
$SMGPS2,-0.33 X,+0.05 Y,+0.82 Z,999 ENL,0 us*4B
$GPRMC,124458.000,A,4838.4974,N,00859.0919,E,23.77,8.02,020517,,,A*56
$GPGGA,124458.000,4838.4974,N,00859.0919,E,1,10,0.83,518.2,M,48.0,M,,*66
$GPGSA,A,3,24,25,14,12,31,06,29,19,02,32,,,1.52,0.83,1.28*07
$GPVTG,8.02,T,,M,21.31,N,39.48,K,A*30
$MLINK,0: 5.7 V,1: 100 % LQI,3: 0.0 m/s,4: 35.0 km/h,5: 28 m,6: 36 m*1B
$SMGPS,34.9 m,+6.11 m/s,5.60 VRx,0.059 km,37 m,352.6 °,1:-- (  0.0 km/h)*DC
$SMGPS2,-0.28 X,+0.03 Y,+1.07 Z,999 ENL,0 us*4B
$GPRMC,124459.000,A,4838.5032,N,00859.0928,E,22.75,7.42,020517,,,A*57
$GPGGA,124459.000,4838.5032,N,00859.0928,E,1,10,0.83,524.4,M,48.0,M,,*66
$GPGSA,A,3,24,25,14,12,31,06,29,19,02,32,,,1.52,0.83,1.28*07
$GPVTG,7.42,T,,M,20.14,N,37.33,K,A*3F
$MLINK,0: 5.7 V,1: 100 % LQI,3: 0.0 m/s,4: 44.0 km/h,5: 34 m,6: 47 m*16
$SMGPS,41.1 m,+6.64 m/s,5.59 VRx,0.071 km,47 m,357.8 °,1:-- (  0.0 km/h)*D8
$SMGPS2,-0.29 X,+0.02 Y,+1.07 Z,999 ENL,0 us*4B
$GPRMC,124500.000,A,4838.5085,N,00859.0936,E,21.46,5.75,020517,,,A*5C
$GPGGA,124500.000,4838.5085,N,00859.0936,E,1,10,0.83,531.6,M,48.0,M,,*6E
$GPGSA,A,3,24,25,14,12,31,06,29,19,02,32,,,1.52,0.83,1.28*07
$GPVTG,5.75,T,,M,18.20,N,33.72,K,A*34
$MLINK,0: 5.7 V,1: 100 % LQI,3: 0.0 m/s,4: 42.1 km/h,5: 41 m,6: 59 m*1C
$SMGPS,48.3 m,+6.67 m/s,5.59 VRx,0.082 km,60 m,0.0 °,1:-- (  0.0 km/h)*D0
$SMGPS2,-0.37 X,+0.06 Y,+0.65 Z,999 ENL,0 us*45
$GPRMC,124501.000,A,4838.5143,N,00859.0939,E,24.96,359.97,020517,,,A*57
$GPGGA,124501.000,4838.5143,N,00859.0939,E,1,10,0.83,537.1,M,48.0,M,,*6A
$GPGSA,A,3,24,25,14,12,31,06,29,19,02,32,,,1.52,0.83,1.28*07
$GPVTG,359.97,T,,M,22.33,N,41.37,K,A*3D
$MLINK,0: 5.7 V,1: 100 % LQI,3: 0.0 m/s,4: 39.7 km/h,5: 48 m,6: 72 m*16
$SMGPS,53.8 m,+6.22 m/s,5.59 VRx,0.091 km,72 m,1.2 °,1:-- (  0.0 km/h)*D2
$SMGPS2,+0.12 X,-0.00 Y,+0.59 Z,384 ENL,0 us*4D
$GPRMC,124502.000,A,4838.5196,N,00859.0938,E,19.23,357.25,020517,,,A*5A
$GPGGA,124502.000,4838.5196,N,00859.0938,E,1,10,0.82,537.8,M,48.0,M,,*68
$GPGSA,A,3,24,25,14,12,31,06,29,19,02,32,,,1.14,0.82,0.79*01
$GPVTG,357.25,T,,M,17.13,N,31.74,K,A*3E
$MLINK,0: 5.7 V,1: 100 % LQI,3: 0.0 m/s,4: 46.2 km/h,5: 53 m,6: 82 m*1E
$SMGPS,54.5 m,+3.57 m/s,5.60 VRx,0.102 km,83 m,2.0 °,1:-- (  0.0 km/h)*D1
$SMGPS2,+0.13 X,-0.02 Y,+1.02 Z,25 ENL,0 us*79
$GPRMC,124503.000,A,4838.5229,N,00859.0939,E,13.63,352.77,020517,,,A*51
$GPGGA,124503.000,4838.5229,N,00859.0939,E,1,10,0.83,537.9,M,48.0,M,,*6F
$GPGSA,A,3,24,25,14,12,31,06,29,19,02,32,,,1.53,0.83,1.28*06
$GPVTG,352.77,T,,M,12.02,N,22.28,K,A*32
$MLINK,0: 5.7 V,1: 100 % LQI,3: 0.0 m/s,4: 35.6 km/h,5: 54 m,6: 91 m*1B
$SMGPS,54.6 m,+1.66 m/s,5.60 VRx,0.112 km,92 m,1.9 °,1:-- (  0.0 km/h)*D9
$SMGPS2,+0.12 X,-0.02 Y,+0.79 Z,22 ENL,0 us*72
$GPRMC,124504.000,A,4838.5258,N,00859.0931,E,12.26,346.39,020517,,,A*57
$GPGGA,124504.000,4838.5258,N,00859.0931,E,1,10,0.83,536.1,M,48.0,M,,*6F
$GPGSA,A,3,24,25,14,12,31,06,29,19,02,32,,,1.53,0.83,1.28*06
$GPVTG,346.39,T,,M,11.71,N,21.71,K,A*35
$MLINK,0: 5.5 V,1: 100 % LQI,3: 0.0 m/s,4: 25.2 km/h,5: 54 m,6: 99 m*14
$SMGPS,52.8 m,-0.11 m/s,5.59 VRx,0.118 km,100 m,1.6 °,1:-- (  0.0 km/h)*E3
$SMGPS2,+0.15 X,-0.04 Y,+0.93 Z,55 ENL,0 us*77
$GPRMC,124505.000,A,4838.5292,N,00859.0916,E,14.43,342.98,020517,,,A*5F
$GPGGA,124505.000,4838.5292,N,00859.0916,E,1,10,0.83,534.6,M,48.0,M,,*68
$GPGSA,A,3,24,25,14,12,31,06,29,19,02,32,,,1.53,0.83,1.28*06
$GPVTG,342.98,T,,M,14.30,N,26.50,K,A*3E
$MLINK,0: 5.6 V,1: 100 % LQI,3: 0.0 m/s,4: 22.7 km/h,5: 52 m,6: 103 m*21
$SMGPS,51.3 m,-1.24 m/s,5.60 VRx,0.123 km,104 m,1.6 °,1:-- (  0.0 km/h)*EA
$SMGPS2,+0.17 X,-0.02 Y,+1.09 Z,43 ENL,0 us*76
$GPRMC,124506.000,A,4838.5333,N,00859.0894,E,16.30,340.86,020517,,,A*56
$GPGGA,124506.000,4838.5333,N,00859.0894,E,1,10,0.83,533.8,M,48.0,M,,*63
$GPGSA,A,3,24,25,14,12,31,06,29,19,02,32,,,1.53,0.83,1.28*06
$GPVTG,340.86,T,,M,16.27,N,30.14,K,A*30
$MLINK,0: 5.7 V,1: 100 % LQI,3: 0.0 m/s,4: 26.7 km/h,5: 51 m,6: 107 m*23
$SMGPS,50.5 m,-1.06 m/s,5.60 VRx,0.130 km,108 m,0.9 °,1:-- (  0.0 km/h)*ED
$SMGPS2,+0.20 X,-0.04 Y,+1.07 Z,174 ENL,0 us*4F
$GPRMC,124507.000,A,4838.5376,N,00859.0870,E,16.76,340.99,020517,,,A*50
$GPGGA,124507.000,4838.5376,N,00859.0870,E,1,10,0.83,533.4,M,48.0,M,,*65
$GPGSA,A,3,24,25,14,12,31,06,29,19,02,32,,,1.53,0.83,1.28*06
$GPVTG,340.99,T,,M,16.75,N,31.03,K,A*3E
$MLINK,0: 5.7 V,1: 100 % LQI,3: 0.0 m/s,4: 30.1 km/h,5: 50 m,6: 112 m*27
$SMGPS,50.1 m,-0.70 m/s,5.60 VRx,0.138 km,113 m,359.8 °,1:-- (  0.0 km/h)*E5
$SMGPS2,+0.20 X,-0.03 Y,+1.17 Z,150 ENL,0 us*4F
$GPRMC,124508.000,A,4838.5419,N,00859.0847,E,15.53,340.98,020517,,,A*50
$GPGGA,124508.000,4838.5419,N,00859.0847,E,1,10,0.83,535.2,M,48.0,M,,*60
$GPGSA,A,3,24,25,14,12,31,06,29,19,02,32,,,1.53,0.83,1.28*06
$GPVTG,340.98,T,,M,15.47,N,28.67,K,A*37
$MLINK,0: 5.7 V,1: 100 % LQI,3: 0.0 m/s,4: 31.0 km/h,5: 50 m,6: 119 m*2C
$SMGPS,51.9 m,+0.39 m/s,5.59 VRx,0.146 km,119 m,358.3 °,1:-- (  0.0 km/h)*E4
$SMGPS2,+0.16 X,-0.01 Y,+1.03 Z,72 ENL,0 us*7C
$GPRMC,124509.000,A,4838.5456,N,00859.0826,E,13.27,339.61,020517,,,A*50
$GPGGA,124509.000,4838.5456,N,00859.0826,E,1,10,0.83,536.3,M,48.0,M,,*6F
$GPGSA,A,3,24,25,14,12,31,06,29,19,02,32,,,1.53,0.83,1.28*06
$GPVTG,339.61,T,,M,13.18,N,24.42,K,A*38
$MLINK,0: 5.7 V,1: 100 % LQI,3: 0.0 m/s,4: 28.7 km/h,5: 51 m,6: 127 m*2F
$SMGPS,53.0 m,+1.12 m/s,5.60 VRx,0.155 km,127 m,357.0 °,1:-- (  0.0 km/h)*EE
$SMGPS2,+0.12 X,-0.00 Y,+0.83 Z,11 ENL,0 us*75
$GPRMC,124510.000,A,4838.5488,N,00859.0803,E,12.37,331.88,020517,,,A*53
$GPGGA,124510.000,4838.5488,N,00859.0803,E,1,10,0.83,535.5,M,48.0,M,,*66
$GPGSA,A,3,24,25,14,12,31,06,29,19,02,32,,,1.53,0.83,1.28*06
$GPVTG,331.88,T,,M,12.35,N,22.88,K,A*39
$MLINK,0: 5.7 V,1: 100 % LQI,3: 0.0 m/s,4: 24.5 km/h,5: 53 m,6: 135 m*20
$SMGPS,52.2 m,+0.39 m/s,5.59 VRx,0.162 km,136 m,355.9 °,1:-- (  0.0 km/h)*E0
$SMGPS2,+0.13 X,+0.01 Y,+0.95 Z,24 ENL,0 us*72
$GPRMC,124511.000,A,4838.5517,N,00859.0768,E,14.05,313.78,020517,,,A*5F
$GPGGA,124511.000,4838.5517,N,00859.0768,E,1,10,0.83,535.4,M,48.0,M,,*63
$GPGSA,A,3,24,25,14,12,31,06,29,19,02,32,,,1.53,0.83,1.28*06
$GPVTG,313.78,T,,M,14.04,N,26.02,K,A*34
$MLINK,0: 5.5 V,1: 100 % LQI,3: 0.0 m/s,4: 22.9 km/h,5: 52 m,6: 140 m*2B
$SMGPS,52.1 m,-0.21 m/s,5.60 VRx,0.169 km,141 m,355.0 °,1:-- (  0.0 km/h)*E4
$SMGPS2,+0.18 X,-0.03 Y,+1.10 Z,118 ENL,0 us*4F
$GPRMC,124512.000,A,4838.5538,N,00859.0716,E,15.27,294.05,020517,,,A*5D
$GPGGA,124512.000,4838.5538,N,00859.0716,E,1,10,0.83,535.3,M,48.0,M,,*63
$GPGSA,A,3,24,25,14,12,31,06,29,19,02,32,,,1.53,0.83,1.28*06
$GPVTG,294.05,T,,M,15.27,N,28.30,K,A*3F
$MLINK,0: 5.5 V,1: 100 % LQI,3: 0.0 m/s,4: 26.0 km/h,5: 52 m,6: 147 m*21
$SMGPS,52.0 m,-0.14 m/s,5.60 VRx,0.176 km,147 m,354.0 °,1:-- (  0.0 km/h)*EA
$SMGPS2,+0.20 X,-0.01 Y,+1.10 Z,109 ENL,0 us*46
$GPRMC,124513.000,A,4838.5548,N,00859.0652,E,15.62,274.35,020517,,,A*56
$GPGGA,124513.000,4838.5548,N,00859.0652,E,1,10,0.83,536.4,M,48.0,M,,*60
$GPGSA,A,3,24,25,14,12,31,06,29,19,02,32,,,1.53,0.83,1.28*06
$GPVTG,274.35,T,,M,15.60,N,28.91,K,A*3A
$MLINK,0: 5.7 V,1: 100 % LQI,3: 0.0 m/s,4: 28.2 km/h,5: 51 m,6: 152 m*28
$SMGPS,53.1 m,+0.44 m/s,5.60 VRx,0.183 km,153 m,352.5 °,1:-- (  0.0 km/h)*E5
$SMGPS2,+0.18 X,-0.03 Y,+0.95 Z,99 ENL,0 us*7B
$GPRMC,124514.000,A,4838.5545,N,00859.0584,E,15.65,260.80,020517,,,A*58
$GPGGA,124514.000,4838.5545,N,00859.0584,E,1,10,0.83,536.6,M,48.0,M,,*60
$GPGSA,A,3,24,25,14,12,31,06,29,19,02,32,,,1.53,0.83,1.28*06
$GPVTG,260.80,T,,M,15.64,N,28.98,K,A*3C
$MLINK,0: 5.7 V,1: 100 % LQI,3: 0.0 m/s,4: 28.9 km/h,5: 53 m,6: 157 m*24
$SMGPS,53.3 m,+0.42 m/s,5.60 VRx,0.191 km,157 m,350.3 °,1:-- (  0.0 km/h)*E2
$SMGPS2,+0.16 X,-0.03 Y,+1.03 Z,56 ENL,0 us*78
$GPRMC,124515.000,A,4838.5531,N,00859.0518,E,16.52,248.22,020517,,,A*5A
$GPGGA,124515.000,4838.5531,N,00859.0518,E,1,10,0.83,537.0,M,48.0,M,,*60
$GPGSA,A,3,24,25,14,12,31,06,29,19,02,32,,,1.53,0.83,1.28*06
$GPVTG,248.22,T,,M,16.50,N,30.57,K,A*30
$MLINK,0: 5.7 V,1: 100 % LQI,3: 0.0 m/s,4: 28.9 km/h,5: 53 m,6: 160 m*20
$SMGPS,53.7 m,+0.40 m/s,5.60 VRx,0.200 km,160 m,347.4 °,1:-- (  0.0 km/h)*EA
$SMGPS2,+0.15 X,-0.02 Y,+0.93 Z,48 ENL,0 us*7D
$GPRMC,124516.000,A,4838.5511,N,00859.0451,E,17.93,242.61,020517,,,A*56
$GPGGA,124516.000,4838.5511,N,00859.0451,E,1,10,0.83,536.7,M,48.0,M,,*6B
$GPGSA,A,3,24,25,14,12,31,06,29,19,02,32,,,1.53,0.83,1.28*06
$GPVTG,242.61,T,,M,17.93,N,33.22,K,A*32
$MLINK,0: 5.7 V,1: 100 % LQI,3: 0.0 m/s,4: 30.5 km/h,5: 53 m,6: 162 m*27
$SMGPS,53.4 m,+0.13 m/s,5.60 VRx,0.208 km,163 m,344.4 °,1:99 ( 27.3 km/h)*F1
$SMGPS2,+0.17 X,-0.02 Y,+1.01 Z,104 ENL,0 us*4C
$GPRMC,124517.000,A,4838.5486,N,00859.0381,E,19.35,242.67,020517,,,A*56
$GPGGA,124517.000,4838.5486,N,00859.0381,E,1,10,0.83,536.9,M,48.0,M,,*61
$GPGSA,A,3,24,25,14,12,31,06,29,19,02,32,,,1.53,0.83,1.28*06
$GPVTG,242.67,T,,M,19.35,N,35.85,K,A*3D
$MLINK,0: 5.7 V,1: 100 % LQI,3: 0.0 m/s,4: 33.2 km/h,5: 53 m,6: 162 m*23
$SMGPS,53.6 m,-0.09 m/s,5.60 VRx,0.217 km,162 m,341.2 °,1:99 ( 27.3 km/h)*F2
$SMGPS2,+0.16 X,-0.01 Y,+1.09 Z,41 ENL,0 us*76
$GPRMC,124518.000,A,4838.5461,N,00859.0307,E,19.36,242.87,020517,,,A*53
$GPGGA,124518.000,4838.5461,N,00859.0307,E,1,10,0.83,537.3,M,48.0,M,,*62
$GPGSA,A,3,24,25,14,12,31,06,29,19,02,32,,,1.53,0.83,1.28*06
$GPVTG,242.87,T,,M,19.35,N,35.86,K,A*30
$MLINK,0: 5.5 V,1: 100 % LQI,3: 0.0 m/s,4: 35.8 km/h,5: 53 m,6: 161 m*2E
$SMGPS,54.0 m,+0.40 m/s,5.59 VRx,0.227 km,162 m,337.8 °,1:99 ( 27.3 km/h)*FA
$SMGPS2,+0.15 X,-0.03 Y,+0.87 Z,66 ENL,0 us*75
$GPRMC,124519.000,A,4838.5433,N,00859.0236,E,19.39,235.64,020517,,,A*54
$GPGGA,124519.000,4838.5433,N,00859.0236,E,1,10,0.83,536.5,M,48.0,M,,*60
$GPGSA,A,3,24,25,14,12,31,06,29,19,02,32,,,1.53,0.83,1.28*06
$GPVTG,235.64,T,,M,19.39,N,35.92,K,A*34
$MLINK,0: 5.7 V,1: 100 % LQI,3: 0.0 m/s,4: 35.8 km/h,5: 54 m,6: 161 m*2B
$SMGPS,53.2 m,-0.01 m/s,5.59 VRx,0.237 km,161 m,334.1 °,1:99 ( 27.3 km/h)*F4
$SMGPS2,+0.14 X,-0.06 Y,+0.89 Z,66 ENL,0 us*7F
$GPRMC,124520.000,A,4838.5397,N,00859.0169,E,20.90,228.15,020517,,,A*5D
$GPGGA,124520.000,4838.5397,N,00859.0169,E,1,10,0.83,535.1,M,48.0,M,,*6D
$GPGSA,A,3,24,25,14,12,31,06,29,19,02,32,,,1.53,0.83,1.28*06
$GPVTG,228.15,T,,M,20.88,N,38.69,K,A*37
$MLINK,0: 5.7 V,1: 100 % LQI,3: 0.0 m/s,4: 35.9 km/h,5: 53 m,6: 160 m*2C
$SMGPS,51.8 m,-0.92 m/s,5.59 VRx,0.247 km,161 m,330.1 °,1:99 ( 27.3 km/h)*F5
$SMGPS2,+0.18 X,-0.06 Y,+1.10 Z,110 ENL,0 us*42
$GPRMC,124521.000,A,4838.5357,N,00859.0099,E,22.58,228.78,020517,,,A*53
$GPGGA,124521.000,4838.5357,N,00859.0099,E,1,10,0.83,534.4,M,48.0,M,,*6A
$GPGSA,A,3,24,25,14,12,31,06,29,19,02,32,,,1.53,0.83,1.28*06
$GPVTG,228.78,T,,M,22.56,N,41.80,K,A*34
$MLINK,0: 5.7 V,1: 100 % LQI,3: 0.0 m/s,4: 38.6 km/h,5: 51 m,6: 160 m*2C
$SMGPS,51.1 m,-0.97 m/s,5.60 VRx,0.258 km,161 m,326.4 °,1:99 ( 27.3 km/h)*FF
$SMGPS2,+0.21 X,-0.08 Y,+1.15 Z,248 ENL,0 us*4D
$GPRMC,124522.000,A,4838.5321,N,00859.0024,E,20.45,229.99,020517,,,A*57
$GPGGA,124522.000,4838.5321,N,00859.0024,E,1,10,0.82,535.7,M,48.0,M,,*6D
$GPGSA,A,3,24,25,14,12,31,06,29,19,02,32,,,1.14,0.82,0.79*01
$GPVTG,229.99,T,,M,20.45,N,37.89,K,A*32
$MLINK,0: 5.7 V,1: 100 % LQI,3: 0.0 m/s,4: 41.8 km/h,5: 51 m,6: 159 m*26
$SMGPS,52.4 m,-0.05 m/s,5.60 VRx,0.269 km,160 m,322.3 °,1:99 ( 27.3 km/h)*F2
$SMGPS2,+0.20 X,-0.05 Y,+1.14 Z,201 ENL,0 us*4D
$GPRMC,124523.000,A,4838.5304,N,00858.9953,E,15.92,260.95,020517,,,A*5D
$GPGGA,124523.000,4838.5304,N,00858.9953,E,1,10,0.83,536.1,M,48.0,M,,*6E
$GPGSA,A,3,24,25,14,12,31,06,29,19,02,32,,,1.53,0.83,1.28*06
$GPVTG,260.95,T,,M,15.92,N,29.50,K,A*34
$MLINK,0: 5.7 V,1: 100 % LQI,3: 0.0 m/s,4: 37.8 km/h,5: 52 m,6: 159 m*24
$SMGPS,52.8 m,+0.70 m/s,5.60 VRx,0.281 km,160 m,318.0 °,1:99 ( 27.3 km/h)*F6
$SMGPS2,+0.17 X,-0.06 Y,+1.04 Z,119 ENL,0 us*41
$GPRMC,124524.000,A,4838.5313,N,00858.9904,E,11.39,321.18,020517,,,A*5A
$GPGGA,124524.000,4838.5313,N,00858.9904,E,1,10,0.83,535.6,M,48.0,M,,*69
$GPGSA,A,3,24,25,14,12,31,06,29,19,02,32,,,1.53,0.83,1.28*06
$GPVTG,321.18,T,,M,11.39,N,21.11,K,A*3D
$MLINK,0: 5.7 V,1: 100 % LQI,3: 0.0 m/s,4: 29.4 km/h,5: 52 m,6: 161 m*2C
$SMGPS,52.3 m,+0.25 m/s,5.59 VRx,0.290 km,162 m,313.8 °,1:99 ( 27.3 km/h)*F6
$SMGPS2,+0.17 X,-0.05 Y,+0.97 Z,95 ENL,0 us*7C
$GPRMC,124525.000,A,4838.5348,N,00858.9899,E,15.67,15.12,020517,,,A*61
$GPGGA,124525.000,4838.5348,N,00858.9899,E,1,10,0.83,533.8,M,48.0,M,,*6B
$GPGSA,A,3,24,25,14,12,31,06,29,19,02,32,,,1.53,0.83,1.28*06
$GPVTG,15.12,T,,M,15.63,N,28.96,K,A*0E
$MLINK,0: 5.7 V,1: 100 % LQI,3: 0.0 m/s,4: 21.0 km/h,5: 52 m,6: 165 m*24
$SMGPS,50.5 m,-1.00 m/s,5.59 VRx,0.296 km,165 m,310.6 °,1:99 ( 27.3 km/h)*FE
$SMGPS2,+0.21 X,-0.05 Y,+1.18 Z,187 ENL,0 us*4D
$GPRMC,124526.000,A,4838.5390,N,00858.9949,E,24.55,52.43,020517,,,A*6F
$GPGGA,124526.000,4838.5390,N,00858.9949,E,1,10,0.83,530.8,M,48.0,M,,*62
$GPGSA,A,3,24,25,14,12,31,06,29,19,02,32,,,1.53,0.83,1.28*06
$GPVTG,52.43,T,,M,24.44,N,45.30,K,A*09
$MLINK,0: 5.7 V,1: 100 % LQI,3: 0.0 m/s,4: 29.0 km/h,5: 50 m,6: 170 m*2A
$SMGPS,47.5 m,-2.29 m/s,5.59 VRx,0.303 km,170 m,309.8 °,1:99 ( 27.3 km/h)*FF
$SMGPS2,+0.25 X,-0.04 Y,+1.28 Z,270 ENL,0 us*40
$GPRMC,124527.000,A,4838.5417,N,00859.0054,E,30.37,77.72,020517,,,A*6F
$GPGGA,124527.000,4838.5417,N,00859.0054,E,1,10,0.83,528.3,M,48.0,M,,*64
$GPGSA,A,3,24,25,14,12,31,06,29,19,02,32,,,1.53,0.83,1.28*06
$GPVTG,77.72,T,,M,30.23,N,56.01,K,A*08
$MLINK,0: 5.7 V,1: 100 % LQI,3: 0.0 m/s,4: 45.4 km/h,5: 47 m,6: 173 m*21
$SMGPS,45.0 m,-2.27 m/s,5.60 VRx,0.313 km,174 m,311.3 °,1:17 ( 34.3 km/h)*FF
$SMGPS2,+0.26 X,-0.03 Y,+1.09 Z,399 ENL,0 us*41
$GPRMC,124528.000,A,4838.5426,N,00859.0183,E,32.25,89.37,020517,,,A*68
$GPGGA,124528.000,4838.5426,N,00859.0183,E,1,10,0.83,526.3,M,48.0,M,,*6C
$GPGSA,A,3,24,25,14,12,31,06,29,19,02,32,,,1.53,0.83,1.28*06
$GPVTG,89.37,T,,M,32.09,N,59.46,K,A*0E
$MLINK,0: 5.7 V,1: 100 % LQI,3: 0.0 m/s,4: 56.2 km/h,5: 45 m,6: 174 m*20
$SMGPS,43.0 m,-2.28 m/s,5.59 VRx,0.326 km,174 m,314.8 °,1:17 ( 34.3 km/h)*F4
$SMGPS2,+0.27 X,-0.03 Y,+1.09 Z,373 ENL,0 us*44
$GPRMC,124529.000,A,4838.5424,N,00859.0320,E,33.78,92.55,020517,,,A*67
$GPGGA,124529.000,4838.5424,N,00859.0320,E,1,10,0.83,524.8,M,48.0,M,,*6D
$GPGSA,A,3,24,25,14,12,31,06,29,19,02,32,,,1.53,0.83,1.28*06
$GPVTG,92.55,T,,M,33.64,N,62.34,K,A*07
$MLINK,0: 5.7 V,1: 100 % LQI,3: 0.0 m/s,4: 59.7 km/h,5: 42 m,6: 168 m*20
$SMGPS,41.5 m,-2.18 m/s,5.60 VRx,0.342 km,168 m,319.1 °,1:17 ( 34.3 km/h)*F1
$SMGPS2,+0.27 X,-0.02 Y,+1.16 Z,374 ENL,0 us*4C
$GPRMC,124530.000,A,4838.5420,N,00859.0459,E,32.83,92.70,020517,,,A*60
$GPGGA,124530.000,4838.5420,N,00859.0459,E,1,10,0.83,524.7,M,48.0,M,,*67
$GPGSA,A,3,24,25,14,12,31,06,29,19,02,32,,,1.53,0.83,1.28*06
$GPVTG,92.70,T,,M,32.75,N,60.68,K,A*0A
$MLINK,0: 5.6 V,1: 100 % LQI,3: 0.0 m/s,4: 62.5 km/h,5: 41 m,6: 159 m*2A
$SMGPS,41.4 m,-0.65 m/s,5.59 VRx,0.359 km,160 m,324.1 °,1:17 ( 34.3 km/h)*FE
$SMGPS2,+0.24 X,-0.04 Y,+1.01 Z,365 ENL,0 us*4F
$GPRMC,124531.000,A,4838.5415,N,00859.0595,E,32.40,93.13,020517,,,A*6D
$GPGGA,124531.000,4838.5415,N,00859.0595,E,1,10,0.83,525.6,M,48.0,M,,*61
$GPGSA,A,3,24,25,14,12,31,06,29,19,02,32,,,1.53,0.83,1.28*06
$GPVTG,93.13,T,,M,32.38,N,60.01,K,A*08
$MLINK,0: 5.7 V,1: 100 % LQI,3: 0.0 m/s,4: 60.7 km/h,5: 41 m,6: 150 m*22
$SMGPS,42.3 m,-0.40 m/s,5.60 VRx,0.376 km,151 m,329.4 °,1:17 ( 34.3 km/h)*F0
$SMGPS2,+0.25 X,-0.03 Y,+1.22 Z,235 ENL,0 us*4C
$GPRMC,124532.000,A,4838.5409,N,00859.0721,E,28.89,95.28,020517,,,A*6E
$GPGGA,124532.000,4838.5409,N,00859.0721,E,1,10,0.83,527.1,M,48.0,M,,*67
$GPGSA,A,3,24,25,14,12,31,06,29,19,02,32,,,1.53,0.83,1.28*06
$GPVTG,95.28,T,,M,28.89,N,53.53,K,A*00
$MLINK,0: 5.5 V,1: 100 % LQI,3: 0.0 m/s,4: 60.0 km/h,5: 42 m,6: 142 m*27
$SMGPS,43.8 m,+1.02 m/s,5.59 VRx,0.393 km,143 m,335.5 °,1:17 ( 34.3 km/h)*F5
$SMGPS2,+0.19 X,-0.04 Y,+1.00 Z,189 ENL,0 us*40
$GPRMC,124533.000,A,4838.5400,N,00859.0829,E,23.77,97.29,020517,,,A*68
$GPGGA,124533.000,4838.5400,N,00859.0829,E,1,10,0.83,527.8,M,48.0,M,,*61
$GPGSA,A,3,24,25,14,12,31,06,29,19,02,32,,,1.53,0.83,1.28*06
$GPVTG,97.29,T,,M,23.77,N,44.04,K,A*0D
$MLINK,0: 5.5 V,1: 100 % LQI,3: 0.0 m/s,4: 53.5 km/h,5: 43 m,6: 136 m*20
$SMGPS,44.5 m,+1.45 m/s,5.60 VRx,0.408 km,137 m,342.0 °,1:17 ( 34.3 km/h)*F5
$SMGPS2,+0.12 X,-0.02 Y,+0.67 Z,27 ENL,0 us*78
$GPRMC,124534.000,A,4838.5392,N,00859.0927,E,24.22,97.09,020517,,,A*69
$GPGGA,124534.000,4838.5392,N,00859.0927,E,1,10,0.83,526.4,M,48.0,M,,*68
