$GPRMC,132044.800,A,4752.4904,N,01106.7065,E,1.30,266.32,170910,,,A*66
$GPGGA,132044.800,4752.4904,N,01106.7065,E,1,10,0.89,542.4,M,,,*13
$GPGSA,A,3,31,30,23,25,05,02,29,21,10,12,,,1.20,0.89,0.81*03
$GPVTG,266.32,T,,M,1.23,N,2.28,K,A*36
$GPRMC,132044.900,A,4752.4904,N,01106.7065,E,1.34,266.83,170910,,,A*69
$GPGGA,132044.900,4752.4904,N,01106.7065,E,1,10,0.89,542.4,M,,,*12
$GPGSA,A,3,31,30,23,25,05,02,29,21,10,12,,,1.20,0.89,0.81*03
$GPVTG,266.83,T,,M,1.28,N,2.37,K,A*39
$GPRMC,132045.000,A,4752.4904,N,01106.7064,E,1.39,267.24,170910,,,A*61
$GPGGA,132045.000,4752.4904,N,01106.7064,E,1,10,0.89,542.4,M,,,*1B
$GPGSA,A,3,31,30,23,25,05,02,29,21,10,12,,,1.20,0.89,0.81*03
$GPVTG,267.24,T,,M,1.33,N,2.46,K,A*39
$GPRMC,132045.100,A,4752.4904,N,01106.7063,E,1.35,267.55,170910,,,A*6D
$GPGGA,132045.100,4752.4904,N,01106.7063,E,1,10,0.89,542.4,M,,,*1D
$GPGSA,A,3,31,30,23,25,05,02,29,21,10,12,,,1.20,0.89,0.81*03
$GPVTG,267.55,T,,M,1.29,N,2.38,K,A*3D
$GPRMC,132045.200,A,4752.4904,N,01106.7063,E,1.33,267.70,170910,,,A*6F
$GPGGA,132045.200,4752.4904,N,01106.7063,E,1,10,0.89,542.4,M,,,*1E
$GPGSA,A,3,31,30,23,25,05,02,29,21,10,12,,,1.20,0.89,0.81*03
$GPVTG,267.70,T,,M,1.27,N,2.34,K,A*38
$GPRMC,132045.300,A,4752.4904,N,01106.7063,E,0.65,267.68,170910,,,A*65
$GPGGA,132045.300,4752.4904,N,01106.7063,E,1,10,0.89,542.4,M,,,*1F
$GPGSA,A,3,31,30,23,25,05,02,29,21,10,12,,,1.20,0.89,0.81*03
$GPVTG,267.68,T,,M,0.51,N,0.94,K,A*39
$GPRMC,132045.400,A,4752.4904,N,01106.7062,E,2.49,267.70,170910,,,A*66
$GPGGA,132045.400,4752.4904,N,01106.7062,E,1,10,0.89,543.4,M,,,*18
$GPGSA,A,3,31,30,23,25,05,02,29,21,10,12,,,1.20,0.89,0.81*03
$GPVTG,267.70,T,,M,1.26,N,2.33,K,A*3E
$GPRMC,132045.500,A,4752.4904,N,01106.7062,E,2.71,267.74,170910,,,A*68
$GPGGA,132045.500,4752.4904,N,01106.7062,E,1,10,0.89,543.7,M,,,*1A
$GPGSA,A,3,31,30,23,25,05,02,29,21,10,12,,,1.20,0.89,0.81*03
$GPVTG,267.74,T,,M,0.75,N,1.39,K,A*34
$GPRMC,132045.600,A,4752.4904,N,01106.7061,E,2.75,268.00,170910,,,A*60
$GPGGA,132045.600,4752.4904,N,01106.7061,E,1,10,0.89,543.9,M,,,*14
$GPGSA,A,3,31,30,23,25,05,02,29,21,10,12,,,1.20,0.89,0.81*03
$GPVTG,268.00,T,,M,0.49,N,0.91,K,A*34
$GPRMC,132045.700,A,4752.4904,N,01106.7061,E,2.41,268.40,170910,,,A*62
$GPGGA,132045.700,4752.4904,N,01106.7061,E,1,10,0.89,543.9,M,,,*15
$GPGSA,A,3,31,30,23,25,05,02,29,21,10,12,,,1.20,0.89,0.81*03
$GPVTG,268.40,T,,M,0.46,N,0.86,K,A*39
$GPRMC,132045.800,A,4752.4904,N,01106.7061,E,2.17,268.85,170910,,,A*67
$GPGGA,132045.800,4752.4904,N,01106.7061,E,1,10,0.89,543.9,M,,,*1A
$GPGSA,A,3,31,30,23,25,05,02,29,21,10,12,,,1.20,0.89,0.81*03
$GPVTG,268.85,T,,M,0.44,N,0.81,K,A*35
$GPRMC,132045.900,A,4752.4904,N,01106.7061,E,1.97,269.35,170910,,,A*67
$GPGGA,132045.900,4752.4904,N,01106.7061,E,1,10,0.99,543.9,M,,,*1A
$GPGSA,A,3,31,30,23,25,05,02,29,21,10,12,,,1.69,0.99,1.37*03
$GPVTG,269.35,T,,M,0.40,N,0.75,K,A*30
$GPRMC,132046.000,A,4752.4904,N,01106.7061,E,1.73,269.68,170910,,,A*6F
$GPGGA,132046.000,4752.4904,N,01106.7061,E,1,10,0.99,543.9,M,,,*10
$GPGSA,A,3,31,30,23,25,05,02,29,21,10,12,,,1.69,0.99,1.37*03
$GPVTG,269.68,T,,M,0.33,N,0.61,K,A*39
$GPRMC,132046.100,A,4752.4904,N,01106.7061,E,1.55,269.90,170910,,,A*6D
$GPGGA,132046.100,4752.4904,N,01106.7061,E,1,10,0.99,543.9,M,,,*11
$GPGSA,A,3,31,30,23,25,05,02,29,21,10,12,,,1.69,0.99,1.37*03
$GPVTG,269.90,T,,M,0.16,N,0.29,K,A*35
$GPRMC,132046.200,A,4752.4904,N,01106.7061,E,1.46,269.99,170910,,,A*65
$GPGGA,132046.200,4752.4904,N,01106.7061,E,1,10,0.99,543.9,M,,,*12
$GPGSA,A,3,31,30,23,25,05,02,29,21,10,12,,,1.69,0.99,1.37*03
$GPVTG,269.99,T,,M,0.12,N,0.23,K,A*32
$GPRMC,132046.300,A,4752.4904,N,01106.7061,E,1.29,269.86,170910,,,A*63
$GPGGA,132046.300,4752.4904,N,01106.7061,E,1,10,0.99,543.9,M,,,*13
$GPGSA,A,3,31,30,23,25,05,02,29,21,10,12,,,1.69,0.99,1.37*03
$GPVTG,269.86,T,,M,0.13,N,0.25,K,A*3B
$GPRMC,132046.400,A,4752.4904,N,01106.7061,E,1.22,269.32,170910,,,A*60
$GPGGA,132046.400,4752.4904,N,01106.7061,E,1,10,0.99,543.9,M,,,*14
$GPGSA,A,3,31,30,23,25,05,02,29,21,10,12,,,1.69,0.99,1.37*03
$GPVTG,269.32,T,,M,0.49,N,0.90,K,A*35
$GPRMC,132046.500,A,4752.4904,N,01106.7061,E,1.42,267.71,170910,,,A*6E
$GPGGA,132046.500,4752.4904,N,01106.7061,E,1,10,0.99,543.9,M,,,*15
$GPGSA,A,3,31,30,23,25,05,02,29,21,10,12,,,1.69,0.99,1.37*03
$GPVTG,267.71,T,,M,0.93,N,1.72,K,A*36
$GPRMC,132046.600,A,4752.4904,N,01106.7061,E,6.17,257.13,170910,,,A*6D
$GPGGA,132046.600,4752.4904,N,01106.7061,E,1,10,0.89,544.0,M,,,*19
$GPGSA,A,3,31,30,23,25,05,02,29,21,10,12,,,1.20,0.89,0.81*03
$GPVTG,257.13,T,,M,6.08,N,11.26,K,A*05
$GPRMC,132046.700,A,4752.4902,N,01106.7061,E,6.35,246.79,170910,,,A*66
$GPGGA,132046.700,4752.4902,N,01106.7061,E,1,9,1.10,544.0,M,,,*27
$GPGSA,A,3,31,30,23,05,02,29,21,10,12,,,,1.78,1.10,1.40*04
$GPVTG,246.79,T,,M,6.27,N,11.62,K,A*04
$GPRMC,132046.800,A,4752.4900,N,01106.7061,E,6.17,237.76,170910,,,A*62
$GPGGA,132046.800,4752.4900,N,01106.7061,E,1,8,1.27,544.1,M,,,*2E
$GPGSA,A,3,30,23,05,02,29,21,10,12,,,,,1.91,1.27,1.43*06
$GPVTG,237.76,T,,M,6.07,N,11.25,K,A*0C
$GPRMC,132046.900,A,4752.4899,N,01106.7061,E,5.68,230.54,170910,,,A*6E
$GPGGA,132046.900,4752.4899,N,01106.7061,E,1,6,1.27,544.1,M,,,*20
$GPGSA,A,3,30,23,05,29,21,12,,,,,,,1.91,1.27,1.43*05
$GPVTG,230.54,T,,M,5.60,N,10.38,K,A*04
$GPRMC,132047.000,A,4752.4897,N,01106.7061,E,5.04,224.96,170910,,,A*69
$GPGGA,132047.000,4752.4897,N,01106.7061,E,1,6,1.27,544.0,M,,,*27
$GPGSA,A,3,30,23,05,29,21,12,,,,,,,1.91,1.27,1.43*05
$GPVTG,224.96,T,,M,4.99,N,9.24,K,A*3D
$GPRMC,132047.100,A,4752.4896,N,01106.7061,E,4.40,220.79,170910,,,A*6D
$GPGGA,132047.100,4752.4896,N,01106.7061,E,1,6,1.27,543.9,M,,,*29
$GPGSA,A,3,30,23,05,29,21,12,,,,,,,1.91,1.27,1.43*05
$GPVTG,220.79,T,,M,4.37,N,8.09,K,A*32
$GPRMC,132047.200,A,4752.4895,N,01106.7061,E,3.22,218.36,170910,,,A*6E
$GPGGA,132047.200,4752.4895,N,01106.7061,E,1,8,1.04,543.9,M,,,*26
$GPGSA,A,3,31,30,23,05,29,21,10,12,,,,,1.74,1.04,1.40*0F
$GPVTG,218.36,T,,M,3.19,N,5.92,K,A*36
$GPRMC,132047.300,A,4752.4894,N,01106.7061,E,2.41,216.78,170910,,,A*6E
$GPGGA,132047.300,4752.4894,N,01106.7061,E,1,8,0.96,543.9,M,,,*2C
$GPGSA,A,3,31,30,23,05,29,21,10,12,,,,,1.26,0.96,0.81*0E
$GPVTG,216.78,T,,M,2.39,N,4.44,K,A*3B
$GPRMC,132047.400,A,4752.4893,N,01106.7061,E,1.48,215.21,170910,,,A*6B
$GPGGA,132047.400,4752.4893,N,01106.7061,E,1,8,0.96,543.9,M,,,*2C
$GPGSA,A,3,31,30,23,05,29,21,10,12,,,,,1.26,0.96,0.81*0E
$GPVTG,215.21,T,,M,1.45,N,2.68,K,A*34
$GPRMC,132047.500,A,4752.4893,N,01106.7061,E,1.14,213.83,170910,,,A*6D
$GPGGA,132047.500,4752.4893,N,01106.7061,E,1,9,0.91,543.9,M,,,*2B
$GPGSA,A,3,31,30,23,05,02,29,21,10,12,,,,1.22,0.91,0.81*0F
$GPVTG,213.83,T,,M,1.11,N,2.05,K,A*30
$GPRMC,132047.600,A,4752.4892,N,01106.7061,E,0.91,212.68,170910,,,A*67
$GPGGA,132047.600,4752.4892,N,01106.7061,E,1,9,0.91,543.9,M,,,*29
$GPGSA,A,3,31,30,23,05,02,29,21,10,12,,,,1.22,0.91,0.81*0F
$GPVTG,212.68,T,,M,0.87,N,1.61,K,A*3B
$GPRMC,132047.700,A,4752.4892,N,01106.7062,E,0.54,212.03,170910,,,A*61
$GPGGA,132047.700,4752.4892,N,01106.7062,E,1,9,0.91,543.9,M,,,*2B
$GPGSA,A,3,31,30,23,05,02,29,21,10,12,,,,1.22,0.91,0.81*0F
$GPVTG,212.03,T,,M,0.48,N,0.89,K,A*32
$GPRMC,132047.800,A,4752.4892,N,01106.7062,E,0.52,211.47,170910,,,A*6B
$GPGGA,132047.800,4752.4892,N,01106.7062,E,1,9,0.91,543.9,M,,,*24
$GPGSA,A,3,31,30,23,05,02,29,21,10,12,,,,1.22,0.91,0.81*0F
$GPVTG,211.47,T,,M,0.47,N,0.87,K,A*30
$GPRMC,132047.900,A,4752.4892,N,01106.7062,E,0.59,210.92,170910,,,A*68
$GPGGA,132047.900,4752.4892,N,01106.7062,E,1,9,1.01,544.0,M,,,*23
$GPGSA,A,3,31,30,23,05,02,29,21,10,12,,,,1.71,1.01,1.39*03
$GPVTG,210.92,T,,M,0.46,N,0.86,K,A*39
$GPRMC,132048.000,A,4752.4892,N,01106.7062,E,0.46,210.46,170910,,,A*69
$GPGGA,132048.000,4752.4892,N,01106.7062,E,1,9,1.19,543.9,M,,,*22
$GPGSA,A,3,31,30,23,25,05,02,21,10,12,,,,2.40,1.19,2.08*06
$GPVTG,210.46,T,,M,0.40,N,0.74,K,A*3B
$GPRMC,132048.100,A,4752.4892,N,01106.7062,E,0.41,209.92,170910,,,A*6E
$GPGGA,132048.100,4752.4892,N,01106.7062,E,1,9,1.19,543.9,M,,,*23
$GPGSA,A,3,31,30,23,25,05,02,21,10,12,,,,2.40,1.19,2.08*06
$GPVTG,209.92,T,,M,0.38,N,0.71,K,A*30
$GPRMC,132048.200,A,4752.4892,N,01106.7062,E,0.40,209.44,170910,,,A*67
$GPGGA,132048.200,4752.4892,N,01106.7062,E,1,9,1.19,543.9,M,,,*20
$GPGSA,A,3,31,30,23,25,05,02,21,10,12,,,,2.40,1.19,2.08*06
$GPVTG,209.44,T,,M,0.35,N,0.66,K,A*30
$GPRMC,132048.300,A,4752.4892,N,01106.7063,E,0.35,209.00,170910,,,A*65
$GPGGA,132048.300,4752.4892,N,01106.7063,E,1,8,1.23,543.9,M,,,*28
$GPGSA,A,3,31,30,23,25,05,21,10,12,,,,,2.42,1.23,2.08*0F
$GPVTG,209.00,T,,M,0.32,N,0.60,K,A*31
$GPRMC,132048.400,A,4752.4892,N,01106.7063,E,0.30,208.62,170910,,,A*62
$GPGGA,132048.400,4752.4892,N,01106.7063,E,1,9,1.03,543.9,M,,,*2C
$GPGSA,A,3,31,30,23,25,05,29,21,10,12,,,,1.72,1.03,1.38*06
$GPVTG,208.62,T,,M,0.29,N,0.54,K,A*39
$GPRMC,132048.500,A,4752.4892,N,01106.7063,E,0.26,208.28,170910,,,A*6A
$GPGGA,132048.500,4752.4892,N,01106.7063,E,1,9,1.03,543.9,M,,,*2D
$GPGSA,A,3,31,30,23,25,05,29,21,10,12,,,,1.72,1.03,1.38*06
$GPVTG,208.28,T,,M,0.26,N,0.49,K,A*34
$GPRMC,132048.600,A,4752.4892,N,01106.7063,E,0.23,208.01,170910,,,A*67
$GPGGA,132048.600,4752.4892,N,01106.7063,E,1,9,1.03,543.8,M,,,*2F
$GPGSA,A,3,31,30,23,25,05,29,21,10,12,,,,1.72,1.03,1.38*06
$GPVTG,208.01,T,,M,0.22,N,0.41,K,A*33
$GPRMC,132048.700,A,4752.4892,N,01106.7063,E,0.18,207.78,170910,,,A*6F
$GPGGA,132048.700,4752.4892,N,01106.7063,E,1,9,1.03,543.8,M,,,*2E
$GPGSA,A,3,31,30,23,25,05,29,21,10,12,,,,1.72,1.03,1.38*06
$GPVTG,207.78,T,,M,0.18,N,0.33,K,A*3E
$GPRMC,132048.800,A,4752.4892,N,01106.7063,E,0.16,207.56,170910,,,A*62
$GPGGA,132048.800,4752.4892,N,01106.7063,E,1,9,1.03,543.8,M,,,*21
$GPGSA,A,3,31,30,23,25,05,29,21,10,12,,,,1.72,1.03,1.38*06
$GPVTG,207.56,T,,M,0.15,N,0.27,K,A*3A
$GPRMC,132048.900,A,4752.4892,N,01106.7063,E,0.11,207.44,170910,,,A*67
$GPGGA,132048.900,4752.4892,N,01106.7063,E,1,9,1.03,543.8,M,,,*20
$GPGSA,A,3,31,30,23,25,05,29,21,10,12,,,,1.72,1.03,1.38*06
$GPVTG,207.44,T,,M,0.11,N,0.20,K,A*3A
$GPRMC,132049.000,A,4752.4892,N,01106.7063,E,0.08,207.30,170910,,,A*64
$GPGGA,132049.000,4752.4892,N,01106.7063,E,1,8,1.23,543.9,M,,,*2A
$GPGSA,A,3,31,30,23,25,05,21,10,12,,,,,2.42,1.23,2.08*0F
$GPVTG,207.30,T,,M,0.08,N,0.15,K,A*37
$GPRMC,132049.100,A,4752.4892,N,01106.7063,E,0.06,207.20,170910,,,A*6A
$GPGGA,132049.100,4752.4892,N,01106.7063,E,1,8,1.23,543.8,M,,,*2A
$GPGSA,A,3,31,30,23,25,05,21,10,12,,,,,2.42,1.23,2.08*0F
$GPVTG,207.20,T,,M,0.06,N,0.12,K,A*3F
$GPRMC,132049.200,A,4752.4892,N,01106.7063,E,0.12,207.06,170910,,,A*68
$GPGGA,132049.200,4752.4892,N,01106.7063,E,1,8,1.23,543.8,M,,,*29
$GPGSA,A,3,31,30,23,25,05,21,10,12,,,,,2.42,1.23,2.08*0F
$GPVTG,207.06,T,,M,0.05,N,0.10,K,A*3A
$GPRMC,132049.300,A,4752.4892,N,01106.7063,E,0.06,206.94,170910,,,A*66
$GPGGA,132049.300,4752.4892,N,01106.7063,E,1,8,1.23,543.8,M,,,*28
$GPGSA,A,3,31,30,23,25,05,21,10,12,,,,,2.42,1.23,2.08*0F
$GPVTG,206.94,T,,M,0.05,N,0.09,K,A*38
$GPRMC,132049.400,A,4752.4891,N,01106.7064,E,0.23,206.86,170910,,,A*61
$GPGGA,132049.400,4752.4891,N,01106.7064,E,1,8,1.23,543.7,M,,,*24
$GPGSA,A,3,31,30,23,25,05,21,10,12,,,,,2.42,1.23,2.08*0F
$GPVTG,206.86,T,,M,0.04,N,0.08,K,A*3B
$GPRMC,132049.500,A,4752.4892,N,01106.7066,E,0.18,206.80,170910,,,A*6F
$GPGGA,132049.500,4752.4892,N,01106.7066,E,1,8,1.23,543.7,M,,,*24
$GPGSA,A,3,31,30,23,25,05,21,10,12,,,,,2.42,1.23,2.08*0F
$GPVTG,206.80,T,,M,0.07,N,0.13,K,A*34
$GPRMC,132049.600,A,4752.4891,N,01106.7066,E,0.21,206.75,170910,,,A*6F
$GPGGA,132049.600,4752.4891,N,01106.7066,E,1,8,1.23,543.7,M,,,*24
$GPGSA,A,3,31,30,23,25,05,21,10,12,,,,,2.42,1.23,2.08*0F
$GPVTG,206.75,T,,M,0.08,N,0.15,K,A*37
$GPRMC,132049.700,A,4752.4890,N,01106.7067,E,0.39,206.69,170910,,,A*6A
$GPGGA,132049.700,4752.4890,N,01106.7067,E,1,8,1.23,543.6,M,,,*24
$GPGSA,A,3,31,30,23,25,05,21,10,12,,,,,2.42,1.23,2.08*0F
$GPVTG,206.69,T,,M,0.07,N,0.14,K,A*34
$GPRMC,132049.800,A,4752.4889,N,01106.7068,E,0.46,206.62,170910,,,A*61
$GPGGA,132049.800,4752.4889,N,01106.7068,E,1,8,1.23,543.6,M,,,*2C
$GPGSA,A,3,31,30,23,25,05,21,10,12,,,,,2.42,1.23,2.08*0F
$GPVTG,206.62,T,,M,0.07,N,0.12,K,A*39
$GPRMC,132049.900,A,4752.4889,N,01106.7069,E,0.47,206.55,170910,,,A*64
$GPGGA,132049.900,4752.4889,N,01106.7069,E,1,8,1.23,543.5,M,,,*2F
$GPGSA,A,3,31,30,23,25,05,21,10,12,,,,,2.42,1.23,2.08*0F
$GPVTG,206.55,T,,M,0.06,N,0.11,K,A*3F
$GPRMC,132050.000,A,4752.4888,N,01106.7070,E,0.32,206.47,170910,,,A*6D
$GPGGA,132050.000,4752.4888,N,01106.7070,E,1,8,1.23,543.6,M,,,*24
$GPGSA,A,3,31,30,23,25,05,21,10,12,,,,,2.42,1.23,2.08*0F
$GPVTG,206.47,T,,M,0.05,N,0.09,K,A*36
$GPRMC,132050.100,A,4752.4888,N,01106.7071,E,0.16,206.39,170910,,,A*62
$GPGGA,132050.100,4752.4888,N,01106.7071,E,1,8,1.23,543.6,M,,,*24
$GPGSA,A,3,31,30,23,25,05,21,10,12,,,,,2.42,1.23,2.08*0F
$GPVTG,206.39,T,,M,0.05,N,0.10,K,A*37
$GPRMC,132050.200,A,4752.4887,N,01106.7072,E,0.16,206.27,170910,,,A*62
$GPGGA,132050.200,4752.4887,N,01106.7072,E,1,8,1.23,543.6,M,,,*2B
$GPGSA,A,3,31,30,23,25,05,21,10,12,,,,,2.42,1.23,2.08*0F
$GPVTG,206.27,T,,M,0.06,N,0.10,K,A*3B
$GPRMC,132050.300,A,4752.4887,N,01106.7072,E,0.09,206.17,170910,,,A*6E
$GPGGA,132050.300,4752.4887,N,01106.7072,E,1,8,1.23,543.7,M,,,*2B
$GPGSA,A,3,31,30,23,25,05,21,10,12,,,,,2.42,1.23,2.08*0F
$GPVTG,206.17,T,,M,0.06,N,0.11,K,A*39
$GPRMC,132050.400,A,4752.4887,N,01106.7073,E,0.09,206.05,170910,,,A*6B
$GPGGA,132050.400,4752.4887,N,01106.7073,E,1,8,1.23,543.7,M,,,*2D
$GPGSA,A,3,31,30,23,25,05,21,10,12,,,,,2.42,1.23,2.08*0F
$GPVTG,206.05,T,,M,0.06,N,0.12,K,A*39
$GPRMC,132050.500,A,4752.4886,N,01106.7073,E,0.11,205.93,170910,,,A*6E
$GPGGA,132050.500,4752.4886,N,01106.7073,E,1,8,1.23,543.7,M,,,*2D
$GPGSA,A,3,31,30,23,25,05,21,10,12,,,,,2.42,1.23,2.08*0F
$GPVTG,205.93,T,,M,0.07,N,0.14,K,A*32
$GPRMC,132050.600,A,4752.4886,N,01106.7073,E,0.17,205.82,170910,,,A*6B
$GPGGA,132050.600,4752.4886,N,01106.7073,E,1,8,1.23,543.6,M,,,*2F
$GPGSA,A,3,31,30,23,25,05,21,10,12,,,,,2.42,1.23,2.08*0F
$GPVTG,205.82,T,,M,0.08,N,0.15,K,A*3C
$GPRMC,132050.700,A,4752.4886,N,01106.7074,E,0.10,205.70,170910,,,A*67
$GPGGA,132050.700,4752.4886,N,01106.7074,E,1,8,1.23,543.7,M,,,*28
$GPGSA,A,3,31,30,23,25,05,21,10,12,,,,,2.42,1.23,2.08*0F
$GPVTG,205.70,T,,M,0.09,N,0.16,K,A*33
$GPRMC,132050.800,A,4752.4886,N,01106.7074,E,0.12,205.57,170910,,,A*6F
$GPGGA,132050.800,4752.4886,N,01106.7074,E,1,8,1.23,543.6,M,,,*26
$GPGSA,A,3,31,30,23,25,05,21,10,12,,,,,2.42,1.23,2.08*0F
$GPVTG,205.57,T,,M,0.09,N,0.16,K,A*36
$GPRMC,132050.900,A,4752.4886,N,01106.7074,E,0.08,205.44,170910,,,A*67
$GPGGA,132050.900,4752.4886,N,01106.7074,E,1,8,1.23,543.7,M,,,*26
$GPGSA,A,3,31,30,23,25,05,21,10,12,,,,,2.42,1.23,2.08*0F
$GPVTG,205.44,T,,M,0.08,N,0.15,K,A*36
$GPRMC,132051.000,A,4752.4887,N,01106.7075,E,0.08,205.32,170910,,,A*6E
$GPGGA,132051.000,4752.4887,N,01106.7075,E,1,8,1.23,543.7,M,,,*2E
$GPGSA,A,3,31,30,23,25,05,21,10,12,,,,,2.42,1.23,2.08*0F
$GPVTG,205.32,T,,M,0.08,N,0.14,K,A*36
$GPRMC,132051.100,A,4752.4887,N,01106.7075,E,0.05,205.22,170910,,,A*63
$GPGGA,132051.100,4752.4887,N,01106.7075,E,1,8,1.23,543.7,M,,,*2F
$GPGSA,A,3,31,30,23,25,05,21,10,12,,,,,2.42,1.23,2.08*0F
$GPVTG,205.22,T,,M,0.05,N,0.10,K,A*3E
$GPRMC,132051.200,A,4752.4887,N,01106.7075,E,0.22,205.13,170910,,,A*67
$GPGGA,132051.200,4752.4887,N,01106.7075,E,1,8,1.23,543.8,M,,,*23
$GPGSA,A,3,31,30,23,25,05,21,10,12,,,,,2.42,1.23,2.08*0F
$GPVTG,205.13,T,,M,0.05,N,0.10,K,A*3C
$GPRMC,132051.300,A,4752.4887,N,01106.7075,E,0.28,205.04,170910,,,A*6A
$GPGGA,132051.300,4752.4887,N,01106.7075,E,1,8,1.23,543.8,M,,,*22
$GPGSA,A,3,31,30,23,25,05,21,10,12,,,,,2.42,1.23,2.08*0F
$GPVTG,205.04,T,,M,0.06,N,0.11,K,A*38
$GPRMC,132051.400,A,4752.4887,N,01106.7075,E,0.49,204.93,170910,,,A*65
$GPGGA,132051.400,4752.4887,N,01106.7075,E,1,8,1.23,544.0,M,,,*2A
$GPGSA,A,3,31,30,23,25,05,21,10,12,,,,,2.42,1.23,2.08*0F
$GPVTG,204.93,T,,M,0.07,N,0.12,K,A*35
$GPRMC,132051.500,A,4752.4887,N,01106.7075,E,0.70,204.91,170910,,,A*6C
$GPGGA,132051.500,4752.4887,N,01106.7075,E,1,8,1.23,544.1,M,,,*2A
$GPGSA,A,3,31,30,23,25,05,21,10,12,,,,,2.42,1.23,2.08*0F
$GPVTG,204.91,T,,M,0.01,N,0.02,K,A*30
$GPRMC,132051.600,A,4752.4887,N,01106.7075,E,0.79,205.03,170910,,,A*6C
$GPGGA,132051.600,4752.4887,N,01106.7075,E,1,9,1.03,544.2,M,,,*29
$GPGSA,A,3,31,30,23,25,05,29,21,10,12,,,,1.72,1.03,1.38*06
$GPVTG,205.03,T,,M,0.07,N,0.13,K,A*3C
$GPRMC,132051.700,A,4752.4887,N,01106.7075,E,1.06,205.36,170910,,,A*62
$GPGGA,132051.700,4752.4887,N,01106.7075,E,1,9,1.03,544.3,M,,,*29
$GPGSA,A,3,31,30,23,25,05,29,21,10,12,,,,1.72,1.03,1.38*06
$GPVTG,205.36,T,,M,0.18,N,0.33,K,A*36
$GPRMC,132051.800,A,4752.4887,N,01106.7075,E,1.06,205.84,170910,,,A*64
$GPGGA,132051.800,4752.4887,N,01106.7075,E,1,9,1.03,544.4,M,,,*21
$GPGSA,A,3,31,30,23,25,05,29,21,10,12,,,,1.72,1.03,1.38*06
$GPVTG,205.84,T,,M,0.25,N,0.46,K,A*33
$GPRMC,132051.900,A,4752.4887,N,01106.7075,E,1.12,206.49,170910,,,A*62
$GPGGA,132051.900,4752.4887,N,01106.7075,E,1,9,1.03,544.5,M,,,*21
$GPGSA,A,3,31,30,23,25,05,29,21,10,12,,,,1.72,1.03,1.38*06
$GPVTG,206.49,T,,M,0.32,N,0.58,K,A*38
$GPRMC,132052.000,A,4752.4887,N,01106.7075,E,1.16,207.30,170910,,,A*63
$GPGGA,132052.000,4752.4887,N,01106.7075,E,1,9,1.03,544.5,M,,,*2B
$GPGSA,A,3,31,30,23,25,05,29,21,10,12,,,,1.72,1.03,1.38*06
$GPVTG,207.30,T,,M,0.38,N,0.70,K,A*37
$GPRMC,132052.100,A,4752.4887,N,01106.7075,E,1.36,208.29,170910,,,A*67
$GPGGA,132052.100,4752.4887,N,01106.7075,E,1,9,1.03,544.7,M,,,*28
$GPGSA,A,3,31,30,23,25,05,29,21,10,12,,,,1.72,1.03,1.38*06
$GPVTG,208.29,T,,M,0.42,N,0.79,K,A*34
$GPRMC,132052.200,A,4752.4887,N,01106.7075,E,1.29,209.79,170910,,,A*6E
$GPGGA,132052.200,4752.4887,N,01106.7075,E,1,9,1.03,544.8,M,,,*24
$GPGSA,A,3,31,30,23,25,05,29,21,10,12,,,,1.72,1.03,1.38*06
$GPVTG,209.79,T,,M,0.34,N,0.62,K,A*3B
$GPRMC,132052.300,A,4752.4887,N,01106.7075,E,1.28,211.09,170910,,,A*60
$GPGGA,132052.300,4752.4887,N,01106.7075,E,1,9,0.94,544.8,M,,,*2A
$GPGSA,A,3,31,30,23,25,05,29,21,10,12,,,,1.24,0.94,0.81*09
$GPVTG,211.09,T,,M,0.27,N,0.50,K,A*36
$GPRMC,132052.400,A,4752.4887,N,01106.7075,E,1.39,212.86,170910,,,A*63
$GPGGA,132052.400,4752.4887,N,01106.7075,E,1,9,0.94,544.9,M,,,*2C
$GPGSA,A,3,31,30,23,25,05,29,21,10,12,,,,1.24,0.94,0.81*09
$GPVTG,212.86,T,,M,0.36,N,0.66,K,A*37
$GPRMC,132052.500,A,4752.4887,N,01106.7075,E,1.33,214.38,170910,,,A*6B
$GPGGA,132052.500,4752.4887,N,01106.7075,E,1,9,0.94,545.0,M,,,*25
$GPGSA,A,3,31,30,23,25,05,29,21,10,12,,,,1.24,0.94,0.81*09
$GPVTG,214.38,T,,M,0.29,N,0.54,K,A*3B
$GPRMC,132052.600,A,4752.4887,N,01106.7074,E,1.33,216.02,170910,,,A*62
$GPGGA,132052.600,4752.4887,N,01106.7074,E,1,9,0.94,545.0,M,,,*27
$GPGSA,A,3,31,30,23,25,05,29,21,10,12,,,,1.24,0.94,0.81*09
$GPVTG,216.02,T,,M,0.31,N,0.58,K,A*35
$GPRMC,132052.700,A,4752.4887,N,01106.7074,E,1.29,217.69,170910,,,A*64
$GPGGA,132052.700,4752.4887,N,01106.7074,E,1,9,0.94,545.1,M,,,*27
$GPGSA,A,3,31,30,23,25,05,29,21,10,12,,,,1.24,0.94,0.81*09
$GPVTG,217.69,T,,M,0.30,N,0.56,K,A*36
$GPRMC,132052.800,A,4752.4888,N,01106.7074,E,1.10,219.17,170910,,,A*69
$GPGGA,132052.800,4752.4888,N,01106.7074,E,1,9,0.94,545.1,M,,,*27
$GPGSA,A,3,31,30,23,25,05,29,21,10,12,,,,1.24,0.94,0.81*09
$GPVTG,219.17,T,,M,0.26,N,0.48,K,A*39
$GPRMC,132052.900,A,4752.4888,N,01106.7074,E,1.09,220.31,170910,,,A*6E
$GPGGA,132052.900,4752.4888,N,01106.7074,E,1,9,0.94,545.1,M,,,*26
$GPGSA,A,3,31,30,23,25,05,29,21,10,12,,,,1.24,0.94,0.81*09
$GPVTG,220.31,T,,M,0.19,N,0.36,K,A*32
$GPRMC,132053.000,A,4752.4888,N,01106.7074,E,0.83,221.28,170910,,,A*6C
$GPGGA,132053.000,4752.4888,N,01106.7074,E,1,9,0.94,545.0,M,,,*2F
$GPGSA,A,3,31,30,23,25,05,29,21,10,12,,,,1.24,0.94,0.81*09
$GPVTG,221.28,T,,M,0.17,N,0.32,K,A*31
$GPRMC,132053.100,A,4752.4888,N,01106.7074,E,0.68,221.70,170910,,,A*65
$GPGGA,132053.100,4752.4888,N,01106.7074,E,1,9,0.94,545.0,M,,,*2E
$GPGSA,A,3,31,30,23,25,05,29,21,10,12,,,,1.24,0.94,0.81*09
$GPVTG,221.70,T,,M,0.08,N,0.14,K,A*36
$GPRMC,132053.200,A,4752.4888,N,01106.7074,E,0.39,222.22,170910,,,A*66
$GPGGA,132053.200,4752.4888,N,01106.7074,E,1,9,0.94,544.9,M,,,*25
$GPGSA,A,3,31,30,23,25,05,29,21,10,12,,,,1.24,0.94,0.81*09
$GPVTG,222.22,T,,M,0.08,N,0.15,K,A*33
$GPRMC,132053.300,A,4752.4888,N,01106.7074,E,0.41,222.76,170910,,,A*69
$GPGGA,132053.300,4752.4888,N,01106.7074,E,1,9,0.94,544.9,M,,,*24
$GPGSA,A,3,31,30,23,25,05,29,21,10,12,,,,1.24,0.94,0.81*09
$GPVTG,222.76,T,,M,0.08,N,0.15,K,A*32
$GPRMC,132053.400,A,4752.4888,N,01106.7074,E,0.27,222.95,170910,,,A*63
$GPGGA,132053.400,4752.4888,N,01106.7074,E,1,9,0.94,544.9,M,,,*23
$GPGSA,A,3,31,30,23,25,05,29,21,10,12,,,,1.24,0.94,0.81*09
$GPVTG,222.95,T,,M,0.04,N,0.07,K,A*30
$GPRMC,132053.500,A,4752.4888,N,01106.7074,E,0.29,223.11,170910,,,A*61
$GPGGA,132053.500,4752.4888,N,01106.7074,E,1,9,1.03,544.9,M,,,*2D
$GPGSA,A,3,31,30,23,25,05,29,21,10,12,,,,1.72,1.03,1.38*06
$GPVTG,223.11,T,,M,0.04,N,0.07,K,A*3D
$GPRMC,132053.600,A,4752.4888,N,01106.7074,E,0.10,223.05,170910,,,A*6D
$GPGGA,132053.600,4752.4888,N,01106.7074,E,1,9,1.03,544.8,M,,,*2F
$GPGSA,A,3,31,30,23,25,05,29,21,10,12,,,,1.72,1.03,1.38*06
$GPVTG,223.05,T,,M,0.02,N,0.04,K,A*3D
$GPRMC,132053.700,A,4752.4888,N,01106.7074,E,0.04,222.91,170910,,,A*65
$GPGGA,132053.700,4752.4888,N,01106.7074,E,1,9,0.94,544.7,M,,,*2E
$GPGSA,A,3,31,30,23,25,05,29,21,10,12,,,,1.24,0.94,0.81*09
$GPVTG,222.91,T,,M,0.02,N,0.04,K,A*31
$GPRMC,132053.800,A,4752.4888,N,01106.7074,E,0.07,222.61,170910,,,A*66
$GPGGA,132053.800,4752.4888,N,01106.7074,E,1,9,0.94,544.7,M,,,*21
$GPGSA,A,3,31,30,23,25,05,29,21,10,12,,,,1.24,0.94,0.81*09
$GPVTG,222.61,T,,M,0.06,N,0.12,K,A*3D
$GPRMC,132053.900,A,4752.4888,N,01106.7074,E,0.04,222.62,170910,,,A*67
$GPGGA,132053.900,4752.4888,N,01106.7074,E,1,9,0.94,544.7,M,,,*20
$GPGSA,A,3,31,30,23,25,05,29,21,10,12,,,,1.24,0.94,0.81*09
$GPVTG,222.62,T,,M,0.01,N,0.02,K,A*38
$GPRMC,132054.000,A,4752.4888,N,01106.7074,E,0.04,222.53,170910,,,A*6B
$GPGGA,132054.000,4752.4888,N,01106.7074,E,1,9,0.94,544.7,M,,,*2E
$GPGSA,A,3,31,30,23,25,05,29,21,10,12,,,,1.24,0.94,0.81*09
$GPVTG,222.53,T,,M,0.01,N,0.02,K,A*3A
$GPRMC,132054.100,A,4752.4888,N,01106.7074,E,0.07,222.53,170910,,,A*69
$GPGGA,132054.100,4752.4888,N,01106.7074,E,1,9,0.94,544.7,M,,,*2F
$GPGSA,A,3,31,30,23,25,05,29,21,10,12,,,,1.24,0.94,0.81*09
$GPVTG,222.53,T,,M,0.04,N,0.07,K,A*3A
$GPRMC,132054.200,A,4752.4888,N,01106.7074,E,0.04,222.53,170910,,,A*69
$GPGGA,132054.200,4752.4888,N,01106.7074,E,1,9,0.94,544.7,M,,,*2C
$GPGSA,A,3,31,30,23,25,05,29,21,10,12,,,,1.24,0.94,0.81*09
$GPVTG,222.53,T,,M,0.02,N,0.05,K,A*3E
$GPRMC,132054.300,A,4752.4888,N,01106.7074,E,0.05,222.53,170910,,,A*69
$GPGGA,132054.300,4752.4888,N,01106.7074,E,1,9,0.94,544.7,M,,,*2D
$GPGSA,A,3,31,30,23,25,05,29,21,10,12,,,,1.24,0.94,0.81*09
$GPVTG,222.53,T,,M,0.04,N,0.07,K,A*3A
$GPRMC,132054.400,A,4752.4888,N,01106.7074,E,0.07,222.53,170910,,,A*6C
$GPGGA,132054.400,4752.4888,N,01106.7074,E,1,9,0.94,544.7,M,,,*2A
$GPGSA,A,3,31,30,23,25,05,29,21,10,12,,,,1.24,0.94,0.81*09
$GPVTG,222.53,T,,M,0.05,N,0.09,K,A*35
$GPRMC,132054.500,A,4752.4888,N,01106.7074,E,0.02,222.53,170910,,,A*68
$GPGGA,132054.500,4752.4888,N,01106.7074,E,1,9,0.94,544.8,M,,,*24
$GPGSA,A,3,31,30,23,25,05,29,21,10,12,,,,1.24,0.94,0.81*09
$GPVTG,222.53,T,,M,0.01,N,0.02,K,A*3A
$GPRMC,132054.600,A,4752.4888,N,01106.7074,E,0.04,222.53,170910,,,A*6D
$GPGGA,132054.600,4752.4888,N,01106.7074,E,1,9,0.94,544.8,M,,,*27
$GPGSA,A,3,31,30,23,25,05,29,21,10,12,,,,1.24,0.94,0.81*09
$GPVTG,222.53,T,,M,0.03,N,0.06,K,A*3C
$GPRMC,132054.700,A,4752.4888,N,01106.7074,E,0.04,222.53,170910,,,A*6C
$GPGGA,132054.700,4752.4888,N,01106.7074,E,1,9,0.94,544.7,M,,,*29
$GPGSA,A,3,31,30,23,25,05,29,21,10,12,,,,1.24,0.94,0.81*09
$GPVTG,222.53,T,,M,0.04,N,0.07,K,A*3A
$GPRMC,132054.800,A,4752.4888,N,01106.7074,E,0.11,222.53,170910,,,A*67
$GPGGA,132054.800,4752.4888,N,01106.7074,E,1,9,0.94,544.8,M,,,*29
$GPGSA,A,3,31,30,23,25,05,29,21,10,12,,,,1.24,0.94,0.81*09
$GPVTG,222.53,T,,M,0.03,N,0.05,K,A*3F
$GPRMC,132054.900,A,4752.4888,N,01106.7075,E,0.11,222.53,170910,,,A*67
$GPGGA,132054.900,4752.4888,N,01106.7075,E,1,9,0.94,544.8,M,,,*29
$GPGSA,A,3,31,30,23,25,05,29,21,10,12,,,,1.24,0.94,0.81*09
$GPVTG,222.53,T,,M,0.02,N,0.04,K,A*3F
$GPRMC,132055.000,A,4752.4888,N,01106.7075,E,0.15,222.53,170910,,,A*6B
$GPGGA,132055.000,4752.4888,N,01106.7075,E,1,9,0.94,544.8,M,,,*21
$GPGSA,A,3,31,30,23,25,05,29,21,10,12,,,,1.24,0.94,0.81*09
$GPVTG,222.53,T,,M,0.02,N,0.04,K,A*3F
$GPRMC,132055.100,A,4752.4888,N,01106.7075,E,0.09,222.53,170910,,,A*67
$GPGGA,132055.100,4752.4888,N,01106.7075,E,1,9,0.94,544.8,M,,,*20
$GPGSA,A,3,31,30,23,25,05,29,21,10,12,,,,1.24,0.94,0.81*09
$GPVTG,222.53,T,,M,0.03,N,0.05,K,A*3F
$GPRMC,132055.200,A,4752.4888,N,01106.7075,E,0.18,222.53,170910,,,A*64
$GPGGA,132055.200,4752.4888,N,01106.7075,E,1,9,0.94,544.9,M,,,*22
$GPGSA,A,3,31,30,23,25,05,29,21,10,12,,,,1.24,0.94,0.81*09
$GPVTG,222.53,T,,M,0.04,N,0.07,K,A*3A
$GPRMC,132055.300,A,4752.4888,N,01106.7075,E,0.18,222.53,170910,,,A*65
$GPGGA,132055.300,4752.4888,N,01106.7075,E,1,9,0.94,544.9,M,,,*23
$GPGSA,A,3,31,30,23,25,05,29,21,10,12,,,,1.24,0.94,0.81*09
$GPVTG,222.53,T,,M,0.05,N,0.09,K,A*35
$GPRMC,132055.400,A,4752.4888,N,01106.7075,E,0.21,222.53,170910,,,A*68
$GPGGA,132055.400,4752.4888,N,01106.7075,E,1,9,0.94,544.9,M,,,*24
$GPGSA,A,3,31,30,23,25,05,29,21,10,12,,,,1.24,0.94,0.81*09
$GPVTG,222.53,T,,M,0.05,N,0.09,K,A*35
$GPRMC,132055.500,A,4752.4888,N,01106.7075,E,0.13,222.53,170910,,,A*68
$GPGGA,132055.500,4752.4888,N,01106.7075,E,1,9,0.94,544.9,M,,,*25
$GPGSA,A,3,31,30,23,25,05,29,21,10,12,,,,1.24,0.94,0.81*09
$GPVTG,222.53,T,,M,0.04,N,0.08,K,A*35
$GPRMC,132055.600,A,4752.4888,N,01106.7075,E,0.08,222.53,170910,,,A*61
$GPGGA,132055.600,4752.4888,N,01106.7075,E,1,9,0.94,544.8,M,,,*27
$GPGSA,A,3,31,30,23,25,05,29,21,10,12,,,,1.24,0.94,0.81*09
$GPVTG,222.53,T,,M,0.05,N,0.09,K,A*35
$GPRMC,132055.700,A,4752.4888,N,01106.7075,E,0.05,222.53,170910,,,A*6D
$GPGGA,132055.700,4752.4888,N,01106.7075,E,1,9,0.94,544.8,M,,,*26
$GPGSA,A,3,31,30,23,25,05,29,21,10,12,,,,1.24,0.94,0.81*09
$GPVTG,222.53,T,,M,0.04,N,0.08,K,A*35
$GPRMC,132055.800,A,4752.4888,N,01106.7075,E,0.08,222.53,170910,,,A*6F
$GPGGA,132055.800,4752.4888,N,01106.7075,E,1,9,0.94,544.8,M,,,*29
$GPGSA,A,3,31,30,23,25,05,29,21,10,12,,,,1.24,0.94,0.81*09
$GPVTG,222.53,T,,M,0.05,N,0.08,K,A*34
$GPRMC,132055.900,A,4752.4888,N,01106.7075,E,0.06,222.53,170910,,,A*60
$GPGGA,132055.900,4752.4888,N,01106.7075,E,1,9,0.94,544.8,M,,,*28
$GPGSA,A,3,31,30,23,25,05,29,21,10,12,,,,1.24,0.94,0.81*09
$GPVTG,222.53,T,,M,0.04,N,0.08,K,A*35
$GPRMC,132056.000,A,4752.4888,N,01106.7075,E,0.07,222.53,170910,,,A*6B
$GPGGA,132056.000,4752.4888,N,01106.7075,E,1,9,0.94,544.8,M,,,*22
$GPGSA,A,3,31,30,23,25,05,29,21,10,12,,,,1.24,0.94,0.81*09
$GPVTG,222.53,T,,M,0.06,N,0.11,K,A*3F
$GPRMC,132056.100,A,4752.4888,N,01106.7075,E,0.08,222.53,170910,,,A*65
$GPGGA,132056.100,4752.4888,N,01106.7075,E,1,9,1.03,544.8,M,,,*2C
$GPGSA,A,3,31,30,23,25,05,29,21,10,12,,,,1.72,1.03,1.38*06
$GPVTG,222.53,T,,M,0.06,N,0.12,K,A*3C
$GPRMC,132056.200,A,4752.4888,N,01106.7075,E,0.06,222.53,170910,,,A*68
$GPGGA,132056.200,4752.4888,N,01106.7075,E,1,9,0.94,544.8,M,,,*20
$GPGSA,A,3,31,30,23,25,05,29,21,10,12,,,,1.24,0.94,0.81*09
$GPVTG,222.53,T,,M,0.06,N,0.11,K,A*3F
$GPRMC,132056.300,A,4752.4888,N,01106.7075,E,0.10,222.53,170910,,,A*6E
$GPGGA,132056.300,4752.4888,N,01106.7075,E,1,9,0.94,544.8,M,,,*21
$GPGSA,A,3,31,30,23,25,05,29,21,10,12,,,,1.24,0.94,0.81*09
$GPVTG,222.53,T,,M,0.01,N,0.02,K,A*3A
$GPRMC,132056.400,A,4752.4888,N,01106.7075,E,0.13,222.53,170910,,,A*6A
$GPGGA,132056.400,4752.4888,N,01106.7075,E,1,9,0.94,544.8,M,,,*26
$GPGSA,A,3,31,30,23,25,05,29,21,10,12,,,,1.24,0.94,0.81*09
$GPVTG,222.53,T,,M,0.08,N,0.14,K,A*34
$GPRMC,132056.500,A,4752.4888,N,01106.7075,E,0.11,222.53,170910,,,A*69
$GPGGA,132056.500,4752.4888,N,01106.7075,E,1,9,0.94,544.7,M,,,*28
$GPGSA,A,3,31,30,23,25,05,29,21,10,12,,,,1.24,0.94,0.81*09
$GPVTG,222.53,T,,M,0.03,N,0.05,K,A*3F
$GPRMC,132056.600,A,4752.4888,N,01106.7075,E,0.24,222.53,170910,,,A*6C
$GPGGA,132056.600,4752.4888,N,01106.7075,E,1,9,0.94,544.7,M,,,*2B
$GPGSA,A,3,31,30,23,25,05,29,21,10,12,,,,1.24,0.94,0.81*09
$GPVTG,222.53,T,,M,0.02,N,0.04,K,A*3F
$GPRMC,132056.700,A,4752.4888,N,01106.7075,E,0.39,222.53,170910,,,A*61
$GPGGA,132056.700,4752.4888,N,01106.7075,E,1,9,0.94,544.6,M,,,*2B
$GPGSA,A,3,31,30,23,25,05,29,21,10,12,,,,1.24,0.94,0.81*09
$GPVTG,222.53,T,,M,0.04,N,0.07,K,A*3A
$GPRMC,132056.800,A,4752.4888,N,01106.7075,E,0.32,222.53,170910,,,A*65
$GPGGA,132056.800,4752.4888,N,01106.7075,E,1,9,0.94,544.6,M,,,*24
$GPGSA,A,3,31,30,23,25,05,29,21,10,12,,,,1.24,0.94,0.81*09
$GPVTG,222.53,T,,M,0.06,N,0.10,K,A*3E
$GPRMC,132056.900,A,4752.4888,N,01106.7075,E,0.27,222.53,170910,,,A*60
$GPGGA,132056.900,4752.4888,N,01106.7075,E,1,9,0.94,544.6,M,,,*25
$GPGSA,A,3,31,30,23,25,05,29,21,10,12,,,,1.24,0.94,0.81*09
$GPVTG,222.53,T,,M,0.02,N,0.03,K,A*38
$GPRMC,132057.000,A,4752.4888,N,01106.7075,E,0.28,222.53,170910,,,A*67
$GPGGA,132057.000,4752.4888,N,01106.7075,E,1,9,0.94,544.6,M,,,*2D
$GPGSA,A,3,31,30,23,25,05,29,21,10,12,,,,1.24,0.94,0.81*09
$GPVTG,222.53,T,,M,0.02,N,0.03,K,A*38
$GPRMC,132057.100,A,4752.4888,N,01106.7075,E,0.30,222.53,170910,,,A*6F
$GPGGA,132057.100,4752.4888,N,01106.7075,E,1,9,0.94,544.6,M,,,*2C
$GPGSA,A,3,31,30,23,25,05,29,21,10,12,,,,1.24,0.94,0.81*09
$GPVTG,222.53,T,,M,0.01,N,0.02,K,A*3A
$GPRMC,132057.200,A,4752.4888,N,01106.7075,E,0.33,222.53,170910,,,A*6F
$GPGGA,132057.200,4752.4888,N,01106.7075,E,1,9,0.94,544.5,M,,,*2C
$GPGSA,A,3,31,30,23,25,05,29,21,10,12,,,,1.24,0.94,0.81*09
$GPVTG,222.53,T,,M,0.03,N,0.05,K,A*3F
$GPRMC,132057.300,A,4752.4888,N,01106.7075,E,0.27,222.53,170910,,,A*6B
$GPGGA,132057.300,4752.4888,N,01106.7075,E,1,9,0.94,544.5,M,,,*2D
$GPGSA,A,3,31,30,23,25,05,29,21,10,12,,,,1.24,0.94,0.81*09
$GPVTG,222.53,T,,M,0.03,N,0.05,K,A*3F
$GPRMC,132057.400,A,4752.4888,N,01106.7075,E,0.42,222.53,170910,,,A*6F
$GPGGA,132057.400,4752.4888,N,01106.7075,E,1,9,0.94,544.5,M,,,*2A
$GPGSA,A,3,31,30,23,25,05,29,21,10,12,,,,1.24,0.94,0.81*09
$GPVTG,222.53,T,,M,0.02,N,0.04,K,A*3F
$GPRMC,132057.500,A,4752.4888,N,01106.7075,E,0.38,222.53,170910,,,A*63
$GPGGA,132057.500,4752.4888,N,01106.7075,E,1,9,0.94,544.5,M,,,*2B
$GPGSA,A,3,31,30,23,25,05,29,21,10,12,,,,1.24,0.94,0.81*09
$GPVTG,222.53,T,,M,0.01,N,0.01,K,A*39
$GPRMC,132057.600,A,4752.4888,N,01106.7075,E,0.35,222.53,170910,,,A*6D
$GPGGA,132057.600,4752.4888,N,01106.7075,E,1,9,0.94,544.4,M,,,*29
$GPGSA,A,3,31,30,23,25,05,29,21,10,12,,,,1.24,0.94,0.81*09
$GPVTG,222.53,T,,M,0.03,N,0.05,K,A*3F
$GPRMC,132057.700,A,4752.4888,N,01106.7075,E,0.24,222.53,170910,,,A*6C
$GPGGA,132057.700,4752.4888,N,01106.7075,E,1,9,0.94,544.5,M,,,*29
$GPGSA,A,3,31,30,23,25,05,29,21,10,12,,,,1.24,0.94,0.81*09
$GPVTG,222.53,T,,M,0.00,N,0.01,K,A*38
$GPRMC,132057.800,A,4752.4888,N,01106.7075,E,0.11,222.53,170910,,,A*65
$GPGGA,132057.800,4752.4888,N,01106.7075,E,1,9,0.94,544.5,M,,,*26
$GPGSA,A,3,31,30,23,25,05,29,21,10,12,,,,1.24,0.94,0.81*09
$GPVTG,222.53,T,,M,0.05,N,0.09,K,A*35
$GPRMC,132057.900,A,4752.4888,N,01106.7075,E,0.03,222.53,170910,,,A*67
$GPGGA,132057.900,4752.4888,N,01106.7075,E,1,9,0.94,544.6,M,,,*24
$GPGSA,A,3,31,30,23,25,05,29,21,10,12,,,,1.24,0.94,0.81*09
$GPVTG,222.53,T,,M,0.01,N,0.02,K,A*3A
$GPRMC,132058.000,A,4752.4888,N,01106.7075,E,0.02,222.53,170910,,,A*60
$GPGGA,132058.000,4752.4888,N,01106.7075,E,1,9,0.94,544.6,M,,,*22
$GPGSA,A,3,31,30,23,25,05,29,21,10,12,,,,1.24,0.94,0.81*09
$GPVTG,222.53,T,,M,0.02,N,0.04,K,A*3F
$GPRMC,132058.100,A,4752.4888,N,01106.7075,E,0.05,222.53,170910,,,A*66
$GPGGA,132058.100,4752.4888,N,01106.7075,E,1,9,0.94,544.6,M,,,*23
$GPGSA,A,3,31,30,23,25,05,29,21,10,12,,,,1.24,0.94,0.81*09
$GPVTG,222.53,T,,M,0.00,N,0.01,K,A*38
$GPRMC,132058.200,A,4752.4888,N,01106.7075,E,0.13,222.53,170910,,,A*62
$GPGGA,132058.200,4752.4888,N,01106.7075,E,1,9,0.94,544.7,M,,,*21
$GPGSA,A,3,31,30,23,25,05,29,21,10,12,,,,1.24,0.94,0.81*09
$GPVTG,222.53,T,,M,0.01,N,0.02,K,A*3A
$GPRMC,132058.300,A,4752.4888,N,01106.7075,E,0.06,222.53,170910,,,A*67
$GPGGA,132058.300,4752.4888,N,01106.7075,E,1,9,0.94,544.6,M,,,*21
$GPGSA,A,3,31,30,23,25,05,29,21,10,12,,,,1.24,0.94,0.81*09
$GPVTG,222.53,T,,M,0.01,N,0.01,K,A*39
$GPRMC,132058.400,A,4752.4888,N,01106.7075,E,0.18,222.53,170910,,,A*6F
$GPGGA,132058.400,4752.4888,N,01106.7075,E,1,9,0.94,544.7,M,,,*27
$GPGSA,A,3,31,30,23,25,05,29,21,10,12,,,,1.24,0.94,0.81*09
$GPVTG,222.53,T,,M,0.05,N,0.09,K,A*35
$GPRMC,132058.500,A,4752.4888,N,01106.7075,E,0.13,222.53,170910,,,A*65
$GPGGA,132058.500,4752.4888,N,01106.7075,E,1,9,0.94,544.7,M,,,*26
$GPGSA,A,3,31,30,23,25,05,29,21,10,12,,,,1.24,0.94,0.81*09
$GPVTG,222.53,T,,M,0.04,N,0.07,K,A*3A
$GPRMC,132058.600,A,4752.4888,N,01106.7075,E,0.15,222.53,170910,,,A*60
$GPGGA,132058.600,4752.4888,N,01106.7075,E,1,9,0.94,544.7,M,,,*25
$GPGSA,A,3,31,30,23,25,05,29,21,10,12,,,,1.24,0.94,0.81*09
$GPVTG,222.53,T,,M,0.02,N,0.05,K,A*3E
$GPRMC,132058.700,A,4752.4888,N,01106.7075,E,0.16,222.53,170910,,,A*62
$GPGGA,132058.700,4752.4888,N,01106.7075,E,1,9,0.94,544.7,M,,,*24
$GPGSA,A,3,31,30,23,25,05,29,21,10,12,,,,1.24,0.94,0.81*09
$GPVTG,222.53,T,,M,0.02,N,0.04,K,A*3F
$GPRMC,132058.800,A,4752.4888,N,01106.7075,E,0.16,222.53,170910,,,A*6D
$GPGGA,132058.800,4752.4888,N,01106.7075,E,1,9,0.94,544.7,M,,,*2B
$GPGSA,A,3,31,30,23,25,05,29,21,10,12,,,,1.24,0.94,0.81*09
$GPVTG,222.53,T,,M,0.04,N,0.07,K,A*3A
$GPRMC,132058.900,A,4752.4888,N,01106.7076,E,0.16,222.53,170910,,,A*6F
$GPGGA,132058.900,4752.4888,N,01106.7076,E,1,9,0.94,544.7,M,,,*29
$GPGSA,A,3,31,30,23,25,05,29,21,10,12,,,,1.24,0.94,0.81*09
$GPVTG,222.53,T,,M,0.04,N,0.08,K,A*35
$GPRMC,132059.000,A,4752.4888,N,01106.7076,E,0.10,222.53,170910,,,A*61
$GPGGA,132059.000,4752.4888,N,01106.7076,E,1,9,0.94,544.7,M,,,*21
$GPGSA,A,3,31,30,23,25,05,29,21,10,12,,,,1.24,0.94,0.81*09
$GPVTG,222.53,T,,M,0.04,N,0.08,K,A*35
$GPRMC,132059.100,A,4752.4888,N,01106.7076,E,0.08,222.53,170910,,,A*69
$GPGGA,132059.100,4752.4888,N,01106.7076,E,1,9,0.94,544.7,M,,,*20
$GPGSA,A,3,31,30,23,25,05,29,21,10,12,,,,1.24,0.94,0.81*09
$GPVTG,222.53,T,,M,0.02,N,0.05,K,A*3E
$GPRMC,132059.200,A,4752.4888,N,01106.7076,E,0.08,222.53,170910,,,A*6A
$GPGGA,132059.200,4752.4888,N,01106.7076,E,1,9,0.94,544.6,M,,,*22
$GPGSA,A,3,31,30,23,25,05,29,21,10,12,,,,1.24,0.94,0.81*09
$GPVTG,222.53,T,,M,0.02,N,0.04,K,A*3F
$GPRMC,132059.300,A,4752.4888,N,01106.7076,E,0.19,222.53,170910,,,A*6B
$GPGGA,132059.300,4752.4888,N,01106.7076,E,1,9,0.94,544.6,M,,,*23
$GPGSA,A,3,31,30,23,25,05,29,21,10,12,,,,1.24,0.94,0.81*09
$GPVTG,222.53,T,,M,0.02,N,0.04,K,A*3F
$GPRMC,132059.400,A,4752.4888,N,01106.7076,E,0.28,222.53,170910,,,A*6E
$GPGGA,132059.400,4752.4888,N,01106.7076,E,1,9,0.94,544.5,M,,,*27
$GPGSA,A,3,31,30,23,25,05,29,21,10,12,,,,1.24,0.94,0.81*09
$GPVTG,222.53,T,,M,0.04,N,0.07,K,A*3A
$GPRMC,132059.500,A,4752.4888,N,01106.7076,E,0.39,222.53,170910,,,A*6F
$GPGGA,132059.500,4752.4888,N,01106.7076,E,1,9,0.94,544.4,M,,,*27
$GPGSA,A,3,31,30,23,25,05,29,21,10,12,,,,1.24,0.94,0.81*09
$GPVTG,222.53,T,,M,0.03,N,0.05,K,A*3F
$GPRMC,132059.600,A,4752.4888,N,01106.7076,E,0.29,222.53,170910,,,A*6D
$GPGGA,132059.600,4752.4888,N,01106.7076,E,1,9,0.94,544.5,M,,,*25
$GPGSA,A,3,31,30,23,25,05,29,21,10,12,,,,1.24,0.94,0.81*09
$GPVTG,222.53,T,,M,0.04,N,0.07,K,A*3A
$GPRMC,132059.700,A,4752.4888,N,01106.7076,E,0.26,222.53,170910,,,A*63
$GPGGA,132059.700,4752.4888,N,01106.7076,E,1,9,0.94,544.5,M,,,*24
$GPGSA,A,3,31,30,23,25,05,29,21,10,12,,,,1.24,0.94,0.81*09
$GPVTG,222.53,T,,M,0.03,N,0.05,K,A*3F
$GPRMC,132059.800,A,4752.4888,N,01106.7076,E,0.26,222.53,170910,,,A*6C
$GPGGA,132059.800,4752.4888,N,01106.7076,E,1,9,0.94,544.5,M,,,*2B
$GPGSA,A,3,31,30,23,25,05,29,21,10,12,,,,1.24,0.94,0.81*09
$GPVTG,222.53,T,,M,0.02,N,0.03,K,A*38
$GPRMC,132059.900,A,4752.4888,N,01106.7076,E,0.36,222.53,170910,,,A*6C
$GPGGA,132059.900,4752.4888,N,01106.7076,E,1,9,0.94,544.4,M,,,*2B
$GPGSA,A,3,31,30,23,25,05,29,21,10,12,,,,1.24,0.94,0.81*09
$GPVTG,222.53,T,,M,0.03,N,0.05,K,A*3F
$GPRMC,132100.000,A,4752.4888,N,01106.7076,E,0.26,222.53,170910,,,A*69
$GPGGA,132100.000,4752.4888,N,01106.7076,E,1,9,0.94,544.4,M,,,*2F
$GPGSA,A,3,31,30,23,25,05,29,21,10,12,,,,1.24,0.94,0.81*09
$GPVTG,222.53,T,,M,0.06,N,0.12,K,A*3C
$GPRMC,132100.100,A,4752.4888,N,01106.7076,E,0.29,222.53,170910,,,A*67
$GPGGA,132100.100,4752.4888,N,01106.7076,E,1,9,0.94,544.4,M,,,*2E
$GPGSA,A,3,31,30,23,25,05,29,21,10,12,,,,1.24,0.94,0.81*09
$GPVTG,222.53,T,,M,0.06,N,0.11,K,A*3F
$GPRMC,132100.200,A,4752.4888,N,01106.7076,E,0.24,222.53,170910,,,A*69
$GPGGA,132100.200,4752.4888,N,01106.7076,E,1,9,0.94,544.4,M,,,*2D
$GPGSA,A,3,31,30,23,25,05,29,21,10,12,,,,1.24,0.94,0.81*09
$GPVTG,222.53,T,,M,0.01,N,0.02,K,A*3A
$GPRMC,132100.300,A,4752.4888,N,01106.7076,E,0.23,222.53,170910,,,A*6F
$GPGGA,132100.300,4752.4888,N,01106.7076,E,1,9,0.94,544.4,M,,,*2C
$GPGSA,A,3,31,30,23,25,05,29,21,10,12,,,,1.24,0.94,0.81*09
$GPVTG,222.53,T,,M,0.03,N,0.05,K,A*3F
$GPRMC,132100.400,A,4752.4888,N,01106.7076,E,0.24,222.53,170910,,,A*6F
$GPGGA,132100.400,4752.4888,N,01106.7076,E,1,9,0.94,544.4,M,,,*2B
$GPGSA,A,3,31,30,23,25,05,29,21,10,12,,,,1.24,0.94,0.81*09
$GPVTG,222.53,T,,M,0.05,N,0.09,K,A*35
$GPRMC,132100.500,A,4752.4888,N,01106.7076,E,0.32,222.53,170910,,,A*69
$GPGGA,132100.500,4752.4888,N,01106.7076,E,1,9,0.94,544.3,M,,,*2D
$GPGSA,A,3,31,30,23,25,05,29,21,10,12,,,,1.24,0.94,0.81*09
$GPVTG,222.53,T,,M,0.03,N,0.05,K,A*3F
$GPRMC,132100.600,A,4752.4888,N,01106.7076,E,0.34,222.53,170910,,,A*6C
$GPGGA,132100.600,4752.4888,N,01106.7076,E,1,9,0.94,544.3,M,,,*2E
$GPGSA,A,3,31,30,23,25,05,29,21,10,12,,,,1.24,0.94,0.81*09
$GPVTG,222.53,T,,M,0.01,N,0.02,K,A*3A
$GPRMC,132100.700,A,4752.4888,N,01106.7076,E,0.24,222.53,170910,,,A*6C
$GPGGA,132100.700,4752.4888,N,01106.7076,E,1,9,0.94,544.3,M,,,*2F
$GPGSA,A,3,31,30,23,25,05,29,21,10,12,,,,1.24,0.94,0.81*09
$GPVTG,222.53,T,,M,0.02,N,0.04,K,A*3F
$GPRMC,132100.800,A,4752.4888,N,01106.7076,E,0.14,222.53,170910,,,A*60
$GPGGA,132100.800,4752.4888,N,01106.7076,E,1,9,0.94,544.4,M,,,*27
$GPGSA,A,3,31,30,23,25,05,29,21,10,12,,,,1.24,0.94,0.81*09
$GPVTG,222.53,T,,M,0.03,N,0.06,K,A*3C
$GPRMC,132100.900,A,4752.4888,N,01106.7076,E,0.21,222.53,170910,,,A*67
$GPGGA,132100.900,4752.4888,N,01106.7076,E,1,9,0.94,544.3,M,,,*21
$GPGSA,A,3,31,30,23,25,05,29,21,10,12,,,,1.24,0.94,0.81*09
$GPVTG,222.53,T,,M,0.04,N,0.07,K,A*3A
$GPRMC,132101.000,A,4752.4888,N,01106.7076,E,0.18,222.53,170910,,,A*65
$GPGGA,132101.000,4752.4888,N,01106.7076,E,1,9,1.03,544.3,M,,,*26
$GPGSA,A,3,31,30,23,25,05,29,21,10,12,,,,1.72,1.03,1.38*06
$GPVTG,222.53,T,,M,0.02,N,0.03,K,A*38
$GPRMC,132101.100,A,4752.4888,N,01106.7076,E,0.23,222.53,170910,,,A*6C
$GPGGA,132101.100,4752.4888,N,01106.7076,E,1,9,0.94,544.3,M,,,*28
$GPGSA,A,3,31,30,23,25,05,29,21,10,12,,,,1.24,0.94,0.81*09
$GPVTG,222.53,T,,M,0.04,N,0.08,K,A*35
$GPRMC,132101.200,A,4752.4888,N,01106.7076,E,0.24,222.53,170910,,,A*68
$GPGGA,132101.200,4752.4888,N,01106.7076,E,1,9,0.94,544.3,M,,,*2B
$GPGSA,A,3,31,30,23,25,05,29,21,10,12,,,,1.24,0.94,0.81*09
$GPVTG,222.53,T,,M,0.02,N,0.03,K,A*38
$GPRMC,132101.300,A,4752.4888,N,01106.7076,E,0.37,222.53,170910,,,A*6B
$GPGGA,132101.300,4752.4888,N,01106.7076,E,1,9,0.94,544.2,M,,,*2B
$GPGSA,A,3,31,30,23,25,05,29,21,10,12,,,,1.24,0.94,0.81*09
$GPVTG,222.53,T,,M,0.03,N,0.06,K,A*3C
$GPRMC,132101.400,A,4752.4888,N,01106.7076,E,0.40,222.53,170910,,,A*6C
$GPGGA,132101.400,4752.4888,N,01106.7076,E,1,9,0.94,544.2,M,,,*2C
$GPGSA,A,3,31,30,23,25,05,29,21,10,12,,,,1.24,0.94,0.81*09
$GPVTG,222.53,T,,M,0.04,N,0.08,K,A*35
$GPRMC,132101.500,A,4752.4888,N,01106.7076,E,0.51,222.53,170910,,,A*6D
$GPGGA,132101.500,4752.4888,N,01106.7076,E,1,9,0.94,544.1,M,,,*2E
$GPGSA,A,3,31,30,23,25,05,29,21,10,12,,,,1.24,0.94,0.81*09
$GPVTG,222.53,T,,M,0.04,N,0.08,K,A*35
$GPRMC,132101.600,A,4752.4888,N,01106.7076,E,0.52,222.53,170910,,,A*6D
$GPGGA,132101.600,4752.4888,N,01106.7076,E,1,9,0.94,544.1,M,,,*2D
$GPGSA,A,3,31,30,23,25,05,29,21,10,12,,,,1.24,0.94,0.81*09
$GPVTG,222.53,T,,M,0.01,N,0.03,K,A*3B
$GPRMC,132101.700,A,4752.4888,N,01106.7076,E,0.55,222.53,170910,,,A*6B
$GPGGA,132101.700,4752.4888,N,01106.7076,E,1,9,0.94,544.0,M,,,*2D
$GPGSA,A,3,31,30,23,25,05,29,21,10,12,,,,1.24,0.94,0.81*09
$GPVTG,222.53,T,,M,0.02,N,0.04,K,A*3F
$GPRMC,132101.800,A,4752.4888,N,01106.7076,E,0.61,222.53,170910,,,A*63
$GPGGA,132101.800,4752.4888,N,01106.7076,E,1,9,1.03,544.0,M,,,*2D
$GPGSA,A,3,31,30,23,25,05,29,21,10,12,,,,1.72,1.03,1.38*06
$GPVTG,222.53,T,,M,0.01,N,0.01,K,A*39
$GPRMC,132101.900,A,4752.4888,N,01106.7076,E,0.57,222.53,170910,,,A*67
$GPGGA,132101.900,4752.4888,N,01106.7076,E,1,9,0.94,543.9,M,,,*2D
$GPGSA,A,3,31,30,23,25,05,29,21,10,12,,,,1.24,0.94,0.81*09
$GPVTG,222.53,T,,M,0.04,N,0.08,K,A*35
$GPRMC,132102.000,A,4752.4888,N,01106.7076,E,0.67,222.53,170910,,,A*6E
$GPGGA,132102.000,4752.4888,N,01106.7076,E,1,9,0.94,543.9,M,,,*27
$GPGSA,A,3,31,30,23,25,05,29,21,10,12,,,,1.24,0.94,0.81*09
$GPVTG,222.53,T,,M,0.04,N,0.07,K,A*3A
$GPRMC,132102.100,A,4752.4888,N,01106.7076,E,0.74,222.53,170910,,,A*6D
$GPGGA,132102.100,4752.4888,N,01106.7076,E,1,9,0.94,543.8,M,,,*27
$GPGSA,A,3,31,30,23,25,05,29,21,10,12,,,,1.24,0.94,0.81*09
$GPVTG,222.53,T,,M,0.04,N,0.07,K,A*3A
$GPRMC,132102.200,A,4752.4888,N,01106.7076,E,0.84,222.53,170910,,,A*61
$GPGGA,132102.200,4752.4888,N,01106.7076,E,1,9,0.94,543.7,M,,,*2B
$GPGSA,A,3,31,30,23,25,05,29,21,10,12,,,,1.24,0.94,0.81*09
$GPVTG,222.53,T,,M,0.04,N,0.08,K,A*35
$GPRMC,132102.300,A,4752.4888,N,01106.7076,E,0.96,222.53,170910,,,A*63
$GPGGA,132102.300,4752.4888,N,01106.7076,E,1,9,0.94,543.6,M,,,*2B
$GPGSA,A,3,31,30,23,25,05,29,21,10,12,,,,1.24,0.94,0.81*09
$GPVTG,222.53,T,,M,0.04,N,0.07,K,A*3A
$GPRMC,132102.400,A,4752.4888,N,01106.7076,E,1.03,222.53,170910,,,A*69
$GPGGA,132102.400,4752.4888,N,01106.7076,E,1,9,0.94,543.5,M,,,*2F
$GPGSA,A,3,31,30,23,25,05,29,21,10,12,,,,1.24,0.94,0.81*09
$GPVTG,222.53,T,,M,0.03,N,0.06,K,A*3C
$GPRMC,132102.500,A,4752.4888,N,01106.7076,E,1.04,222.53,170910,,,A*6F
$GPGGA,132102.500,4752.4888,N,01106.7076,E,1,9,0.94,543.5,M,,,*2E
$GPGSA,A,3,31,30,23,25,05,29,21,10,12,,,,1.24,0.94,0.81*09
$GPVTG,222.53,T,,M,0.05,N,0.10,K,A*3D
$GPRMC,132102.600,A,4752.4888,N,01106.7076,E,1.08,222.53,170910,,,A*60
$GPGGA,132102.600,4752.4888,N,01106.7076,E,1,9,0.94,543.4,M,,,*2C
$GPGSA,A,3,31,30,23,25,05,29,21,10,12,,,,1.24,0.94,0.81*09
$GPVTG,222.53,T,,M,0.03,N,0.06,K,A*3C
$GPRMC,132102.700,A,4752.4888,N,01106.7076,E,1.12,222.53,170910,,,A*6A
$GPGGA,132102.700,4752.4888,N,01106.7076,E,1,9,0.94,543.3,M,,,*2A
$GPGSA,A,3,31,30,23,25,05,29,21,10,12,,,,1.24,0.94,0.81*09
$GPVTG,222.53,T,,M,0.03,N,0.05,K,A*3F
$GPRMC,132102.800,A,4752.4888,N,01106.7076,E,1.15,222.53,170910,,,A*62
$GPGGA,132102.800,4752.4888,N,01106.7076,E,1,9,0.94,543.2,M,,,*24
$GPGSA,A,3,31,30,23,25,05,29,21,10,12,,,,1.24,0.94,0.81*09
$GPVTG,222.53,T,,M,0.07,N,0.12,K,A*3D
$GPRMC,132102.900,A,4752.4888,N,01106.7076,E,1.24,222.53,170910,,,A*61
$GPGGA,132102.900,4752.4888,N,01106.7076,E,1,9,0.94,543.1,M,,,*26
$GPGSA,A,3,31,30,23,25,05,29,21,10,12,,,,1.24,0.94,0.81*09
$GPVTG,222.53,T,,M,0.20,N,0.37,K,A*3F
$GPRMC,132103.000,A,4752.4888,N,01106.7076,E,1.27,222.53,170910,,,A*6A
$GPGGA,132103.000,4752.4888,N,01106.7076,E,1,9,0.94,543.1,M,,,*2E
$GPGSA,A,3,31,30,23,25,05,29,21,10,12,,,,1.24,0.94,0.81*09
$GPVTG,222.53,T,,M,0.32,N,0.59,K,A*34
$GPRMC,132103.100,A,4752.4888,N,01106.7076,E,1.35,222.53,170910,,,A*68
$GPGGA,132103.100,4752.4888,N,01106.7076,E,1,9,0.94,543.0,M,,,*2E
$GPGSA,A,3,31,30,23,25,05,29,21,10,12,,,,1.24,0.94,0.81*09
$GPVTG,222.53,T,,M,0.52,N,0.97,K,A*30
$GPRMC,132103.200,A,4752.4888,N,01106.7076,E,1.79,222.53,170910,,,A*63
$GPGGA,132103.200,4752.4888,N,01106.7076,E,1,9,0.94,542.9,M,,,*25
$GPGSA,A,3,31,30,23,25,05,29,21,10,12,,,,1.24,0.94,0.81*09
$GPVTG,222.53,T,,M,1.23,N,2.29,K,A*30
$GPRMC,132103.300,A,4752.4888,N,01106.7076,E,2.03,222.53,170910,,,A*6C
$GPGGA,132103.300,4752.4888,N,01106.7076,E,1,9,0.94,542.9,M,,,*24
$GPGSA,A,3,31,30,23,25,05,29,21,10,12,,,,1.24,0.94,0.81*09
$GPVTG,222.53,T,,M,1.64,N,3.04,K,A*3D
$GPRMC,132103.400,A,4752.4888,N,01106.7075,E,2.43,222.53,170910,,,A*6C
$GPGGA,132103.400,4752.4888,N,01106.7075,E,1,9,0.94,542.8,M,,,*21
$GPGSA,A,3,31,30,23,25,05,29,21,10,12,,,,1.24,0.94,0.81*09
$GPVTG,222.53,T,,M,2.10,N,3.89,K,A*38
$GPRMC,132103.500,A,4752.4888,N,01106.7074,E,2.59,227.56,170910,,,A*67
$GPGGA,132103.500,4752.4888,N,01106.7074,E,1,9,0.94,542.8,M,,,*21
$GPGSA,A,3,31,30,23,25,05,29,21,10,12,,,,1.24,0.94,0.81*09
$GPVTG,227.56,T,,M,2.34,N,4.34,K,A*3F
$GPRMC,132103.600,A,4752.4888,N,01106.7073,E,3.08,232.06,170910,,,A*67
$GPGGA,132103.600,4752.4888,N,01106.7073,E,1,9,0.94,542.7,M,,,*2A
$GPGSA,A,3,31,30,23,25,05,29,21,10,12,,,,1.24,0.94,0.81*09
$GPVTG,232.06,T,,M,2.86,N,5.29,K,A*3A
$GPRMC,132103.700,A,4752.4888,N,01106.7072,E,3.24,236.12,170910,,,A*68
$GPGGA,132103.700,4752.4888,N,01106.7072,E,1,9,0.94,542.7,M,,,*2A
$GPGSA,A,3,31,30,23,25,05,29,21,10,12,,,,1.24,0.94,0.81*09
$GPVTG,236.12,T,,M,3.05,N,5.66,K,A*3A
$GPRMC,132103.800,A,4752.4888,N,01106.7071,E,3.49,239.75,170910,,,A*61
$GPGGA,132103.800,4752.4888,N,01106.7071,E,1,9,0.94,542.6,M,,,*27
$GPGSA,A,3,31,30,23,25,05,29,21,10,12,,,,1.24,0.94,0.81*09
$GPVTG,239.75,T,,M,3.31,N,6.13,K,A*32
$GPRMC,132103.900,A,4752.4888,N,01106.7069,E,3.85,243.72,170910,,,A*63
$GPGGA,132103.900,4752.4888,N,01106.7069,E,1,9,0.94,542.6,M,,,*2F
$GPGSA,A,3,31,30,23,25,05,29,21,10,12,,,,1.24,0.94,0.81*09
$GPVTG,243.72,T,,M,3.70,N,6.86,K,A*31
$GPRMC,132104.000,A,4752.4888,N,01106.7068,E,4.22,246.92,170910,,,A*6D
$GPGGA,132104.000,4752.4888,N,01106.7068,E,1,9,0.94,542.5,M,,,*23
$GPGSA,A,3,31,30,23,25,05,29,21,10,12,,,,1.24,0.94,0.81*09
$GPVTG,246.92,T,,M,4.08,N,7.56,K,A*3E
$GPRMC,132104.100,A,4752.4888,N,01106.7066,E,4.43,249.87,170910,,,A*6E
$GPGGA,132104.100,4752.4888,N,01106.7066,E,1,9,1.03,542.5,M,,,*23
$GPGSA,A,3,31,30,23,25,05,29,21,10,12,,,,1.72,1.03,1.38*06
$GPVTG,249.87,T,,M,4.29,N,7.95,K,A*39
$GPRMC,132104.200,A,4752.4889,N,01106.7064,E,4.93,252.58,170910,,,A*6B
$GPGGA,132104.200,4752.4889,N,01106.7064,E,1,9,1.03,542.5,M,,,*23
$GPGSA,A,3,31,30,23,25,05,29,21,10,12,,,,1.72,1.03,1.38*06
$GPVTG,252.58,T,,M,4.82,N,8.93,K,A*39
$GPRMC,132104.300,A,4752.4889,N,01106.7062,E,5.36,255.06,170910,,,A*6E
$GPGGA,132104.300,4752.4889,N,01106.7062,E,1,9,1.03,542.5,M,,,*24
$GPGSA,A,3,31,30,23,25,05,29,21,10,12,,,,1.72,1.03,1.38*06
$GPVTG,255.06,T,,M,5.28,N,9.78,K,A*30
$GPRMC,132104.400,A,4752.4889,N,01106.7060,E,5.63,257.30,170910,,,A*6C
$GPGGA,132104.400,4752.4889,N,01106.7060,E,1,9,1.03,542.4,M,,,*20
$GPGSA,A,3,31,30,23,25,05,29,21,10,12,,,,1.72,1.03,1.38*06
$GPVTG,257.30,T,,M,5.54,N,10.27,K,A*0E
$GPRMC,132104.500,A,4752.4889,N,01106.7058,E,5.82,259.26,170910,,,A*60
$GPGGA,132104.500,4752.4889,N,01106.7058,E,1,9,1.03,542.4,M,,,*2A
$GPGSA,A,3,31,30,23,25,05,29,21,10,12,,,,1.72,1.03,1.38*06
$GPVTG,259.26,T,,M,5.76,N,10.68,K,A*0C
$GPRMC,132104.600,A,4752.4889,N,01106.7055,E,6.34,261.08,170910,,,A*67
$GPGGA,132104.600,4752.4889,N,01106.7055,E,1,9,1.03,542.4,M,,,*24
$GPGSA,A,3,31,30,23,25,05,29,21,10,12,,,,1.72,1.03,1.38*06
$GPVTG,261.08,T,,M,6.29,N,11.66,K,A*0D
$GPRMC,132104.700,A,4752.4889,N,01106.7053,E,6.71,262.71,170910,,,A*6C
$GPGGA,132104.700,4752.4889,N,01106.7053,E,1,9,1.03,542.4,M,,,*23
$GPGSA,A,3,31,30,23,25,05,29,21,10,12,,,,1.72,1.03,1.38*06
$GPVTG,262.71,T,,M,6.67,N,12.36,K,A*0C
$GPRMC,132104.800,A,4752.4889,N,01106.7050,E,6.87,264.18,170910,,,A*60
$GPGGA,132104.800,4752.4889,N,01106.7050,E,1,9,1.03,542.3,M,,,*28
$GPGSA,A,3,31,30,23,25,05,29,21,10,12,,,,1.72,1.03,1.38*06
$GPVTG,264.18,T,,M,6.83,N,12.66,K,A*0A
$GPRMC,132104.900,A,4752.4890,N,01106.7047,E,7.08,265.49,170910,,,A*6C
$GPGGA,132104.900,4752.4890,N,01106.7047,E,1,9,1.03,542.4,M,,,*20
$GPGSA,A,3,31,30,23,25,05,29,21,10,12,,,,1.72,1.03,1.38*06
$GPVTG,265.49,T,,M,7.05,N,13.07,K,A*06
$GPRMC,132105.000,A,4752.4890,N,01106.7044,E,7.51,266.67,170910,,,A*64
$GPGGA,132105.000,4752.4890,N,01106.7044,E,1,9,1.03,542.4,M,,,*2B
$GPGSA,A,3,31,30,23,25,05,29,21,10,12,,,,1.72,1.03,1.38*06
$GPVTG,266.67,T,,M,7.49,N,13.88,K,A*06
$GPRMC,132105.100,A,4752.4890,N,01106.7041,E,7.89,267.90,170910,,,A*6C
$GPGGA,132105.100,4752.4890,N,01106.7041,E,1,9,1.03,542.4,M,,,*2F
$GPGSA,A,3,31,30,23,25,05,29,21,10,12,,,,1.72,1.03,1.38*06
$GPVTG,267.90,T,,M,7.88,N,14.61,K,A*02
$GPRMC,132105.200,A,4752.4890,N,01106.7038,E,7.89,269.04,170910,,,A*62
$GPGGA,132105.200,4752.4890,N,01106.7038,E,1,9,1.03,542.3,M,,,*25
$GPGSA,A,3,31,30,23,25,05,29,21,10,12,,,,1.72,1.03,1.38*06
$GPVTG,269.04,T,,M,7.87,N,14.59,K,A*05
$GPRMC,132105.300,A,4752.4891,N,01106.7035,E,8.05,270.18,170910,,,A*61
$GPGGA,132105.300,4752.4891,N,01106.7035,E,1,9,1.03,542.3,M,,,*28
$GPGSA,A,3,31,30,23,25,05,29,21,10,12,,,,1.72,1.03,1.38*06
$GPVTG,270.18,T,,M,8.04,N,14.90,K,A*01
$GPRMC,132105.400,A,4752.4891,N,01106.7032,E,8.07,271.27,170910,,,A*6E
$GPGGA,132105.400,4752.4891,N,01106.7032,E,1,9,1.03,542.4,M,,,*2F
$GPGSA,A,3,31,30,23,25,05,29,21,10,12,,,,1.72,1.03,1.38*06
$GPVTG,271.27,T,,M,8.06,N,14.93,K,A*0D
$GPRMC,132105.500,A,4752.4891,N,01106.7028,E,8.30,272.26,170910,,,A*62
$GPGGA,132105.500,4752.4891,N,01106.7028,E,1,9,1.03,542.3,M,,,*22
$GPGSA,A,3,31,30,23,25,05,29,21,10,12,,,,1.72,1.03,1.38*06
$GPVTG,272.26,T,,M,8.29,N,15.37,K,A*0D
$GPRMC,132105.600,A,4752.4892,N,01106.7025,E,8.34,273.06,170910,,,A*68
$GPGGA,132105.600,4752.4892,N,01106.7025,E,1,9,1.03,542.3,M,,,*2F
$GPGSA,A,3,31,30,23,25,05,29,21,10,12,,,,1.72,1.03,1.38*06
$GPVTG,273.06,T,,M,8.33,N,15.43,K,A*06
$GPRMC,132105.700,A,4752.4892,N,01106.7022,E,8.60,273.82,170910,,,A*63
$GPGGA,132105.700,4752.4892,N,01106.7022,E,1,9,1.03,542.2,M,,,*28
$GPGSA,A,3,31,30,23,25,05,29,21,10,12,,,,1.72,1.03,1.38*06
$GPVTG,273.82,T,,M,8.58,N,15.91,K,A*08
$GPRMC,132105.800,A,4752.4893,N,01106.7018,E,8.89,275.98,170910,,,A*6E
$GPGGA,132105.800,4752.4893,N,01106.7018,E,1,9,1.03,542.1,M,,,*2C
$GPGSA,A,3,31,30,23,25,05,29,21,10,12,,,,1.72,1.03,1.38*06
$GPVTG,275.98,T,,M,8.87,N,16.44,K,A*0C
$GPRMC,132105.900,A,4752.4893,N,01106.7014,E,9.14,277.46,170910,,,A*67
$GPGGA,132105.900,4752.4893,N,01106.7014,E,1,9,1.03,542.1,M,,,*21
$GPGSA,A,3,31,30,23,25,05,29,21,10,12,,,,1.72,1.03,1.38*06
$GPVTG,277.46,T,,M,9.12,N,16.89,K,A*01
$GPRMC,132106.000,A,4752.4893,N,01106.7011,E,9.11,278.20,170910,,,A*62
$GPGGA,132106.000,4752.4893,N,01106.7011,E,1,9,1.03,542.1,M,,,*2E
$GPGSA,A,3,31,30,23,25,05,29,21,10,12,,,,1.72,1.03,1.38*06
$GPVTG,278.20,T,,M,9.09,N,16.84,K,A*09
$GPRMC,132106.100,A,4752.4894,N,01106.7007,E,9.13,278.44,170910,,,A*63
$GPGGA,132106.100,4752.4894,N,01106.7007,E,1,9,1.03,542.0,M,,,*2E
$GPGSA,A,3,31,30,23,25,05,29,21,10,12,,,,1.72,1.03,1.38*06
$GPVTG,278.44,T,,M,9.11,N,16.88,K,A*0E
$GPRMC,132106.200,A,4752.4894,N,01106.7003,E,9.51,278.89,170910,,,A*63
$GPGGA,132106.200,4752.4894,N,01106.7003,E,1,9,1.03,542.0,M,,,*29
$GPGSA,A,3,31,30,23,25,05,29,21,10,12,,,,1.72,1.03,1.38*06
$GPVTG,278.89,T,,M,9.48,N,17.57,K,A*00
$GPRMC,132106.300,A,4752.4894,N,01106.6999,E,9.56,278.79,170910,,,A*61
$GPGGA,132106.300,4752.4894,N,01106.6999,E,1,9,1.03,541.9,M,,,*29
$GPGSA,A,3,31,30,23,25,05,29,21,10,12,,,,1.72,1.03,1.38*06
$GPVTG,278.79,T,,M,9.54,N,17.68,K,A*0E
$GPRMC,132106.400,A,4752.4895,N,01106.6996,E,9.56,278.67,170910,,,A*67
$GPGGA,132106.400,4752.4895,N,01106.6996,E,1,9,1.03,541.9,M,,,*20
$GPGSA,A,3,31,30,23,25,05,29,21,10,12,,,,1.72,1.03,1.38*06
$GPVTG,278.67,T,,M,9.53,N,17.65,K,A*0B
$GPRMC,132106.500,A,4752.4895,N,01106.6992,E,9.61,278.52,170910,,,A*60
$GPGGA,132106.500,4752.4895,N,01106.6992,E,1,9,1.03,541.8,M,,,*24
$GPGSA,A,3,31,30,23,25,05,29,21,10,12,,,,1.72,1.03,1.38*06
$GPVTG,278.52,T,,M,9.58,N,17.75,K,A*07
$GPRMC,132106.600,A,4752.4895,N,01106.6988,E,9.98,278.45,170910,,,A*68
$GPGGA,132106.600,4752.4895,N,01106.6988,E,1,9,1.03,541.8,M,,,*2C
$GPGSA,A,3,31,30,23,25,05,29,21,10,12,,,,1.72,1.03,1.38*06
$GPVTG,278.45,T,,M,9.95,N,18.44,K,A*0D
$GPRMC,132106.700,A,4752.4896,N,01106.6984,E,9.96,277.63,170910,,,A*63
$GPGGA,132106.700,4752.4896,N,01106.6984,E,1,9,1.03,541.8,M,,,*22
$GPGSA,A,3,31,30,23,25,05,29,21,10,12,,,,1.72,1.03,1.38*06
$GPVTG,277.63,T,,M,9.94,N,18.43,K,A*00
$GPRMC,132106.800,A,4752.4896,N,01106.6980,E,10.58,276.92,170910,,,A*5D
$GPGGA,132106.800,4752.4896,N,01106.6980,E,1,9,1.03,541.8,M,,,*29
$GPGSA,A,3,31,30,23,25,05,29,21,10,12,,,,1.72,1.03,1.38*06
$GPVTG,276.92,T,,M,10.56,N,19.56,K,A*3C
$GPRMC,132106.900,A,4752.4896,N,01106.6975,E,10.64,275.83,170910,,,A*5A
$GPGGA,132106.900,4752.4896,N,01106.6975,E,1,9,1.03,541.8,M,,,*22
$GPGSA,A,3,31,30,23,25,05,29,21,10,12,,,,1.72,1.03,1.38*06
$GPVTG,275.83,T,,M,10.62,N,19.68,K,A*35
$GPRMC,132107.000,A,4752.4897,N,01106.6971,E,10.98,274.42,170910,,,A*58
$GPGGA,132107.000,4752.4897,N,01106.6971,E,1,9,1.03,541.8,M,,,*2F
$GPGSA,A,3,31,30,23,25,05,29,21,10,12,,,,1.72,1.03,1.38*06
$GPVTG,274.42,T,,M,10.97,N,20.33,K,A*37
$GPRMC,132107.100,A,4752.4897,N,01106.6966,E,11.41,273.37,170910,,,A*5F
$GPGGA,132107.100,4752.4897,N,01106.6966,E,1,9,1.03,541.8,M,,,*28
$GPGSA,A,3,31,30,23,25,05,29,21,10,12,,,,1.72,1.03,1.38*06
$GPVTG,273.37,T,,M,11.40,N,21.13,K,A*3A
$GPRMC,132107.200,A,4752.4897,N,01106.6962,E,11.59,272.20,170910,,,A*56
$GPGGA,132107.200,4752.4897,N,01106.6962,E,1,9,1.03,541.8,M,,,*2F
$GPGSA,A,3,31,30,23,25,05,29,21,10,12,,,,1.72,1.03,1.38*06
$GPVTG,272.20,T,,M,11.58,N,21.46,K,A*34
$GPRMC,132107.300,A,4752.4897,N,01106.6957,E,11.81,270.82,170910,,,A*5E
$GPGGA,132107.300,4752.4897,N,01106.6957,E,1,9,1.03,541.8,M,,,*28
$GPGSA,A,3,31,30,23,25,05,29,21,10,12,,,,1.72,1.03,1.38*06
$GPVTG,270.82,T,,M,11.81,N,21.89,K,A*39
$GPRMC,132107.400,A,4752.4897,N,01106.6952,E,12.00,269.48,170910,,,A*58
$GPGGA,132107.400,4752.4897,N,01106.6952,E,1,9,1.03,541.8,M,,,*2A
$GPGSA,A,3,31,30,23,25,05,29,21,10,12,,,,1.72,1.03,1.38*06
$GPVTG,269.48,T,,M,12.00,N,22.24,K,A*39
$GPRMC,132107.500,A,4752.4897,N,01106.6947,E,12.70,267.78,170910,,,A*57
$GPGGA,132107.500,4752.4897,N,01106.6947,E,1,9,1.03,541.8,M,,,*2F
$GPGSA,A,3,31,30,23,25,05,29,21,10,12,,,,1.72,1.03,1.38*06
$GPVTG,267.78,T,,M,12.70,N,23.54,K,A*35
$GPRMC,132107.600,A,4752.4897,N,01106.6942,E,12.73,265.94,170910,,,A*52
$GPGGA,132107.600,4752.4897,N,01106.6942,E,1,9,1.03,541.8,M,,,*29
$GPGSA,A,3,31,30,23,25,05,29,21,10,12,,,,1.72,1.03,1.38*06
$GPVTG,265.94,T,,M,12.73,N,23.59,K,A*3B
$GPRMC,132107.700,A,4752.4897,N,01106.6937,E,13.06,264.58,170910,,,A*53
$GPGGA,132107.700,4752.4897,N,01106.6937,E,1,9,1.03,541.9,M,,,*2B
$GPGSA,A,3,31,30,23,25,05,29,21,10,12,,,,1.72,1.03,1.38*06
$GPVTG,264.58,T,,M,13.06,N,24.20,K,A*30
$GPRMC,132107.800,A,4752.4896,N,01106.6931,E,13.48,263.86,170910,,,A*55
$GPGGA,132107.800,4752.4896,N,01106.6931,E,1,9,1.03,541.8,M,,,*22
$GPGSA,A,3,31,30,23,25,05,29,21,10,12,,,,1.72,1.03,1.38*06
$GPVTG,263.86,T,,M,13.48,N,24.97,K,A*32
$GPRMC,132107.900,A,4752.4896,N,01106.6926,E,13.53,263.14,170910,,,A*53
$GPGGA,132107.900,4752.4896,N,01106.6926,E,1,9,1.03,541.8,M,,,*25
$GPGSA,A,3,31,30,23,25,05,29,21,10,12,,,,1.72,1.03,1.38*06
$GPVTG,263.14,T,,M,13.53,N,25.07,K,A*3B
$GPRMC,132108.000,A,4752.4895,N,01106.6920,E,13.55,263.11,170910,,,A*53
$GPGGA,132108.000,4752.4895,N,01106.6920,E,1,9,1.03,541.7,M,,,*29
$GPGSA,A,3,31,30,23,25,05,29,21,10,12,,,,1.72,1.03,1.38*06
$GPVTG,263.11,T,,M,13.55,N,25.11,K,A*3F
$GPRMC,132108.100,A,4752.4895,N,01106.6914,E,13.96,262.96,170910,,,A*54
$GPGGA,132108.100,4752.4895,N,01106.6914,E,1,9,1.03,541.7,M,,,*2F
$GPGSA,A,3,31,30,23,25,05,29,21,10,12,,,,1.72,1.03,1.38*06
$GPVTG,262.96,T,,M,13.95,N,25.86,K,A*33
$GPRMC,132108.200,A,4752.4895,N,01106.6909,E,14.40,263.05,170910,,,A*5C
$GPGGA,132108.200,4752.4895,N,01106.6909,E,1,9,1.03,541.6,M,,,*21
$GPGSA,A,3,31,30,23,25,05,29,21,10,12,,,,1.72,1.03,1.38*06
$GPVTG,263.05,T,,M,14.39,N,26.66,K,A*34
$GPRMC,132108.300,A,4752.4894,N,01106.6903,E,14.38,262.46,170910,,,A*5F
$GPGGA,132108.300,4752.4894,N,01106.6903,E,1,9,1.03,541.6,M,,,*2B
$GPGSA,A,3,31,30,23,25,05,29,21,10,12,,,,1.72,1.03,1.38*06
$GPVTG,262.46,T,,M,14.37,N,26.62,K,A*38
$GPRMC,132108.400,A,4752.4894,N,01106.6897,E,14.72,262.02,170910,,,A*5A
$GPGGA,132108.400,4752.4894,N,01106.6897,E,1,9,1.03,541.6,M,,,*20
$GPGSA,A,3,31,30,23,25,05,29,21,10,12,,,,1.72,1.03,1.38*06
$GPVTG,262.02,T,,M,14.71,N,27.25,K,A*38
$GPRMC,132108.500,A,4752.4893,N,01106.6891,E,14.76,261.77,170910,,,A*5F
$GPGGA,132108.500,4752.4893,N,01106.6891,E,1,9,1.03,541.6,M,,,*20
$GPGSA,A,3,31,30,23,25,05,29,21,10,12,,,,1.72,1.03,1.38*06
$GPVTG,261.77,T,,M,14.76,N,27.34,K,A*3E
$GPRMC,132108.600,A,4752.4892,N,01106.6885,E,14.72,260.95,170910,,,A*51
$GPGGA,132108.600,4752.4892,N,01106.6885,E,1,9,1.03,541.7,M,,,*26
$GPGSA,A,3,31,30,23,25,05,29,21,10,12,,,,1.72,1.03,1.38*06
$GPVTG,260.95,T,,M,14.72,N,27.28,K,A*3A
$GPRMC,132108.700,A,4752.4892,N,01106.6879,E,14.41,260.74,170910,,,A*5C
$GPGGA,132108.700,4752.4892,N,01106.6879,E,1,9,1.03,541.7,M,,,*24
$GPGSA,A,3,31,30,23,25,05,29,21,10,12,,,,1.72,1.03,1.38*06
$GPVTG,260.74,T,,M,14.41,N,26.69,K,A*31
$GPRMC,132108.800,A,4752.4891,N,01106.6873,E,14.39,260.15,170910,,,A*52
$GPGGA,132108.800,4752.4891,N,01106.6873,E,1,9,1.03,541.8,M,,,*2D
$GPGSA,A,3,31,30,23,25,05,29,21,10,12,,,,1.72,1.03,1.38*06
$GPVTG,260.15,T,,M,14.39,N,26.67,K,A*37
$GPRMC,132108.900,A,4752.4890,N,01106.6867,E,14.33,258.96,170910,,,A*5D
$GPGGA,132108.900,4752.4890,N,01106.6867,E,1,9,1.03,541.8,M,,,*28
$GPGSA,A,3,31,30,23,25,05,29,21,10,12,,,,1.72,1.03,1.38*06
$GPVTG,258.96,T,,M,14.33,N,26.55,K,A*3C
$GPRMC,132109.000,A,4752.4889,N,01106.6862,E,14.31,258.30,170910,,,A*56
$GPGGA,132109.000,4752.4889,N,01106.6862,E,1,9,1.03,542.0,M,,,*26
$GPGSA,A,3,31,30,23,25,05,29,21,10,12,,,,1.72,1.03,1.38*06
$GPVTG,258.30,T,,M,14.31,N,26.52,K,A*35
$GPRMC,132109.100,A,4752.4889,N,01106.6856,E,14.08,258.59,170910,,,A*55
$GPGGA,132109.100,4752.4889,N,01106.6856,E,1,9,1.03,542.0,M,,,*20
$GPGSA,A,3,31,30,23,25,05,29,21,10,12,,,,1.72,1.03,1.38*06
$GPVTG,258.59,T,,M,14.07,N,26.07,K,A*3F
$GPRMC,132109.200,A,4752.4888,N,01106.6850,E,14.27,258.63,170910,,,A*55
$GPGGA,132109.200,4752.4888,N,01106.6850,E,1,9,1.03,542.1,M,,,*25
$GPGSA,A,3,31,30,23,25,05,29,21,10,12,,,,1.72,1.03,1.38*06
$GPVTG,258.63,T,,M,14.25,N,26.41,K,A*34
$GPRMC,132109.300,A,4752.4887,N,01106.6844,E,13.69,258.99,170910,,,A*56
$GPGGA,132109.300,4752.4887,N,01106.6844,E,1,9,1.03,542.3,M,,,*2C
$GPGSA,A,3,31,30,23,25,05,29,21,10,12,,,,1.72,1.03,1.38*06
$GPVTG,258.99,T,,M,13.66,N,25.30,K,A*34
$GPRMC,132109.400,A,4752.4887,N,01106.6839,E,13.89,259.20,170910,,,A*56
$GPGGA,132109.400,4752.4887,N,01106.6839,E,1,9,1.03,542.5,M,,,*27
$GPGSA,A,3,31,30,23,25,05,29,21,10,12,,,,1.72,1.03,1.38*06
$GPVTG,259.20,T,,M,13.83,N,25.63,K,A*3A
$GPRMC,132109.500,A,4752.4886,N,01106.6833,E,13.56,258.91,170910,,,A*55
$GPGGA,132109.500,4752.4886,N,01106.6833,E,1,9,1.03,542.8,M,,,*20
$GPGSA,A,3,31,30,23,25,05,29,21,10,12,,,,1.72,1.03,1.38*06
$GPVTG,258.91,T,,M,13.47,N,24.96,K,A*32
$GPRMC,132109.600,A,4752.4885,N,01106.6828,E,13.88,258.65,170910,,,A*57
$GPGGA,132109.600,4752.4885,N,01106.6828,E,1,9,1.03,542.9,M,,,*2B
$GPGSA,A,3,31,30,23,25,05,29,21,10,12,,,,1.72,1.03,1.38*06
$GPVTG,258.65,T,,M,13.77,N,25.51,K,A*30
$GPRMC,132109.700,A,4752.4884,N,01106.6822,E,13.31,259.54,170910,,,A*5C
$GPGGA,132109.700,4752.4884,N,01106.6822,E,1,9,1.03,543.1,M,,,*28
$GPGSA,A,3,31,30,23,25,05,29,21,10,12,,,,1.72,1.03,1.38*06
$GPVTG,259.54,T,,M,13.18,N,24.43,K,A*38
$GPRMC,132109.800,A,4752.4884,N,01106.6817,E,13.10,258.66,170910,,,A*56
$GPGGA,132109.800,4752.4884,N,01106.6817,E,1,9,1.03,543.3,M,,,*23
$GPGSA,A,3,31,30,23,25,05,29,21,10,12,,,,1.72,1.03,1.38*06
$GPVTG,258.66,T,,M,12.94,N,23.98,K,A*3C
$GPRMC,132109.900,A,4752.4883,N,01106.6811,E,13.07,258.16,170910,,,A*57
$GPGGA,132109.900,4752.4883,N,01106.6811,E,1,9,1.03,543.4,M,,,*24
