$GPRMC,080303.200,A,4837.6979,N,00859.3066,E,12.23,125.56,080111,,,A*54
$GPGGA,080303.200,4837.6979,N,00859.3066,E,1,4,2.54,490.5,M,48.0,M,,*5B
$GPGSA,A,3,18,21,06,16,,,,,,,,,6.99,2.54,6.51*0E
$GPVTG,125.56,T,,M,12.18,N,22.57,K,A*30
$GPRMC,080303.300,A,4837.6979,N,00859.3069,E,12.26,125.12,080111,,,A*5F
$GPGGA,080303.300,4837.6979,N,00859.3069,E,1,4,2.54,490.5,M,48.0,M,,*55
$GPGSA,A,3,18,21,06,16,,,,,,,,,6.99,2.54,6.51*0E
$GPVTG,125.12,T,,M,12.22,N,22.64,K,A*39
$GPRMC,080303.400,A,4837.6980,N,00859.3072,E,12.36,123.46,080111,,,A*52
$GPGGA,080303.400,4837.6980,N,00859.3072,E,1,4,2.22,490.3,M,48.0,M,,*59
$GPGSA,A,3,18,21,06,16,,,,,,,,,2.43,2.22,0.99*0E
$GPVTG,123.46,T,,M,12.31,N,22.82,K,A*34
$GPRMC,080303.500,A,4837.6982,N,00859.3075,E,12.20,120.73,080111,,,A*54
$GPGGA,080303.500,4837.6982,N,00859.3075,E,1,4,2.22,490.3,M,48.0,M,,*5D
$GPGSA,A,3,18,21,06,16,,,,,,,,,2.43,2.22,0.99*0E
$GPVTG,120.73,T,,M,12.16,N,22.52,K,A*39
$GPRMC,080303.600,A,4837.6983,N,00859.3079,E,12.19,119.44,080111,,,A*5E
$GPGGA,080303.600,4837.6983,N,00859.3079,E,1,4,2.22,490.1,M,48.0,M,,*51
$GPGSA,A,3,18,21,06,16,,,,,,,,,2.43,2.22,0.99*0E
$GPVTG,119.44,T,,M,12.11,N,22.44,K,A*37
$GPRMC,080303.700,A,4837.6982,N,00859.3083,E,12.50,119.45,080111,,,A*57
$GPGGA,080303.700,4837.6982,N,00859.3083,E,1,4,2.54,490.0,M,48.0,M,,*54
$GPGSA,A,3,18,21,06,16,,,,,,,,,6.99,2.54,6.51*0E
$GPVTG,119.45,T,,M,12.41,N,22.99,K,A*33
$GPRMC,080303.800,A,4837.6981,N,00859.3088,E,12.45,116.82,080111,,,A*50
$GPGGA,080303.800,4837.6981,N,00859.3088,E,1,4,2.54,490.0,M,48.0,M,,*53
$GPGSA,A,3,18,21,06,16,,,,,,,,,6.99,2.54,6.52*0D
$GPVTG,116.82,T,,M,12.37,N,22.92,K,A*3D
$GPRMC,080303.900,A,4837.6980,N,00859.3093,E,12.46,116.51,080111,,,A*57
$GPGGA,080303.900,4837.6980,N,00859.3093,E,1,4,2.54,490.0,M,48.0,M,,*59
$GPGSA,A,3,18,21,06,16,,,,,,,,,6.99,2.54,6.52*0D
$GPVTG,116.51,T,,M,12.41,N,22.99,K,A*39
$GPRMC,080304.000,A,4837.6977,N,00859.3099,E,12.41,115.39,080111,,,A*51
$GPGGA,080304.000,4837.6977,N,00859.3099,E,1,4,2.54,490.0,M,48.0,M,,*55
$GPGSA,A,3,18,21,06,16,,,,,,,,,6.99,2.54,6.51*0E
$GPVTG,115.39,T,,M,12.37,N,22.92,K,A*3E
$GPRMC,080304.100,A,4837.6976,N,00859.3105,E,12.40,113.39,080111,,,A*52
$GPGGA,080304.100,4837.6976,N,00859.3105,E,1,4,2.54,490.1,M,48.0,M,,*50
$GPGSA,A,3,18,21,06,16,,,,,,,,,6.99,2.54,6.52*0D
$GPVTG,113.39,T,,M,12.38,N,22.93,K,A*36
$GPRMC,080304.200,A,4837.6976,N,00859.3110,E,12.46,111.62,080111,,,A*5F
$GPGGA,080304.200,4837.6976,N,00859.3110,E,1,4,2.54,490.2,M,48.0,M,,*54
$GPGSA,A,3,18,21,06,16,,,,,,,,,6.99,2.54,6.51*0E
$GPVTG,111.62,T,,M,12.45,N,23.07,K,A*3C
$GPRMC,080304.300,A,4837.6975,N,00859.3116,E,12.84,111.39,080111,,,A*5B
$GPGGA,080304.300,4837.6975,N,00859.3116,E,1,4,2.54,490.1,M,48.0,M,,*53
$GPGSA,A,3,18,21,06,16,,,,,,,,,6.99,2.54,6.52*0D
$GPVTG,111.39,T,,M,12.83,N,23.78,K,A*30
$GPRMC,080304.400,A,4837.6975,N,00859.3121,E,12.75,110.16,080111,,,A*5A
$GPGGA,080304.400,4837.6975,N,00859.3121,E,1,4,2.53,490.1,M,48.0,M,,*57
$GPGSA,A,3,18,21,06,16,,,,,,,,,6.99,2.53,6.51*09
$GPVTG,110.16,T,,M,12.74,N,23.60,K,A*3D
$GPRMC,080304.500,A,4837.6974,N,00859.3127,E,12.79,108.85,080111,,,A*53
$GPGGA,080304.500,4837.6974,N,00859.3127,E,1,4,2.54,490.0,M,48.0,M,,*57
$GPGSA,A,3,18,21,06,16,,,,,,,,,6.99,2.54,6.52*0D
$GPVTG,108.85,T,,M,12.77,N,23.66,K,A*3B
$GPRMC,080304.600,A,4837.6973,N,00859.3133,E,12.68,105.92,080111,,,A*59
$GPGGA,080304.600,4837.6973,N,00859.3133,E,1,4,2.54,489.9,M,48.0,M,,*57
$GPGSA,A,3,18,21,06,16,,,,,,,,,6.99,2.54,6.52*0D
$GPVTG,105.92,T,,M,12.65,N,23.44,K,A*33
$GPRMC,080304.700,A,4837.6972,N,00859.3140,E,12.84,105.46,080111,,,A*56
$GPGGA,080304.700,4837.6972,N,00859.3140,E,1,4,2.54,489.9,M,48.0,M,,*53
$GPGSA,A,3,18,21,06,16,,,,,,,,,6.99,2.54,6.52*0D
$GPVTG,105.46,T,,M,12.82,N,23.75,K,A*31
$GPRMC,080304.800,A,4837.6971,N,00859.3146,E,12.85,104.60,080111,,,A*58
$GPGGA,080304.800,4837.6971,N,00859.3146,E,1,4,2.53,489.9,M,48.0,M,,*5E
$GPGSA,A,3,18,21,06,16,,,,,,,,,6.99,2.53,6.52*0A
$GPVTG,104.60,T,,M,12.83,N,23.77,K,A*37
$GPRMC,080304.900,A,4837.6970,N,00859.3152,E,12.93,102.65,080111,,,A*59
$GPGGA,080304.900,4837.6970,N,00859.3152,E,1,4,2.54,489.9,M,48.0,M,,*5C
$GPGSA,A,3,18,21,06,16,,,,,,,,,6.99,2.54,6.52*0D
$GPVTG,102.65,T,,M,12.91,N,23.92,K,A*3C
$GPRMC,080305.000,A,4837.6969,N,00859.3158,E,12.72,100.15,080111,,,A*59
$GPGGA,080305.000,4837.6969,N,00859.3158,E,1,4,2.54,489.8,M,48.0,M,,*57
$GPGSA,A,3,18,21,06,16,,,,,,,,,6.99,2.54,6.52*0D
$GPVTG,100.15,T,,M,12.70,N,23.53,K,A*3B
$GPRMC,080305.100,A,4837.6968,N,00859.3164,E,12.82,98.80,080111,,,A*65
$GPGGA,080305.100,4837.6968,N,00859.3164,E,1,4,2.54,489.8,M,48.0,M,,*58
$GPGSA,A,3,18,21,06,16,,,,,,,,,6.99,2.54,6.52*0D
$GPVTG,98.80,T,,M,12.81,N,23.73,K,A*0B
$GPRMC,080305.200,A,4837.6967,N,00859.3170,E,12.78,96.76,080111,,,A*6E
$GPGGA,080305.200,4837.6967,N,00859.3170,E,1,4,2.54,489.8,M,48.0,M,,*51
$GPGSA,A,3,18,21,06,16,,,,,,,,,6.99,2.54,6.52*0D
$GPVTG,96.76,T,,M,12.77,N,23.66,K,A*01
$GPRMC,080305.300,A,4837.6967,N,00859.3176,E,13.04,95.99,080111,,,A*61
$GPGGA,080305.300,4837.6967,N,00859.3176,E,1,4,2.54,489.8,M,48.0,M,,*56
$GPGSA,A,3,18,21,06,16,,,,,,,,,6.99,2.54,6.52*0D
$GPVTG,95.99,T,,M,13.03,N,24.14,K,A*03
$GPRMC,080305.400,A,4837.6966,N,00859.3182,E,13.04,95.27,080111,,,A*69
$GPGGA,080305.400,4837.6966,N,00859.3182,E,1,4,2.54,489.7,M,48.0,M,,*54
$GPGSA,A,3,18,21,06,16,,,,,,,,,6.99,2.54,6.52*0D
$GPVTG,95.27,T,,M,13.02,N,24.12,K,A*01
$GPRMC,080305.500,A,4837.6966,N,00859.3189,E,13.41,94.73,080111,,,A*62
$GPGGA,080305.500,4837.6966,N,00859.3189,E,1,4,2.53,489.6,M,48.0,M,,*58
$GPGSA,A,3,18,21,06,16,,,,,,,,,6.99,2.53,6.52*0A
$GPVTG,94.73,T,,M,13.39,N,24.81,K,A*03
$GPRMC,080305.600,A,4837.6966,N,00859.3194,E,13.25,94.25,080111,,,A*6C
$GPGGA,080305.600,4837.6966,N,00859.3194,E,1,4,2.54,489.6,M,48.0,M,,*50
$GPGSA,A,3,18,21,06,16,,,,,,,,,7.00,2.54,6.52*0C
$GPVTG,94.25,T,,M,13.23,N,24.51,K,A*06
$GPRMC,080305.700,A,4837.6965,N,00859.3201,E,13.36,93.11,080111,,,A*63
$GPGGA,080305.700,4837.6965,N,00859.3201,E,1,4,2.54,489.6,M,48.0,M,,*5D
$GPGSA,A,3,18,21,06,16,,,,,,,,,7.00,2.54,6.52*0C
$GPVTG,93.11,T,,M,13.34,N,24.71,K,A*02
$GPRMC,080305.800,A,4837.6964,N,00859.3207,E,13.27,91.87,080111,,,A*66
$GPGGA,080305.800,4837.6964,N,00859.3207,E,1,4,2.54,489.5,M,48.0,M,,*56
$GPGSA,A,3,18,21,06,16,,,,,,,,,7.00,2.54,6.52*0C
$GPVTG,91.87,T,,M,13.25,N,24.55,K,A*09
$GPRMC,080305.900,A,4837.6963,N,00859.3213,E,13.49,90.55,080111,,,A*63
$GPGGA,080305.900,4837.6963,N,00859.3213,E,1,4,2.54,489.4,M,48.0,M,,*54
$GPGSA,A,3,18,21,06,16,,,,,,,,,7.00,2.54,6.52*0C
$GPVTG,90.55,T,,M,13.47,N,24.95,K,A*0F
$GPRMC,080306.000,A,4837.6963,N,00859.3220,E,13.63,89.70,080111,,,A*6E
$GPGGA,080306.000,4837.6963,N,00859.3220,E,1,4,2.54,489.4,M,48.0,M,,*5E
$GPGSA,A,3,18,21,06,16,,,,,,,,,7.00,2.54,6.52*0C
$GPVTG,89.70,T,,M,13.61,N,25.21,K,A*0A
$GPRMC,080306.100,A,4837.6962,N,00859.3225,E,13.80,89.10,080111,,,A*60
$GPGGA,080306.100,4837.6962,N,00859.3225,E,1,4,2.54,489.3,M,48.0,M,,*5C
$GPGSA,A,3,18,21,06,16,,,,,,,,,7.00,2.54,6.52*0C
$GPVTG,89.10,T,,M,13.77,N,25.52,K,A*0F
$GPRMC,080306.200,A,4837.6962,N,00859.3231,E,13.84,88.20,080111,,,A*60
$GPGGA,080306.200,4837.6962,N,00859.3231,E,1,4,2.53,489.2,M,48.0,M,,*5C
$GPGSA,A,3,18,21,06,16,,,,,,,,,6.99,2.53,6.52*0A
$GPVTG,88.20,T,,M,13.80,N,25.56,K,A*01
$GPRMC,080306.300,A,4837.6961,N,00859.3237,E,13.92,87.80,080111,,,A*66
$GPGGA,080306.300,4837.6961,N,00859.3237,E,1,4,2.53,489.1,M,48.0,M,,*5B
$GPGSA,A,3,18,21,06,16,,,,,,,,,6.99,2.53,6.52*0A
$GPVTG,87.80,T,,M,13.87,N,25.71,K,A*06
$GPRMC,080306.400,A,4837.6961,N,00859.3243,E,13.90,87.11,080111,,,A*68
$GPGGA,080306.400,4837.6961,N,00859.3243,E,1,4,2.54,489.0,M,48.0,M,,*59
$GPGSA,A,3,18,21,06,16,,,,,,,,,7.00,2.54,6.52*0C
$GPVTG,87.11,T,,M,13.84,N,25.64,K,A*09
$GPRMC,080306.500,A,4837.6960,N,00859.3249,E,14.10,86.62,080111,,,A*68
$GPGGA,080306.500,4837.6960,N,00859.3249,E,1,4,2.53,488.9,M,48.0,M,,*5C
$GPGSA,A,3,18,21,06,16,,,,,,,,,7.00,2.53,6.52*0B
$GPVTG,86.62,T,,M,14.04,N,26.01,K,A*03
$GPRMC,080306.600,A,4837.6960,N,00859.3255,E,14.17,86.16,080111,,,A*62
$GPGGA,080306.600,4837.6960,N,00859.3255,E,1,4,2.22,488.9,M,48.0,M,,*54
$GPGSA,A,3,18,21,06,16,,,,,,,,,2.43,2.22,0.99*0E
$GPVTG,86.16,T,,M,14.12,N,26.16,K,A*01
$GPRMC,080306.700,A,4837.6961,N,00859.3261,E,14.11,85.90,080111,,,A*6E
$GPGGA,080306.700,4837.6961,N,00859.3261,E,1,4,2.22,488.8,M,48.0,M,,*52
$GPGSA,A,3,18,21,06,16,,,,,,,,,2.43,2.22,0.99*0E
$GPVTG,85.90,T,,M,14.06,N,26.06,K,A*08
$GPRMC,080306.800,A,4837.6961,N,00859.3266,E,14.18,85.28,080111,,,A*6C
$GPGGA,080306.800,4837.6961,N,00859.3266,E,1,4,2.22,488.7,M,48.0,M,,*55
$GPGSA,A,3,18,21,06,16,,,,,,,,,2.43,2.22,0.99*0E
$GPVTG,85.28,T,,M,14.12,N,26.16,K,A*0F
$GPRMC,080306.900,A,4837.6961,N,00859.3272,E,14.25,84.61,080111,,,A*6A
$GPGGA,080306.900,4837.6961,N,00859.3272,E,1,4,2.22,488.7,M,48.0,M,,*51
$GPGSA,A,3,18,21,06,16,,,,,,,,,2.43,2.22,0.99*0E
$GPVTG,84.61,T,,M,14.19,N,26.29,K,A*04
$GPRMC,080307.000,A,4837.6962,N,00859.3278,E,14.21,83.82,080111,,,A*65
$GPGGA,080307.000,4837.6962,N,00859.3278,E,1,4,2.54,488.6,M,48.0,M,,*50
$GPGSA,A,3,18,21,06,16,,,,,,,,,7.00,2.54,6.52*0C
$GPVTG,83.82,T,,M,14.16,N,26.25,K,A*0D
$GPRMC,080307.100,A,4837.6963,N,00859.3284,E,14.16,82.44,080111,,,A*69
$GPGGA,080307.100,4837.6963,N,00859.3284,E,1,4,2.54,488.5,M,48.0,M,,*50
$GPGSA,A,3,18,21,06,16,,,,,,,,,7.00,2.54,6.52*0C
$GPVTG,82.44,T,,M,14.09,N,26.11,K,A*0F
$GPRMC,080307.200,A,4837.6964,N,00859.3289,E,13.95,81.81,080111,,,A*66
$GPGGA,080307.200,4837.6964,N,00859.3289,E,1,4,2.53,488.4,M,48.0,M,,*5F
$GPGSA,A,3,18,21,06,16,,,,,,,,,7.00,2.53,6.52*0B
$GPVTG,81.81,T,,M,13.88,N,25.71,K,A*0E
$GPRMC,080307.300,A,4837.6966,N,00859.3294,E,13.98,81.11,080111,,,A*6D
$GPGGA,080307.300,4837.6966,N,00859.3294,E,1,4,2.54,488.4,M,48.0,M,,*57
$GPGSA,A,3,18,21,06,16,,,,,,,,,7.00,2.54,6.53*0D
$GPVTG,81.11,T,,M,13.92,N,25.79,K,A*04
$GPRMC,080307.400,A,4837.6967,N,00859.3299,E,13.96,79.93,080111,,,A*65
$GPGGA,080307.400,4837.6967,N,00859.3299,E,1,4,2.54,488.4,M,48.0,M,,*5C
$GPGSA,A,3,18,21,06,16,,,,,,,,,7.00,2.54,6.53*0D
$GPVTG,79.93,T,,M,13.91,N,25.78,K,A*0B
$GPRMC,080307.500,A,4837.6968,N,00859.3304,E,13.91,77.42,080111,,,A*6B
$GPGGA,080307.500,4837.6968,N,00859.3304,E,1,4,2.53,488.3,M,48.0,M,,*57
$GPGSA,A,3,18,21,06,16,,,,,,,,,7.00,2.53,6.52*0B
$GPVTG,77.42,T,,M,13.87,N,25.70,K,A*06
$GPRMC,080307.600,A,4837.6969,N,00859.3309,E,13.81,76.81,080111,,,A*6B
$GPGGA,080307.600,4837.6969,N,00859.3309,E,1,4,2.22,488.3,M,48.0,M,,*5E
$GPGSA,A,3,18,21,06,16,,,,,,,,,2.43,2.22,0.99*0E
$GPVTG,76.81,T,,M,13.77,N,25.52,K,A*07
$GPRMC,080307.700,A,4837.6970,N,00859.3315,E,13.77,75.82,080111,,,A*66
$GPGGA,080307.700,4837.6970,N,00859.3315,E,1,4,2.22,488.3,M,48.0,M,,*5A
$GPGSA,A,3,18,21,06,16,,,,,,,,,2.43,2.22,0.99*0E
$GPVTG,75.82,T,,M,13.73,N,25.45,K,A*05
$GPRMC,080307.800,A,4837.6971,N,00859.3320,E,13.66,74.89,080111,,,A*64
$GPGGA,080307.800,4837.6971,N,00859.3320,E,1,4,2.22,488.3,M,48.0,M,,*52
$GPGSA,A,3,18,21,06,16,,,,,,,,,2.43,2.22,0.99*0E
$GPVTG,74.89,T,,M,13.64,N,25.27,K,A*0D
$GPRMC,080307.900,A,4837.6972,N,00859.3325,E,13.65,73.89,080111,,,A*67
$GPGGA,080307.900,4837.6972,N,00859.3325,E,1,4,2.22,488.4,M,48.0,M,,*52
$GPGSA,A,3,18,21,06,16,,,,,,,,,2.43,2.22,0.99*0E
$GPVTG,73.89,T,,M,13.64,N,25.28,K,A*05
$GPRMC,080308.000,A,4837.6973,N,00859.3330,E,13.41,73.11,080111,,,A*63
$GPGGA,080308.000,4837.6973,N,00859.3330,E,1,4,2.22,488.4,M,48.0,M,,*51
$GPGSA,A,3,18,21,06,16,,,,,,,,,2.43,2.22,0.99*0E
$GPVTG,73.11,T,,M,13.40,N,24.82,K,A*03
$GPRMC,080308.100,A,4837.6975,N,00859.3335,E,13.34,71.32,080111,,,A*60
$GPGGA,080308.100,4837.6975,N,00859.3335,E,1,4,2.22,488.4,M,48.0,M,,*53
$GPGSA,A,3,18,21,06,16,,,,,,,,,2.43,2.22,0.99*0E
$GPVTG,71.32,T,,M,13.33,N,24.71,K,A*08
$GPRMC,080308.200,A,4837.6977,N,00859.3339,E,13.17,69.42,080111,,,A*62
$GPGGA,080308.200,4837.6977,N,00859.3339,E,1,4,2.53,488.4,M,48.0,M,,*58
$GPGSA,A,3,18,21,06,16,,,,,,,,,7.00,2.53,6.53*0A
$GPVTG,69.42,T,,M,13.16,N,24.39,K,A*0D
$GPRMC,080308.300,A,4837.6978,N,00859.3344,E,12.94,68.42,080111,,,A*6D
$GPGGA,080308.300,4837.6978,N,00859.3344,E,1,4,2.22,488.4,M,48.0,M,,*5A
$GPGSA,A,3,18,21,06,16,,,,,,,,,2.43,2.22,0.99*0E
$GPVTG,68.42,T,,M,12.93,N,23.97,K,A*03
$GPRMC,080308.400,A,4837.6981,N,00859.3348,E,12.74,62.86,080111,,,A*6C
$GPGGA,080308.400,4837.6981,N,00859.3348,E,1,4,2.22,488.3,M,48.0,M,,*50
$GPGSA,A,3,18,21,06,16,,,,,,,,,2.43,2.22,0.99*0E
$GPVTG,62.86,T,,M,12.73,N,23.58,K,A*0C
$GPRMC,080308.500,A,4837.6983,N,00859.3352,E,12.73,61.01,080111,,,A*6F
$GPGGA,080308.500,4837.6983,N,00859.3352,E,1,4,2.22,488.3,M,48.0,M,,*58
$GPGSA,A,3,18,21,06,16,,,,,,,,,2.43,2.22,0.99*0E
$GPVTG,61.01,T,,M,12.72,N,23.57,K,A*0E
$GPRMC,080308.600,A,4837.6985,N,00859.3356,E,12.83,59.38,080111,,,A*60
$GPGGA,080308.600,4837.6985,N,00859.3356,E,1,4,2.54,488.3,M,48.0,M,,*58
$GPGSA,A,3,18,21,06,16,,,,,,,,,7.01,2.54,6.53*0C
$GPVTG,59.38,T,,M,12.82,N,23.75,K,A*00
$GPRMC,080308.700,A,4837.6987,N,00859.3361,E,12.47,58.42,080111,,,A*63
$GPGGA,080308.700,4837.6987,N,00859.3361,E,1,4,2.53,488.3,M,48.0,M,,*58
$GPGSA,A,3,18,21,06,16,,,,,,,,,7.00,2.53,6.53*0A
$GPVTG,58.42,T,,M,12.46,N,23.10,K,A*07
$GPRMC,080308.800,A,4837.6989,N,00859.3365,E,12.54,57.84,080111,,,A*61
$GPGGA,080308.800,4837.6989,N,00859.3365,E,1,4,2.54,488.3,M,48.0,M,,*5A
$GPGSA,A,3,18,21,06,16,,,,,,,,,7.00,2.54,6.53*0D
$GPVTG,57.84,T,,M,12.53,N,23.21,K,A*04
$GPRMC,080308.900,A,4837.6992,N,00859.3369,E,12.37,57.55,080111,,,A*6F
$GPGGA,080308.900,4837.6992,N,00859.3369,E,1,4,2.53,488.3,M,48.0,M,,*5A
$GPGSA,A,3,18,21,06,16,,,,,,,,,7.00,2.53,6.53*0A
$GPVTG,57.55,T,,M,12.36,N,22.90,K,A*00
$GPRMC,080309.000,A,4837.6994,N,00859.3374,E,12.42,57.18,080111,,,A*66
$GPGGA,080309.000,4837.6994,N,00859.3374,E,1,4,2.53,488.3,M,48.0,M,,*58
$GPGSA,A,3,18,21,06,16,,,,,,,,,7.01,2.53,6.53*0B
$GPVTG,57.18,T,,M,12.42,N,23.02,K,A*00
$GPRMC,080309.100,A,4837.6995,N,00859.3378,E,12.40,56.18,080111,,,A*69
$GPGGA,080309.100,4837.6995,N,00859.3378,E,1,4,2.22,488.3,M,48.0,M,,*52
$GPGSA,A,3,18,21,06,16,,,,,,,,,2.43,2.22,0.99*0E
$GPVTG,56.18,T,,M,12.40,N,22.98,K,A*01
$GPRMC,080309.200,A,4837.6997,N,00859.3382,E,12.50,55.35,080111,,,A*60
$GPGGA,080309.200,4837.6997,N,00859.3382,E,1,4,2.22,488.3,M,48.0,M,,*56
$GPGSA,A,3,18,21,06,16,,,,,,,,,2.43,2.22,0.99*0E
$GPVTG,55.35,T,,M,12.50,N,23.16,K,A*0B
$GPRMC,080309.300,A,4837.6999,N,00859.3386,E,12.53,55.19,080111,,,A*66
$GPGGA,080309.300,4837.6999,N,00859.3386,E,1,4,2.53,488.2,M,48.0,M,,*5A
$GPGSA,A,3,18,21,06,16,,,,,,,,,7.00,2.53,6.53*0A
$GPVTG,55.19,T,,M,12.53,N,23.22,K,A*01
$GPRMC,080309.400,A,4837.7000,N,00859.3390,E,12.38,55.23,080111,,,A*6A
$GPGGA,080309.400,4837.7000,N,00859.3390,E,1,4,2.54,488.2,M,48.0,M,,*55
$GPGSA,A,3,18,21,06,16,,,,,,,,,7.01,2.54,6.53*0C
$GPVTG,55.23,T,,M,12.37,N,22.92,K,A*00
$GPRMC,080309.500,A,4837.7002,N,00859.3395,E,12.27,55.98,080111,,,A*62
$GPGGA,080309.500,4837.7002,N,00859.3395,E,1,4,2.53,488.1,M,48.0,M,,*57
$GPGSA,A,3,18,21,06,16,,,,,,,,,7.01,2.53,6.53*0B
$GPVTG,55.98,T,,M,12.26,N,22.72,K,A*0E
$GPRMC,080309.600,A,4837.7004,N,00859.3399,E,12.34,56.24,080111,,,A*6D
$GPGGA,080309.600,4837.7004,N,00859.3399,E,1,4,2.53,488.1,M,48.0,M,,*5E
$GPGSA,A,3,18,21,06,16,,,,,,,,,7.01,2.53,6.53*0B
$GPVTG,56.24,T,,M,12.33,N,22.84,K,A*07
$GPRMC,080309.700,A,4837.7005,N,00859.3403,E,12.32,56.35,080111,,,A*6F
$GPGGA,080309.700,4837.7005,N,00859.3403,E,1,4,2.53,488.1,M,48.0,M,,*5A
$GPGSA,A,3,18,21,06,16,,,,,,,,,7.01,2.53,6.53*0B
$GPVTG,56.35,T,,M,12.31,N,22.81,K,A*00
$GPRMC,080309.800,A,4837.7007,N,00859.3408,E,12.43,57.05,080111,,,A*6D
$GPGGA,080309.800,4837.7007,N,00859.3408,E,1,4,2.53,488.1,M,48.0,M,,*5C
$GPGSA,A,3,18,21,06,16,,,,,,,,,7.01,2.53,6.53*0B
$GPVTG,57.05,T,,M,12.43,N,23.03,K,A*0C
$GPRMC,080309.900,A,4837.7009,N,00859.3412,E,12.43,56.85,080111,,,A*60
$GPGGA,080309.900,4837.7009,N,00859.3412,E,1,4,2.54,488.1,M,48.0,M,,*5F
$GPGSA,A,3,18,21,06,16,,,,,,,,,7.01,2.54,6.53*0C
$GPVTG,56.85,T,,M,12.43,N,23.04,K,A*02
$GPRMC,080310.000,A,4837.7011,N,00859.3416,E,12.29,57.87,080111,,,A*63
$GPGGA,080310.000,4837.7011,N,00859.3416,E,1,4,2.53,488.1,M,48.0,M,,*54
$GPGSA,A,3,18,21,06,16,,,,,,,,,7.01,2.53,6.53*0B
$GPVTG,57.87,T,,M,12.29,N,22.77,K,A*08
$GPRMC,080310.100,A,4837.7012,N,00859.3421,E,12.34,57.69,080111,,,A*69
$GPGGA,080310.100,4837.7012,N,00859.3421,E,1,4,2.22,488.1,M,48.0,M,,*54
$GPGSA,A,3,18,21,06,16,,,,,,,,,2.43,2.22,0.99*0E
$GPVTG,57.69,T,,M,12.34,N,22.87,K,A*0B
$GPRMC,080310.200,A,4837.7014,N,00859.3425,E,12.11,59.40,080111,,,A*6A
$GPGGA,080310.200,4837.7014,N,00859.3425,E,1,4,2.53,488.1,M,48.0,M,,*53
$GPGSA,A,3,18,21,06,16,,,,,,,,,7.01,2.53,6.53*0B
$GPVTG,59.40,T,,M,12.11,N,22.43,K,A*01
$GPRMC,080310.300,A,4837.7015,N,00859.3429,E,12.22,59.85,080111,,,A*6F
$GPGGA,080310.300,4837.7015,N,00859.3429,E,1,4,2.53,488.0,M,48.0,M,,*5E
$GPGSA,A,3,18,21,06,16,,,,,,,,,7.01,2.53,6.53*0B
$GPVTG,59.85,T,,M,12.21,N,22.62,K,A*08
$GPRMC,080310.400,A,4837.7017,N,00859.3433,E,12.12,60.21,080111,,,A*66
$GPGGA,080310.400,4837.7017,N,00859.3433,E,1,4,2.53,487.9,M,48.0,M,,*56
$GPGSA,A,3,18,21,06,16,,,,,,,,,7.01,2.53,6.53*0B
$GPVTG,60.21,T,,M,12.11,N,22.43,K,A*0C
$GPRMC,080310.500,A,4837.7019,N,00859.3438,E,12.17,61.17,080111,,,A*63
$GPGGA,080310.500,4837.7019,N,00859.3438,E,1,4,2.53,487.9,M,48.0,M,,*52
$GPGSA,A,3,18,21,06,16,,,,,,,,,7.01,2.53,6.53*0B
$GPVTG,61.17,T,,M,12.16,N,22.54,K,A*09
$GPRMC,080310.600,A,4837.7020,N,00859.3442,E,12.05,61.75,080111,,,A*60
$GPGGA,080310.600,4837.7020,N,00859.3442,E,1,4,2.54,487.8,M,48.0,M,,*50
$GPGSA,A,3,18,21,06,16,,,,,,,,,7.01,2.54,6.54*0B
$GPVTG,61.75,T,,M,12.03,N,22.29,K,A*03
$GPRMC,080310.700,A,4837.7021,N,00859.3447,E,12.21,63.09,080111,,,A*6A
$GPGGA,080310.700,4837.7021,N,00859.3447,E,1,4,2.53,487.7,M,48.0,M,,*5D
$GPGSA,A,3,18,21,06,16,,,,,,,,,7.01,2.53,6.53*0B
$GPVTG,63.09,T,,M,12.19,N,22.58,K,A*07
$GPRMC,080310.800,A,4837.7023,N,00859.3451,E,11.87,63.67,080111,,,A*67
$GPGGA,080310.800,4837.7023,N,00859.3451,E,1,4,2.53,487.7,M,48.0,M,,*57
$GPGSA,A,3,18,21,06,16,,,,,,,,,7.01,2.53,6.54*0C
$GPVTG,63.67,T,,M,11.85,N,21.96,K,A*08
$GPRMC,080310.900,A,4837.7024,N,00859.3456,E,12.00,64.17,080111,,,A*6A
$GPGGA,080310.900,4837.7024,N,00859.3456,E,1,4,2.53,487.7,M,48.0,M,,*56
$GPGSA,A,3,18,21,06,16,,,,,,,,,7.01,2.53,6.53*0B
$GPVTG,64.17,T,,M,11.98,N,22.19,K,A*00
$GPRMC,080311.000,A,4837.7025,N,00859.3460,E,12.00,65.43,080111,,,A*66
$GPGGA,080311.000,4837.7025,N,00859.3460,E,1,4,2.54,487.7,M,48.0,M,,*5D
$GPGSA,A,3,18,21,06,16,,,,,,,,,7.01,2.54,6.54*0B
$GPVTG,65.43,T,,M,11.99,N,22.21,K,A*0A
$GPRMC,080311.100,A,4837.7027,N,00859.3465,E,11.92,65.95,080111,,,A*63
$GPGGA,080311.100,4837.7027,N,00859.3465,E,1,4,2.53,487.6,M,48.0,M,,*5D
$GPGSA,A,3,18,21,06,16,,,,,,,,,7.01,2.53,6.54*0C
$GPVTG,65.95,T,,M,11.90,N,22.05,K,A*0E
$GPRMC,080311.200,A,4837.7029,N,00859.3469,E,11.99,66.23,080111,,,A*67
$GPGGA,080311.200,4837.7029,N,00859.3469,E,1,4,2.53,487.6,M,48.0,M,,*5C
$GPGSA,A,3,18,21,06,16,,,,,,,,,7.01,2.53,6.53*0B
$GPVTG,66.23,T,,M,11.97,N,22.18,K,A*0B
$GPRMC,080311.300,A,4837.7030,N,00859.3474,E,11.75,67.36,080111,,,A*65
$GPGGA,080311.300,4837.7030,N,00859.3474,E,1,4,2.54,487.6,M,48.0,M,,*5E
$GPGSA,A,3,18,21,06,16,,,,,,,,,7.01,2.54,6.54*0B
$GPVTG,67.36,T,,M,11.74,N,21.75,K,A*0B
$GPRMC,080311.400,A,4837.7031,N,00859.3478,E,11.74,67.89,080111,,,A*6A
$GPGGA,080311.400,4837.7031,N,00859.3478,E,1,4,2.53,487.6,M,48.0,M,,*53
$GPGSA,A,3,18,21,06,16,,,,,,,,,7.01,2.53,6.54*0C
$GPVTG,67.89,T,,M,11.73,N,21.74,K,A*09
$GPRMC,080311.500,A,4837.7032,N,00859.3483,E,11.82,68.42,080111,,,A*6D
$GPGGA,080311.500,4837.7032,N,00859.3483,E,1,4,2.53,487.6,M,48.0,M,,*55
$GPGSA,A,3,18,21,06,16,,,,,,,,,7.01,2.53,6.54*0C
$GPVTG,68.42,T,,M,11.81,N,21.89,K,A*0E
$GPRMC,080311.600,A,4837.7034,N,00859.3487,E,11.65,69.09,080111,,,A*6B
$GPGGA,080311.600,4837.7034,N,00859.3487,E,1,4,2.53,487.6,M,48.0,M,,*54
$GPGSA,A,3,18,21,06,16,,,,,,,,,7.01,2.53,6.54*0C
$GPVTG,69.09,T,,M,11.64,N,21.56,K,A*09
$GPRMC,080311.700,A,4837.7035,N,00859.3492,E,11.95,70.16,080111,,,A*66
$GPGGA,080311.700,4837.7035,N,00859.3492,E,1,4,2.53,487.5,M,48.0,M,,*53
$GPGSA,A,3,18,21,06,16,,,,,,,,,7.01,2.53,6.54*0C
$GPVTG,70.16,T,,M,11.94,N,22.12,K,A*03
$GPRMC,080311.800,A,4837.7036,N,00859.3496,E,11.79,72.03,080111,,,A*6A
$GPGGA,080311.800,4837.7036,N,00859.3496,E,1,4,2.53,487.6,M,48.0,M,,*58
$GPGSA,A,3,18,21,06,16,,,,,,,,,7.01,2.53,6.54*0C
$GPVTG,72.03,T,,M,11.78,N,21.82,K,A*0D
$GPRMC,080311.900,A,4837.7037,N,00859.3501,E,11.57,73.17,080111,,,A*6D
$GPGGA,080311.900,4837.7037,N,00859.3501,E,1,4,2.53,487.6,M,48.0,M,,*57
$GPGSA,A,3,18,21,06,16,,,,,,,,,7.01,2.53,6.54*0C
$GPVTG,73.17,T,,M,11.57,N,21.43,K,A*09
$GPRMC,080312.000,A,4837.7038,N,00859.3506,E,11.51,73.63,080111,,,A*6A
$GPGGA,080312.000,4837.7038,N,00859.3506,E,1,4,2.53,487.6,M,48.0,M,,*55
$GPGSA,A,3,18,21,06,16,,,,,,,,,7.01,2.53,6.54*0C
$GPVTG,73.63,T,,M,11.51,N,21.32,K,A*0A
$GPRMC,080312.100,A,4837.7039,N,00859.3510,E,11.50,73.85,080111,,,A*64
$GPGGA,080312.100,4837.7039,N,00859.3510,E,1,4,2.22,487.6,M,48.0,M,,*54
$GPGSA,A,3,18,21,06,16,,,,,,,,,2.43,2.22,0.99*0E
$GPVTG,73.85,T,,M,11.50,N,21.30,K,A*01
$GPRMC,080312.200,A,4837.7040,N,00859.3515,E,11.59,73.95,080111,,,A*64
$GPGGA,080312.200,4837.7040,N,00859.3515,E,1,4,2.22,487.6,M,48.0,M,,*5C
$GPGSA,A,3,18,21,06,16,,,,,,,,,2.43,2.22,0.99*0E
$GPVTG,73.95,T,,M,11.59,N,21.48,K,A*06
$GPRMC,080312.300,A,4837.7041,N,00859.3520,E,11.55,74.12,080111,,,A*66
$GPGGA,080312.300,4837.7041,N,00859.3520,E,1,4,2.22,487.7,M,48.0,M,,*5B
$GPGSA,A,3,18,21,06,16,,,,,,,,,2.43,2.22,0.99*0E
$GPVTG,74.12,T,,M,11.55,N,21.41,K,A*0B
$GPRMC,080312.400,A,4837.7042,N,00859.3524,E,11.38,74.34,080111,,,A*69
$GPGGA,080312.400,4837.7042,N,00859.3524,E,1,4,2.22,487.7,M,48.0,M,,*5B
$GPGSA,A,3,18,21,06,16,,,,,,,,,2.43,2.22,0.99*0E
$GPVTG,74.34,T,,M,11.38,N,21.09,K,A*08
$GPRMC,080312.500,A,4837.7043,N,00859.3529,E,11.36,74.36,080111,,,A*68
$GPGGA,080312.500,4837.7043,N,00859.3529,E,1,4,2.22,487.7,M,48.0,M,,*56
$GPGSA,A,3,18,21,06,16,,,,,,,,,2.43,2.22,0.99*0E
$GPVTG,74.36,T,,M,11.36,N,21.05,K,A*08
$GPRMC,080312.600,A,4837.7044,N,00859.3534,E,11.38,74.43,080111,,,A*6C
$GPGGA,080312.600,4837.7044,N,00859.3534,E,1,4,2.22,487.7,M,48.0,M,,*5E
$GPGSA,A,3,18,21,06,16,,,,,,,,,2.43,2.22,0.99*0E
$GPVTG,74.43,T,,M,11.38,N,21.10,K,A*00
$GPRMC,080312.700,A,4837.7045,N,00859.3538,E,11.30,74.49,080111,,,A*62
$GPGGA,080312.700,4837.7045,N,00859.3538,E,1,4,2.53,487.7,M,48.0,M,,*54
$GPGSA,A,3,18,21,06,16,,,,,,,,,7.01,2.53,6.54*0C
$GPVTG,74.49,T,,M,11.30,N,20.93,K,A*08
$GPRMC,080312.800,A,4837.7046,N,00859.3543,E,11.27,74.37,080111,,,A*6D
$GPGGA,080312.800,4837.7046,N,00859.3543,E,1,4,2.22,487.7,M,48.0,M,,*52
$GPGSA,A,3,18,21,06,16,,,,,,,,,2.43,2.22,0.99*0E
$GPVTG,74.37,T,,M,11.27,N,20.89,K,A*0C
$GPRMC,080312.900,A,4837.7047,N,00859.3547,E,11.28,76.60,080111,,,A*66
$GPGGA,080312.900,4837.7047,N,00859.3547,E,1,4,2.22,487.6,M,48.0,M,,*57
$GPGSA,A,3,18,21,06,16,,,,,,,,,2.43,2.22,0.99*0E
$GPVTG,76.60,T,,M,11.28,N,20.89,K,A*03
$GPRMC,080313.000,A,4837.7048,N,00859.3551,E,11.07,75.70,080111,,,A*69
$GPGGA,080313.000,4837.7048,N,00859.3551,E,1,4,2.22,487.6,M,48.0,M,,*57
$GPGSA,A,3,18,21,06,16,,,,,,,,,2.43,2.22,0.99*0E
$GPVTG,75.70,T,,M,11.07,N,20.51,K,A*09
$GPRMC,080313.100,A,4837.7049,N,00859.3555,E,10.91,76.71,080111,,,A*61
$GPGGA,080313.100,4837.7049,N,00859.3555,E,1,4,2.22,487.5,M,48.0,M,,*50
$GPGSA,A,3,18,21,06,16,,,,,,,,,2.43,2.22,0.99*0E
$GPVTG,76.71,T,,M,10.90,N,20.19,K,A*08
$GPRMC,080313.200,A,4837.7050,N,00859.3559,E,11.16,75.61,080111,,,A*6A
$GPGGA,080313.200,4837.7050,N,00859.3559,E,1,4,2.22,487.5,M,48.0,M,,*57
$GPGSA,A,3,18,21,06,16,,,,,,,,,2.43,2.22,0.99*0E
$GPVTG,75.61,T,,M,11.16,N,20.68,K,A*03
$GPRMC,080313.300,A,4837.7051,N,00859.3564,E,11.18,76.27,080111,,,A*6B
$GPGGA,080313.300,4837.7051,N,00859.3564,E,1,4,2.22,487.4,M,48.0,M,,*58
$GPGSA,A,3,18,21,06,16,,,,,,,,,2.43,2.22,0.99*0E
$GPVTG,76.27,T,,M,11.17,N,20.69,K,A*02
$GPRMC,080313.400,A,4837.7052,N,00859.3568,E,11.01,77.14,080111,,,A*6A
$GPGGA,080313.400,4837.7052,N,00859.3568,E,1,4,2.22,487.4,M,48.0,M,,*50
$GPGSA,A,3,18,21,06,16,,,,,,,,,2.43,2.22,0.99*0E
$GPVTG,77.14,T,,M,11.01,N,20.40,K,A*0F
$GPRMC,080313.500,A,4837.7053,N,00859.3572,E,10.81,77.59,080111,,,A*61
$GPGGA,080313.500,4837.7053,N,00859.3572,E,1,4,2.54,487.4,M,48.0,M,,*5A
$GPGSA,A,3,18,21,06,16,,,,,,,,,7.02,2.54,6.55*09
$GPVTG,77.59,T,,M,10.80,N,20.01,K,A*0B
$GPRMC,080313.600,A,4837.7054,N,00859.3576,E,10.97,76.65,080111,,,A*68
$GPGGA,080313.600,4837.7054,N,00859.3576,E,1,4,2.53,487.4,M,48.0,M,,*5D
$GPGSA,A,3,18,21,06,16,,,,,,,,,7.02,2.53,6.55*0E
$GPVTG,76.65,T,,M,10.97,N,20.33,K,A*02
$GPRMC,080313.700,A,4837.7055,N,00859.3580,E,10.78,78.65,080111,,,A*6E
$GPGGA,080313.700,4837.7055,N,00859.3580,E,1,4,2.54,487.4,M,48.0,M,,*53
$GPGSA,A,3,18,21,06,16,,,,,,,,,7.02,2.54,6.55*09
$GPVTG,78.65,T,,M,10.78,N,19.98,K,A*06
$GPRMC,080313.800,A,4837.7056,N,00859.3584,E,10.60,78.93,080111,,,A*66
$GPGGA,080313.800,4837.7056,N,00859.3584,E,1,4,2.22,487.4,M,48.0,M,,*5A
$GPGSA,A,3,18,21,06,16,,,,,,,,,2.43,2.22,0.99*0E
$GPVTG,78.93,T,,M,10.60,N,19.64,K,A*05
$GPRMC,080313.900,A,4837.7057,N,00859.3588,E,10.42,76.56,080111,,,A*6D
$GPGGA,080313.900,4837.7057,N,00859.3588,E,1,4,2.22,487.4,M,48.0,M,,*56
$GPGSA,A,3,18,21,06,16,,,,,,,,,2.43,2.22,0.99*0E
$GPVTG,76.56,T,,M,10.42,N,19.31,K,A*02
$GPRMC,080314.000,A,4837.7057,N,00859.3592,E,10.51,78.55,080111,,,A*67
$GPGGA,080314.000,4837.7057,N,00859.3592,E,1,4,2.22,487.3,M,48.0,M,,*54
$GPGSA,A,3,18,21,06,16,,,,,,,,,2.43,2.22,0.99*0E
$GPVTG,78.55,T,,M,10.50,N,19.46,K,A*0C
$GPRMC,080314.100,A,4837.7058,N,00859.3596,E,10.16,78.58,080111,,,A*63
$GPGGA,080314.100,4837.7058,N,00859.3596,E,1,4,2.22,487.3,M,48.0,M,,*5E
$GPGSA,A,3,18,21,06,16,,,,,,,,,2.43,2.22,0.99*0E
$GPVTG,78.58,T,,M,10.15,N,18.81,K,A*0A
$GPRMC,080314.200,A,4837.7059,N,00859.3600,E,10.00,77.30,080111,,,A*6B
$GPGGA,080314.200,4837.7059,N,00859.3600,E,1,4,2.22,487.3,M,48.0,M,,*50
$GPGSA,A,3,18,21,06,16,,,,,,,,,2.43,2.22,0.99*0E
$GPVTG,77.30,T,,M,9.99,N,18.51,K,A*3A
$GPRMC,080314.300,A,4837.7059,N,00859.3604,E,10.20,78.90,080111,,,A*69
$GPGGA,080314.300,4837.7059,N,00859.3604,E,1,4,2.53,487.3,M,48.0,M,,*53
$GPGSA,A,3,18,21,06,16,,,,,,,,,7.02,2.53,6.55*0E
$GPVTG,78.90,T,,M,10.19,N,18.87,K,A*04
$GPRMC,080314.400,A,4837.7059,N,00859.3608,E,9.96,78.76,080111,,,A*5F
$GPGGA,080314.400,4837.7059,N,00859.3608,E,1,4,2.53,487.3,M,48.0,M,,*58
$GPGSA,A,3,18,21,06,16,,,,,,,,,7.02,2.53,6.55*0E
$GPVTG,78.76,T,,M,9.96,N,18.46,K,A*3E
$GPRMC,080314.500,A,4837.7060,N,00859.3611,E,9.54,78.49,080111,,,A*5E
$GPGGA,080314.500,4837.7060,N,00859.3611,E,1,4,2.53,487.4,M,48.0,M,,*5C
$GPGSA,A,3,18,21,06,16,,,,,,,,,7.02,2.53,6.55*0E
$GPVTG,78.49,T,,M,9.54,N,17.67,K,A*30
$GPRMC,080314.600,A,4837.7060,N,00859.3615,E,9.43,79.41,080111,,,A*56
$GPGGA,080314.600,4837.7060,N,00859.3615,E,1,4,2.53,487.4,M,48.0,M,,*5B
$GPGSA,A,3,18,21,06,16,,,,,,,,,7.02,2.53,6.55*0E
$GPVTG,79.41,T,,M,9.43,N,17.47,K,A*3D
$GPRMC,080314.700,A,4837.7061,N,00859.3618,E,9.21,78.72,080111,,,A*5E
$GPGGA,080314.700,4837.7061,N,00859.3618,E,1,4,2.53,487.4,M,48.0,M,,*56
$GPGSA,A,3,18,21,06,16,,,,,,,,,7.02,2.53,6.55*0E
$GPVTG,78.72,T,,M,9.21,N,17.07,K,A*3C
$GPRMC,080314.800,A,4837.7061,N,00859.3622,E,8.95,77.82,080111,,,A*56
$GPGGA,080314.800,4837.7061,N,00859.3622,E,1,4,2.53,487.5,M,48.0,M,,*51
$GPGSA,A,3,18,21,06,16,,,,,,,,,7.02,2.53,6.55*0E
$GPVTG,77.82,T,,M,8.95,N,16.59,K,A*38
$GPRMC,080314.900,A,4837.7062,N,00859.3625,E,8.74,80.24,080111,,,A*58
$GPGGA,080314.900,4837.7062,N,00859.3625,E,1,4,2.53,487.5,M,48.0,M,,*54
$GPGSA,A,3,18,21,06,16,,,,,,,,,7.02,2.53,6.55*0E
$GPVTG,80.24,T,,M,8.74,N,16.20,K,A*3D
$GPRMC,080315.000,A,4837.7062,N,00859.3628,E,8.52,79.76,080111,,,A*58
$GPGGA,080315.000,4837.7062,N,00859.3628,E,1,4,2.54,487.5,M,48.0,M,,*56
$GPGSA,A,3,18,21,06,16,,,,,,,,,7.02,2.54,6.55*09
$GPVTG,79.76,T,,M,8.52,N,15.80,K,A*31
$GPRMC,080315.100,A,4837.7063,N,00859.3631,E,8.31,80.44,080111,,,A*52
$GPGGA,080315.100,4837.7063,N,00859.3631,E,1,5,2.38,487.5,M,48.0,M,,*55
$GPGSA,A,3,18,21,06,16,22,,,,,,,,5.11,2.38,4.52*06
$GPVTG,80.44,T,,M,8.31,N,15.40,K,A*3F
$GPRMC,080315.200,A,4837.7063,N,00859.3635,E,8.10,81.61,080111,,,A*50
$GPGGA,080315.200,4837.7063,N,00859.3635,E,1,5,2.38,487.4,M,48.0,M,,*53
$GPGSA,A,3,18,21,06,16,22,,,,,,,,5.11,2.38,4.52*06
$GPVTG,81.61,T,,M,8.10,N,15.02,K,A*3C
$GPRMC,080315.300,A,4837.7063,N,00859.3638,E,8.13,81.57,080111,,,A*5A
$GPGGA,080315.300,4837.7063,N,00859.3638,E,1,5,1.64,487.4,M,48.0,M,,*55
$GPGSA,A,3,18,21,06,16,22,,,,,,,,1.91,1.64,0.98*02
$GPVTG,81.57,T,,M,8.13,N,15.07,K,A*3F
$GPRMC,080315.400,A,4837.7063,N,00859.3641,E,8.00,81.57,080111,,,A*51
$GPGGA,080315.400,4837.7063,N,00859.3641,E,1,5,1.64,487.3,M,48.0,M,,*5B
$GPGSA,A,3,18,21,06,16,22,,,,,,,,1.91,1.64,0.98*02
$GPVTG,81.57,T,,M,8.00,N,14.82,K,A*31
$GPRMC,080315.500,A,4837.7063,N,00859.3644,E,7.61,81.77,080111,,,A*5F
$GPGGA,080315.500,4837.7063,N,00859.3644,E,1,5,2.38,487.3,M,48.0,M,,*55
$GPGSA,A,3,18,21,06,16,22,,,,,,,,5.11,2.38,4.52*06
$GPVTG,81.77,T,,M,7.60,N,14.08,K,A*38
$GPRMC,080315.600,A,4837.7063,N,00859.3646,E,7.54,82.33,080111,,,A*5B
$GPGGA,080315.600,4837.7063,N,00859.3646,E,1,5,2.38,487.3,M,48.0,M,,*54
$GPGSA,A,3,18,21,06,16,22,,,,,,,,5.11,2.38,4.52*06
$GPVTG,82.33,T,,M,7.53,N,13.95,K,A*38
$GPRMC,080315.700,A,4837.7064,N,00859.3649,E,7.27,83.24,080111,,,A*51
$GPGGA,080315.700,4837.7064,N,00859.3649,E,1,5,2.38,487.3,M,48.0,M,,*5D
$GPGSA,A,3,18,21,06,16,22,,,,,,,,5.11,2.38,4.52*06
$GPVTG,83.24,T,,M,7.27,N,13.47,K,A*33
$GPRMC,080315.800,A,4837.7063,N,00859.3652,E,7.24,84.71,080111,,,A*57
$GPGGA,080315.800,4837.7063,N,00859.3652,E,1,5,2.38,487.3,M,48.0,M,,*5F
$GPGSA,A,3,18,21,06,16,22,,,,,,,,5.11,2.38,4.52*06
$GPVTG,84.71,T,,M,7.24,N,13.41,K,A*31
$GPRMC,080315.900,A,4837.7063,N,00859.3655,E,7.08,85.27,080111,,,A*5D
$GPGGA,080315.900,4837.7063,N,00859.3655,E,1,5,2.38,487.3,M,48.0,M,,*59
$GPGSA,A,3,18,21,06,16,22,,,,,,,,5.11,2.38,4.52*06
$GPVTG,85.27,T,,M,7.08,N,13.12,K,A*3B
$GPRMC,080316.000,A,4837.7063,N,00859.3658,E,6.82,86.83,080111,,,A*54
$GPGGA,080316.000,4837.7063,N,00859.3658,E,1,5,2.38,487.2,M,48.0,M,,*5F
$GPGSA,A,3,18,21,06,16,22,,,,,,,,5.11,2.38,4.52*06
$GPVTG,86.83,T,,M,6.81,N,12.61,K,A*33
$GPRMC,080316.100,A,4837.7063,N,00859.3661,E,6.80,88.79,080111,,,A*56
$GPGGA,080316.100,4837.7063,N,00859.3661,E,1,5,2.38,487.2,M,48.0,M,,*54
$GPGSA,A,3,18,21,06,16,22,,,,,,,,5.11,2.38,4.52*06
$GPVTG,88.79,T,,M,6.80,N,12.60,K,A*38
$GPRMC,080316.200,A,4837.7062,N,00859.3664,E,6.84,90.37,080111,,,A*56
$GPGGA,080316.200,4837.7062,N,00859.3664,E,1,5,2.38,487.3,M,48.0,M,,*52
$GPGSA,A,3,18,21,06,16,22,,,,,,,,5.11,2.38,4.52*06
$GPVTG,90.37,T,,M,6.84,N,12.67,K,A*38
$GPRMC,080316.300,A,4837.7062,N,00859.3668,E,6.74,92.52,080111,,,A*55
$GPGGA,080316.300,4837.7062,N,00859.3668,E,1,5,2.38,487.2,M,48.0,M,,*5E
$GPGSA,A,3,18,21,06,16,22,,,,,,,,5.11,2.38,4.52*06
$GPVTG,92.52,T,,M,6.74,N,12.48,K,A*3B
$GPRMC,080316.400,A,4837.7062,N,00859.3671,E,6.60,94.55,080111,,,A*5E
$GPGGA,080316.400,4837.7062,N,00859.3671,E,1,5,1.64,487.2,M,48.0,M,,*5B
$GPGSA,A,3,18,21,06,16,22,,,,,,,,1.91,1.64,0.98*02
$GPVTG,94.55,T,,M,6.60,N,12.23,K,A*32
$GPRMC,080316.500,A,4837.7062,N,00859.3673,E,6.36,97.36,080111,,,A*58
$GPGGA,080316.500,4837.7062,N,00859.3673,E,1,5,1.64,487.3,M,48.0,M,,*59
$GPGSA,A,3,18,21,06,16,22,,,,,,,,1.90,1.64,0.98*03
$GPVTG,97.36,T,,M,6.36,N,11.78,K,A*3A
$GPRMC,080316.600,A,4837.7061,N,00859.3676,E,6.12,100.44,080111,,,A*61
$GPGGA,080316.600,4837.7061,N,00859.3676,E,1,5,1.64,487.3,M,48.0,M,,*5C
$GPGSA,A,3,18,21,06,16,22,,,,,,,,1.90,1.64,0.98*03
$GPVTG,100.44,T,,M,6.12,N,11.34,K,A*0E
$GPRMC,080316.700,A,4837.7061,N,00859.3679,E,6.22,101.53,080111,,,A*6B
$GPGGA,080316.700,4837.7061,N,00859.3679,E,1,5,1.64,487.3,M,48.0,M,,*52
$GPGSA,A,3,18,21,06,16,22,,,,,,,,1.91,1.64,0.98*02
$GPVTG,101.53,T,,M,6.22,N,11.52,K,A*0A
$GPRMC,080316.800,A,4837.7060,N,00859.3681,E,6.20,104.20,080111,,,A*61
$GPGGA,080316.800,4837.7060,N,00859.3681,E,1,5,2.38,487.4,M,48.0,M,,*56
$GPGSA,A,3,18,21,06,16,22,,,,,,,,5.11,2.38,4.52*06
$GPVTG,104.20,T,,M,6.20,N,11.49,K,A*03
$GPRMC,080316.900,A,4837.7059,N,00859.3684,E,6.27,106.84,080111,,,A*64
$GPGGA,080316.900,4837.7059,N,00859.3684,E,1,5,2.38,487.4,M,48.0,M,,*58
$GPGSA,A,3,18,21,06,16,22,,,,,,,,5.11,2.38,4.52*06
$GPVTG,106.84,T,,M,6.27,N,11.62,K,A*01
$GPRMC,080317.000,A,4837.7059,N,00859.3687,E,6.14,111.19,080111,,,A*6D
$GPGGA,080317.000,4837.7059,N,00859.3687,E,1,5,2.38,487.4,M,48.0,M,,*53
$GPGSA,A,3,18,21,06,16,22,,,,,,,,5.11,2.38,4.52*06
$GPVTG,111.19,T,,M,6.14,N,11.37,K,A*03
$GPRMC,080317.100,A,4837.7058,N,00859.3689,E,6.21,113.27,080111,,,A*6A
$GPGGA,080317.100,4837.7058,N,00859.3689,E,1,5,2.38,487.4,M,48.0,M,,*5D
$GPGSA,A,3,18,21,06,16,22,,,,,,,,5.11,2.38,4.52*06
$GPVTG,113.27,T,,M,6.21,N,11.51,K,A*0A
$GPRMC,080317.200,A,4837.7057,N,00859.3692,E,6.28,115.77,080111,,,A*66
$GPGGA,080317.200,4837.7057,N,00859.3692,E,1,5,2.38,487.4,M,48.0,M,,*5B
$GPGSA,A,3,18,21,06,16,22,,,,,,,,5.11,2.38,4.52*06
$GPVTG,115.77,T,,M,6.28,N,11.63,K,A*01
$GPRMC,080317.300,A,4837.7055,N,00859.3695,E,7.32,118.79,080111,,,A*6B
$GPGGA,080317.300,4837.7055,N,00859.3695,E,1,5,2.38,487.5,M,48.0,M,,*5E
$GPGSA,A,3,18,21,06,16,22,,,,,,,,5.11,2.38,4.52*06
$GPVTG,118.79,T,,M,7.32,N,13.57,K,A*0D
$GPRMC,080317.400,A,4837.7053,N,00859.3698,E,8.05,123.92,080111,,,A*61
$GPGGA,080317.400,4837.7053,N,00859.3698,E,1,5,2.38,487.5,M,48.0,M,,*52
$GPGSA,A,3,18,21,06,16,22,,,,,,,,5.11,2.38,4.52*06
$GPVTG,123.92,T,,M,8.05,N,14.91,K,A*06
$GPRMC,080317.500,A,4837.7052,N,00859.3701,E,7.67,125.92,080111,,,A*6D
$GPGGA,080317.500,4837.7052,N,00859.3701,E,1,5,2.38,487.6,M,48.0,M,,*50
$GPGSA,A,3,18,21,06,16,22,,,,,,,,5.11,2.38,4.52*06
$GPVTG,125.92,T,,M,7.66,N,14.19,K,A*0A
$GPRMC,080317.600,A,4837.7051,N,00859.3704,E,8.21,129.07,080111,,,A*65
$GPGGA,080317.600,4837.7051,N,00859.3704,E,1,5,2.38,487.6,M,48.0,M,,*55
$GPGSA,A,3,18,21,06,16,22,,,,,,,,5.11,2.38,4.52*06
$GPVTG,129.07,T,,M,8.20,N,15.20,K,A*0C
$GPRMC,080317.700,A,4837.7049,N,00859.3707,E,8.51,132.28,080111,,,A*6E
$GPGGA,080317.700,4837.7049,N,00859.3707,E,1,5,2.38,487.6,M,48.0,M,,*5E
$GPGSA,A,3,18,21,06,16,22,,,,,,,,5.11,2.38,4.52*06
$GPVTG,132.28,T,,M,8.50,N,15.75,K,A*0C
$GPRMC,080317.800,A,4837.7047,N,00859.3710,E,8.43,133.17,080111,,,A*67
$GPGGA,080317.800,4837.7047,N,00859.3710,E,1,5,2.38,487.6,M,48.0,M,,*59
$GPGSA,A,3,18,21,06,16,22,,,,,,,,5.11,2.38,4.52*06
$GPVTG,133.17,T,,M,8.42,N,15.60,K,A*06
$GPRMC,080317.900,A,4837.7046,N,00859.3712,E,8.66,138.75,080111,,,A*6D
$GPGGA,080317.900,4837.7046,N,00859.3712,E,1,5,2.38,487.6,M,48.0,M,,*5B
$GPGSA,A,3,18,21,06,16,22,,,,,,,,5.11,2.38,4.52*06
$GPVTG,138.75,T,,M,8.65,N,16.03,K,A*0A
$GPRMC,080318.000,A,4837.7044,N,00859.3714,E,8.94,140.42,080111,,,A*69
$GPGGA,080318.000,4837.7044,N,00859.3714,E,1,5,2.38,487.7,M,48.0,M,,*58
$GPGSA,A,3,18,21,06,16,22,,,,,,,,5.11,2.38,4.52*06
$GPVTG,140.42,T,,M,8.93,N,16.55,K,A*0B
$GPRMC,080318.100,A,4837.7042,N,00859.3717,E,9.08,141.89,080111,,,A*6F
$GPGGA,080318.100,4837.7042,N,00859.3717,E,1,5,2.38,487.7,M,48.0,M,,*5C
$GPGSA,A,3,18,21,06,16,22,,,,,,,,5.11,2.38,4.52*06
$GPVTG,141.89,T,,M,9.07,N,16.80,K,A*09
$GPRMC,080318.200,A,4837.7040,N,00859.3719,E,9.65,144.27,080111,,,A*6A
$GPGGA,080318.200,4837.7040,N,00859.3719,E,1,5,2.38,487.8,M,48.0,M,,*5C
$GPGSA,A,3,18,21,06,16,22,,,,,,,,5.11,2.38,4.52*06
$GPVTG,144.27,T,,M,9.64,N,17.87,K,A*0B
$GPRMC,080318.300,A,4837.7038,N,00859.3721,E,9.67,147.67,080111,,,A*6A
$GPGGA,080318.300,4837.7038,N,00859.3721,E,1,5,2.38,487.8,M,48.0,M,,*59
$GPGSA,A,3,18,21,06,16,22,,,,,,,,5.11,2.38,4.52*06
$GPVTG,147.67,T,,M,9.65,N,17.89,K,A*03
$GPRMC,080318.400,A,4837.7036,N,00859.3723,E,9.80,149.23,080111,,,A*66
$GPGGA,080318.400,4837.7036,N,00859.3723,E,1,5,2.38,487.9,M,48.0,M,,*53
$GPGSA,A,3,18,21,06,16,22,,,,,,,,5.11,2.38,4.52*06
$GPVTG,149.23,T,,M,9.78,N,18.12,K,A*0C
$GPRMC,080318.500,A,4837.7033,N,00859.3725,E,10.04,151.23,080111,,,A*59
$GPGGA,080318.500,4837.7033,N,00859.3725,E,1,5,2.38,487.9,M,48.0,M,,*51
$GPGSA,A,3,18,21,06,16,22,,,,,,,,5.11,2.38,4.52*06
$GPVTG,151.23,T,,M,10.02,N,18.58,K,A*3E
$GPRMC,080318.600,A,4837.7031,N,00859.3727,E,10.36,152.64,080111,,,A*5B
$GPGGA,080318.600,4837.7031,N,00859.3727,E,1,5,2.38,488.0,M,48.0,M,,*54
$GPGSA,A,3,18,21,06,16,22,,,,,,,,5.11,2.38,4.52*06
$GPVTG,152.64,T,,M,10.34,N,19.16,K,A*30
$GPRMC,080318.700,A,4837.7029,N,00859.3730,E,10.28,154.78,080111,,,A*51
$GPGGA,080318.700,4837.7029,N,00859.3730,E,1,5,2.38,488.0,M,48.0,M,,*5A
$GPGSA,A,3,18,21,06,16,22,,,,,,,,5.11,2.38,4.52*06
$GPVTG,154.78,T,,M,10.26,N,19.01,K,A*3E
$GPRMC,080318.800,A,4837.7026,N,00859.3732,E,11.05,157.47,080111,,,A*52
$GPGGA,080318.800,4837.7026,N,00859.3732,E,1,5,2.38,488.0,M,48.0,M,,*58
$GPGSA,A,3,18,21,06,16,22,,,,,,,,5.11,2.38,4.52*06
$GPVTG,157.47,T,,M,11.03,N,20.43,K,A*3B
$GPRMC,080318.900,A,4837.7023,N,00859.3733,E,11.13,158.75,080111,,,A*5E
$GPGGA,080318.900,4837.7023,N,00859.3733,E,1,5,1.64,488.0,M,48.0,M,,*57
$GPGSA,A,3,18,21,06,16,22,,,,,,,,1.91,1.64,0.98*02
$GPVTG,158.75,T,,M,11.12,N,20.61,K,A*35
$GPRMC,080319.000,A,4837.7020,N,00859.3735,E,11.43,159.37,080111,,,A*51
$GPGGA,080319.000,4837.7020,N,00859.3735,E,1,5,2.38,488.0,M,48.0,M,,*50
$GPGSA,A,3,18,21,06,16,22,,,,,,,,5.11,2.38,4.52*06
$GPVTG,159.37,T,,M,11.42,N,21.15,K,A*35
$GPRMC,080319.100,A,4837.7017,N,00859.3737,E,11.55,161.23,080111,,,A*5F
$GPGGA,080319.100,4837.7017,N,00859.3737,E,1,5,2.38,487.9,M,48.0,M,,*51
$GPGSA,A,3,18,21,06,16,22,,,,,,,,5.11,2.38,4.52*06
$GPVTG,161.23,T,,M,11.55,N,21.40,K,A*3D
$GPRMC,080319.200,A,4837.7014,N,00859.3739,E,11.74,161.78,080111,,,A*5C
$GPGGA,080319.200,4837.7014,N,00859.3739,E,1,5,2.38,487.9,M,48.0,M,,*5F
$GPGSA,A,3,18,21,06,16,22,,,,,,,,5.11,2.38,4.52*06
$GPVTG,161.78,T,,M,11.74,N,21.76,K,A*35
$GPRMC,080319.300,A,4837.7011,N,00859.3740,E,12.10,163.42,080111,,,A*5C
$GPGGA,080319.300,4837.7011,N,00859.3740,E,1,5,2.38,487.8,M,48.0,M,,*54
$GPGSA,A,3,18,21,06,16,22,,,,,,,,5.11,2.38,4.52*06
$GPVTG,163.42,T,,M,12.10,N,22.43,K,A*3A
$GPRMC,080319.400,A,4837.7007,N,00859.3741,E,12.34,164.71,080111,,,A*5C
$GPGGA,080319.400,4837.7007,N,00859.3741,E,1,5,2.38,487.8,M,48.0,M,,*55
$GPGSA,A,3,18,21,06,16,22,,,,,,,,5.11,2.38,4.52*06
$GPVTG,164.71,T,,M,12.34,N,22.86,K,A*32
$GPRMC,080319.500,A,4837.7004,N,00859.3743,E,12.80,165.13,080111,,,A*56
$GPGGA,080319.500,4837.7004,N,00859.3743,E,1,5,2.38,487.7,M,48.0,M,,*5A
$GPGSA,A,3,18,21,06,16,22,,,,,,,,5.11,2.38,4.52*06
$GPVTG,165.13,T,,M,12.80,N,23.73,K,A*33
$GPRMC,080319.600,A,4837.7000,N,00859.3744,E,12.82,166.77,080111,,,A*55
$GPGGA,080319.600,4837.7000,N,00859.3744,E,1,5,2.38,487.7,M,48.0,M,,*5A
$GPGSA,A,3,18,21,06,16,22,,,,,,,,5.11,2.38,4.52*06
$GPVTG,166.77,T,,M,12.82,N,23.76,K,A*35
$GPRMC,080319.700,A,4837.6997,N,00859.3746,E,13.04,166.56,080111,,,A*5C
$GPGGA,080319.700,4837.6997,N,00859.3746,E,1,5,2.38,487.7,M,48.0,M,,*5F
$GPGSA,A,3,18,21,06,16,22,,,,,,,,5.11,2.38,4.52*06
$GPVTG,166.56,T,,M,13.04,N,24.16,K,A*38
$GPRMC,080319.800,A,4837.6993,N,00859.3747,E,13.14,167.27,080111,,,A*50
$GPGGA,080319.800,4837.6993,N,00859.3747,E,1,5,2.38,487.6,M,48.0,M,,*54
$GPGSA,A,3,18,21,06,16,22,,,,,,,,5.11,2.38,4.52*06
$GPVTG,167.27,T,,M,13.14,N,24.35,K,A*3F
$GPRMC,080319.900,A,4837.6989,N,00859.3748,E,13.15,166.94,080111,,,A*5D
$GPGGA,080319.900,4837.6989,N,00859.3748,E,1,5,2.38,487.5,M,48.0,M,,*52
$GPGSA,A,3,18,21,06,16,22,,,,,,,,5.11,2.38,4.52*06
$GPVTG,166.94,T,,M,13.14,N,24.36,K,A*35
$GPRMC,080320.000,A,4837.6985,N,00859.3750,E,12.99,167.23,080111,,,A*53
$GPGGA,080320.000,4837.6985,N,00859.3750,E,1,5,2.38,487.5,M,48.0,M,,*54
$GPGSA,A,3,18,21,06,16,22,,,,,,,,5.11,2.38,4.52*06
$GPVTG,167.23,T,,M,12.98,N,24.04,K,A*3C
$GPRMC,080320.100,A,4837.6982,N,00859.3751,E,13.03,167.17,080111,,,A*51
$GPGGA,080320.100,4837.6982,N,00859.3751,E,1,5,2.38,487.3,M,48.0,M,,*55
$GPGSA,A,3,18,21,06,16,22,,,,,,,,5.11,2.38,4.52*06
$GPVTG,167.17,T,,M,13.01,N,24.10,K,A*3F
$GPRMC,080320.200,A,4837.6978,N,00859.3753,E,12.98,168.10,080111,,,A*5E
$GPGGA,080320.200,4837.6978,N,00859.3753,E,1,5,2.38,487.2,M,48.0,M,,*50
$GPGSA,A,3,18,21,06,16,22,,,,,,,,5.11,2.38,4.52*06
$GPVTG,168.10,T,,M,12.95,N,24.00,K,A*3A
$GPRMC,080320.300,A,4837.6974,N,00859.3754,E,12.92,167.54,080111,,,A*51
$GPGGA,080320.300,4837.6974,N,00859.3754,E,1,5,2.38,487.3,M,48.0,M,,*5B
$GPGSA,A,3,18,21,06,16,22,,,,,,,,5.11,2.38,4.52*06
$GPVTG,167.54,T,,M,12.90,N,23.90,K,A*3E
$GPRMC,080320.400,A,4837.6971,N,00859.3756,E,12.94,168.08,080111,,,A*51
$GPGGA,080320.400,4837.6971,N,00859.3756,E,1,5,2.38,487.3,M,48.0,M,,*5B
$GPGSA,A,3,18,21,06,16,22,,,,,,,,5.11,2.38,4.52*06
$GPVTG,168.08,T,,M,12.92,N,23.94,K,A*3E
$GPRMC,080320.500,A,4837.6967,N,00859.3757,E,12.88,168.51,080111,,,A*57
$GPGGA,080320.500,4837.6967,N,00859.3757,E,1,5,2.38,487.3,M,48.0,M,,*5C
$GPGSA,A,3,18,21,06,16,22,,,,,,,,5.11,2.38,4.52*06
$GPVTG,168.51,T,,M,12.87,N,23.85,K,A*36
$GPRMC,080320.600,A,4837.6963,N,00859.3758,E,12.95,167.69,080111,,,A*57
$GPGGA,080320.600,4837.6963,N,00859.3758,E,1,5,2.38,487.2,M,48.0,M,,*55
$GPGSA,A,3,18,21,06,16,22,,,,,,,,5.11,2.38,4.52*06
$GPVTG,167.69,T,,M,12.94,N,23.98,K,A*3C
$GPRMC,080320.700,A,4837.6960,N,00859.3759,E,12.90,166.97,080111,,,A*51
$GPGGA,080320.700,4837.6960,N,00859.3759,E,1,5,2.38,487.2,M,48.0,M,,*56
$GPGSA,A,3,18,21,06,16,22,,,,,,,,5.11,2.38,4.52*06
$GPVTG,166.97,T,,M,12.89,N,23.89,K,A*30
$GPRMC,080320.800,A,4837.6957,N,00859.3761,E,12.82,167.70,080111,,,A*5A
$GPGGA,080320.800,4837.6957,N,00859.3761,E,1,5,2.38,487.3,M,48.0,M,,*57
$GPGSA,A,3,18,21,06,16,22,,,,,,,,5.11,2.38,4.52*06
$GPVTG,167.70,T,,M,12.81,N,23.73,K,A*35
$GPRMC,080320.900,A,4837.6953,N,00859.3762,E,12.63,167.29,080111,,,A*5F
$GPGGA,080320.900,4837.6953,N,00859.3762,E,1,5,2.38,487.3,M,48.0,M,,*51
$GPGSA,A,3,18,21,06,16,22,,,,,,,,5.11,2.38,4.52*06
$GPVTG,167.29,T,,M,12.63,N,23.41,K,A*34
$GPRMC,080321.000,A,4837.6950,N,00859.3763,E,12.54,167.48,080111,,,A*56
$GPGGA,080321.000,4837.6950,N,00859.3763,E,1,5,2.38,487.3,M,48.0,M,,*5B
$GPGSA,A,3,18,21,06,16,22,,,,,,,,5.11,2.38,4.52*06
$GPVTG,167.48,T,,M,12.54,N,23.23,K,A*33
$GPRMC,080321.100,A,4837.6946,N,00859.3764,E,12.39,168.05,080111,,,A*5A
$GPGGA,080321.100,4837.6946,N,00859.3764,E,1,6,1.90,487.2,M,48.0,M,,*59
$GPGSA,A,3,18,21,30,06,16,22,,,,,,,4.02,1.90,3.54*06
$GPVTG,168.05,T,,M,12.38,N,22.94,K,A*32
$GPRMC,080321.200,A,4837.6943,N,00859.3765,E,12.37,167.40,080111,,,A*5D
$GPGGA,080321.200,4837.6943,N,00859.3765,E,1,6,1.90,487.2,M,48.0,M,,*5E
$GPGSA,A,3,18,21,30,06,16,22,,,,,,,4.02,1.90,3.54*06
$GPVTG,167.40,T,,M,12.36,N,22.90,K,A*36
$GPRMC,080321.300,A,4837.6939,N,00859.3766,E,12.05,166.36,080111,,,A*53
$GPGGA,080321.300,4837.6939,N,00859.3766,E,1,6,1.90,487.1,M,48.0,M,,*52
$GPGSA,A,3,18,21,30,06,16,22,,,,,,,4.02,1.90,3.54*06
$GPVTG,166.36,T,,M,12.04,N,22.32,K,A*3F
$GPRMC,080321.400,A,4837.6936,N,00859.3767,E,11.97,167.41,080111,,,A*53
$GPGGA,080321.400,4837.6936,N,00859.3767,E,1,6,1.90,487.1,M,48.0,M,,*5B
$GPGSA,A,3,18,21,30,06,16,22,,,,,,,4.02,1.90,3.54*06
$GPVTG,167.41,T,,M,11.96,N,22.17,K,A*31
$GPRMC,080321.500,A,4837.6932,N,00859.3768,E,11.81,167.01,080111,,,A*5A
$GPGGA,080321.500,4837.6932,N,00859.3768,E,1,6,1.90,487.0,M,48.0,M,,*50
$GPGSA,A,3,18,21,30,06,16,22,,,,,,,4.02,1.90,3.54*06
$GPVTG,167.01,T,,M,11.80,N,21.86,K,A*39
$GPRMC,080321.600,A,4837.6929,N,00859.3770,E,11.51,167.14,080111,,,A*53
$GPGGA,080321.600,4837.6929,N,00859.3770,E,1,6,1.90,487.0,M,48.0,M,,*50
$GPGSA,A,3,18,21,30,06,16,22,,,,,,,4.02,1.90,3.54*06
$GPVTG,167.14,T,,M,11.49,N,21.30,K,A*35
$GPRMC,080321.700,A,4837.6925,N,00859.3771,E,11.40,167.91,080111,,,A*52
$GPGGA,080321.700,4837.6925,N,00859.3771,E,1,6,1.90,486.9,M,48.0,M,,*54
$GPGSA,A,3,18,21,30,06,16,22,,,,,,,4.02,1.90,3.54*06
$GPVTG,167.91,T,,M,11.37,N,21.07,K,A*35
$GPRMC,080321.800,A,4837.6922,N,00859.3772,E,11.26,167.20,080111,,,A*53
$GPGGA,080321.800,4837.6922,N,00859.3772,E,1,6,1.90,486.8,M,48.0,M,,*5E
$GPGSA,A,3,18,21,30,06,16,22,,,,,,,4.02,1.90,3.54*06
$GPVTG,167.20,T,,M,11.24,N,20.83,K,A*30
$GPRMC,080321.900,A,4837.6918,N,00859.3773,E,11.18,167.72,080111,,,A*50
$GPGGA,080321.900,4837.6918,N,00859.3773,E,1,6,1.90,486.8,M,48.0,M,,*57
$GPGSA,A,3,18,21,30,06,16,22,,,,,,,4.02,1.90,3.54*06
$GPVTG,167.72,T,,M,11.16,N,20.68,K,A*33
$GPRMC,080322.000,A,4837.6915,N,00859.3774,E,11.03,167.14,080111,,,A*5A
$GPGGA,080322.000,4837.6915,N,00859.3774,E,1,6,1.90,486.7,M,48.0,M,,*58
$GPGSA,A,3,18,21,30,06,16,22,,,,,,,4.02,1.90,3.54*06
$GPVTG,167.14,T,,M,11.00,N,20.38,K,A*31
$GPRMC,080322.100,A,4837.6911,N,00859.3774,E,10.67,167.64,080111,,,A*5B
$GPGGA,080322.100,4837.6911,N,00859.3774,E,1,6,1.90,486.7,M,48.0,M,,*5D
$GPGSA,A,3,18,21,30,06,16,22,,,,,,,4.02,1.90,3.54*06
$GPVTG,167.64,T,,M,10.64,N,19.72,K,A*31
$GPRMC,080322.200,A,4837.6908,N,00859.3775,E,10.62,167.07,080111,,,A*51
$GPGGA,080322.200,4837.6908,N,00859.3775,E,1,6,1.90,486.6,M,48.0,M,,*56
$GPGSA,A,3,18,21,30,06,16,22,,,,,,,4.02,1.90,3.54*06
$GPVTG,167.07,T,,M,10.58,N,19.61,K,A*39
$GPRMC,080322.300,A,4837.6905,N,00859.3776,E,10.44,166.44,080111,,,A*5C
$GPGGA,080322.300,4837.6905,N,00859.3776,E,1,6,1.90,486.5,M,48.0,M,,*5A
$GPGSA,A,3,18,21,30,06,16,22,,,,,,,4.02,1.90,3.54*06
$GPVTG,166.44,T,,M,10.40,N,19.28,K,A*3B
$GPRMC,080322.400,A,4837.6902,N,00859.3777,E,10.18,166.07,080111,,,A*53
$GPGGA,080322.400,4837.6902,N,00859.3777,E,1,6,1.90,486.5,M,48.0,M,,*5B
$GPGSA,A,3,18,21,30,06,16,22,,,,,,,4.02,1.90,3.54*06
$GPVTG,166.07,T,,M,10.14,N,18.79,K,A*38
$GPRMC,080322.500,A,4837.6899,N,00859.3778,E,9.88,168.13,080111,,,A*64
$GPGGA,080322.500,4837.6899,N,00859.3778,E,1,6,1.90,486.5,M,48.0,M,,*56
$GPGSA,A,3,18,21,30,06,16,22,,,,,,,4.02,1.90,3.54*06
$GPVTG,168.13,T,,M,9.85,N,18.25,K,A*0A
$GPRMC,080322.600,A,4837.6896,N,00859.3779,E,9.70,168.37,080111,,,A*68
$GPGGA,080322.600,4837.6896,N,00859.3779,E,1,6,1.90,486.5,M,48.0,M,,*5B
$GPGSA,A,3,18,21,30,06,16,22,,,,,,,4.02,1.90,3.54*06
$GPVTG,168.37,T,,M,9.68,N,17.94,K,A*0A
$GPRMC,080322.700,A,4837.6893,N,00859.3779,E,9.64,168.96,080111,,,A*62
$GPGGA,080322.700,4837.6893,N,00859.3779,E,1,6,1.90,486.5,M,48.0,M,,*5F
$GPGSA,A,3,18,21,30,06,16,22,,,,,,,4.02,1.90,3.54*06
$GPVTG,168.96,T,,M,9.62,N,17.83,K,A*0D
$GPRMC,080322.800,A,4837.6891,N,00859.3780,E,9.41,167.55,080111,,,A*6E
$GPGGA,080322.800,4837.6891,N,00859.3780,E,1,6,1.90,486.5,M,48.0,M,,*54
$GPGSA,A,3,18,21,30,06,16,22,,,,,,,4.02,1.90,3.54*06
$GPVTG,167.55,T,,M,9.39,N,17.39,K,A*02
$GPRMC,080322.900,A,4837.6888,N,00859.3781,E,9.17,166.03,080111,,,A*67
$GPGGA,080322.900,4837.6888,N,00859.3781,E,1,6,1.90,486.5,M,48.0,M,,*5C
$GPGSA,A,3,18,21,30,06,16,22,,,,,,,4.02,1.90,3.54*06
$GPVTG,166.03,T,,M,9.16,N,16.97,K,A*08
$GPRMC,080323.000,A,4837.6885,N,00859.3781,E,8.87,166.95,080111,,,A*65
$GPGGA,080323.000,4837.6885,N,00859.3781,E,1,6,1.90,486.5,M,48.0,M,,*59
$GPGSA,A,3,18,21,30,06,16,22,,,,,,,4.02,1.90,3.54*06
$GPVTG,166.95,T,,M,8.86,N,16.41,K,A*04
$GPRMC,080323.100,A,4837.6882,N,00859.3782,E,8.73,166.87,080111,,,A*68
$GPGGA,080323.100,4837.6882,N,00859.3782,E,1,6,1.90,486.5,M,48.0,M,,*5C
$GPGSA,A,3,18,21,30,06,16,22,,,,,,,4.02,1.90,3.54*06
$GPVTG,166.87,T,,M,8.72,N,16.16,K,A*0E
$GPRMC,080323.200,A,4837.6880,N,00859.3783,E,8.46,168.52,080111,,,A*68
$GPGGA,080323.200,4837.6880,N,00859.3783,E,1,6,1.90,486.6,M,48.0,M,,*5F
$GPGSA,A,3,18,21,30,06,16,22,,,,,,,4.02,1.90,3.54*06
$GPVTG,168.52,T,,M,8.46,N,15.68,K,A*05
$GPRMC,080323.300,A,4837.6877,N,00859.3783,E,7.97,166.38,080111,,,A*60
$GPGGA,080323.300,4837.6877,N,00859.3783,E,1,6,1.90,486.4,M,48.0,M,,*54
$GPGSA,A,3,18,21,30,06,16,22,,,,,,,4.02,1.90,3.54*06
$GPVTG,166.38,T,,M,7.95,N,14.74,K,A*0A
$GPRMC,080323.400,A,4837.6875,N,00859.3784,E,7.74,166.46,080111,,,A*66
$GPGGA,080323.400,4837.6875,N,00859.3784,E,1,6,1.90,486.4,M,48.0,M,,*56
$GPGSA,A,3,18,21,30,06,16,22,,,,,,,4.02,1.90,3.54*06
$GPVTG,166.46,T,,M,7.72,N,14.31,K,A*0B
$GPRMC,080323.500,A,4837.6872,N,00859.3785,E,7.64,165.45,080111,,,A*60
$GPGGA,080323.500,4837.6872,N,00859.3785,E,1,6,1.90,486.3,M,48.0,M,,*56
$GPGSA,A,3,18,21,30,06,16,22,,,,,,,4.02,1.90,3.54*06
$GPVTG,165.45,T,,M,7.61,N,14.11,K,A*0B
$GPRMC,080323.600,A,4837.6870,N,00859.3785,E,7.62,166.33,080111,,,A*65
$GPGGA,080323.600,4837.6870,N,00859.3785,E,1,6,1.90,486.3,M,48.0,M,,*57
$GPGSA,A,3,18,21,30,06,16,22,,,,,,,4.02,1.90,3.54*06
$GPVTG,166.33,T,,M,7.60,N,14.09,K,A*01
$GPRMC,080323.700,A,4837.6868,N,00859.3786,E,6.68,163.68,080111,,,A*6E
$GPGGA,080323.700,4837.6868,N,00859.3786,E,1,6,1.90,486.3,M,48.0,M,,*5C
$GPGSA,A,3,18,21,30,06,16,22,,,,,,,4.02,1.90,3.54*06
$GPVTG,163.68,T,,M,6.65,N,12.32,K,A*00
$GPRMC,080323.800,A,4837.6866,N,00859.3787,E,6.74,168.00,080111,,,A*66
$GPGGA,080323.800,4837.6866,N,00859.3787,E,1,6,1.90,486.3,M,48.0,M,,*5C
$GPGSA,A,3,18,21,30,06,16,22,,,,,,,4.02,1.90,3.54*06
$GPVTG,168.00,T,,M,6.72,N,12.45,K,A*03
$GPRMC,080323.900,A,4837.6864,N,00859.3788,E,6.22,165.12,080111,,,A*67
$GPGGA,080323.900,4837.6864,N,00859.3788,E,1,6,1.90,486.2,M,48.0,M,,*51
$GPGSA,A,3,18,21,30,06,16,22,,,,,,,4.02,1.90,3.54*06
$GPVTG,165.12,T,,M,6.20,N,11.49,K,A*05
$GPRMC,080324.000,A,4837.6863,N,00859.3789,E,5.85,163.24,080111,,,A*62
$GPGGA,080324.000,4837.6863,N,00859.3789,E,1,6,1.90,486.2,M,48.0,M,,*59
$GPGSA,A,3,18,21,30,06,16,22,,,,,,,4.02,1.90,3.54*06
$GPVTG,163.24,T,,M,5.83,N,10.80,K,A*08
$GPRMC,080324.100,A,4837.6861,N,00859.3789,E,5.28,165.54,080111,,,A*67
$GPGGA,080324.100,4837.6861,N,00859.3789,E,1,6,1.90,486.1,M,48.0,M,,*59
$GPGSA,A,3,18,21,30,06,16,22,,,,,,,4.02,1.90,3.54*06
$GPVTG,165.54,T,,M,5.24,N,9.71,K,A*32
$GPRMC,080324.200,A,4837.6860,N,00859.3790,E,5.17,165.30,080111,,,A*63
$GPGGA,080324.200,4837.6860,N,00859.3790,E,1,6,1.90,486.1,M,48.0,M,,*53
$GPGSA,A,3,18,21,30,06,16,22,,,,,,,4.02,1.90,3.54*06
$GPVTG,165.30,T,,M,5.13,N,9.51,K,A*36
$GPRMC,080324.300,A,4837.6858,N,00859.3790,E,4.78,163.18,080111,,,A*6D
$GPGGA,080324.300,4837.6858,N,00859.3790,E,1,6,1.90,486.0,M,48.0,M,,*58
$GPGSA,A,3,18,21,30,06,16,22,,,,,,,4.02,1.90,3.54*06
$GPVTG,163.18,T,,M,4.73,N,8.76,K,A*39
$GPRMC,080324.400,A,4837.6857,N,00859.3791,E,4.30,166.16,080111,,,A*63
$GPGGA,080324.400,4837.6857,N,00859.3791,E,1,6,1.90,485.9,M,48.0,M,,*5B
$GPGSA,A,3,18,21,30,06,16,22,,,,,,,4.02,1.90,3.54*06
$GPVTG,166.16,T,,M,4.22,N,7.82,K,A*32
$GPRMC,080324.500,A,4837.6856,N,00859.3791,E,3.83,168.03,080111,,,A*66
$GPGGA,080324.500,4837.6856,N,00859.3791,E,1,6,1.90,485.9,M,48.0,M,,*5B
$GPGSA,A,3,18,21,30,06,16,22,,,,,,,4.02,1.90,3.54*06
$GPVTG,168.03,T,,M,3.74,N,6.93,K,A*3D
$GPRMC,080324.600,A,4837.6855,N,00859.3791,E,3.14,166.66,080111,,,A*65
$GPGGA,080324.600,4837.6855,N,00859.3791,E,1,6,1.53,485.9,M,48.0,M,,*54
$GPGSA,A,3,18,21,30,06,16,22,,,,,,,1.81,1.53,0.96*0A
$GPVTG,166.66,T,,M,3.05,N,5.65,K,A*3C
$GPRMC,080324.700,A,4837.6854,N,00859.3792,E,2.71,164.20,080111,,,A*64
$GPGGA,080324.700,4837.6854,N,00859.3792,E,1,6,1.53,485.9,M,48.0,M,,*57
$GPGSA,A,3,18,21,30,06,16,22,,,,,,,1.81,1.53,0.96*0A
$GPVTG,164.20,T,,M,2.64,N,4.88,K,A*38
$GPRMC,080324.800,A,4837.6854,N,00859.3792,E,2.13,164.20,080111,,,A*6F
$GPGGA,080324.800,4837.6854,N,00859.3792,E,1,6,1.53,486.0,M,48.0,M,,*52
$GPGSA,A,3,18,21,30,06,16,22,,,,,,,1.81,1.53,0.96*0A
$GPVTG,164.20,T,,M,2.10,N,3.88,K,A*3C
$GPRMC,080324.900,A,4837.6853,N,00859.3792,E,1.89,164.20,080111,,,A*69
$GPGGA,080324.900,4837.6853,N,00859.3792,E,1,6,1.53,486.0,M,48.0,M,,*54
$GPGSA,A,3,18,21,30,06,16,22,,,,,,,1.81,1.53,0.96*0A
$GPVTG,164.20,T,,M,1.87,N,3.46,K,A*33
$GPRMC,080325.000,A,4837.6853,N,00859.3792,E,1.55,164.20,080111,,,A*60
$GPGGA,080325.000,4837.6853,N,00859.3792,E,1,6,1.53,486.1,M,48.0,M,,*5D
$GPGSA,A,3,18,21,30,06,16,22,,,,,,,1.81,1.53,0.96*0A
$GPVTG,164.20,T,,M,1.55,N,2.87,K,A*30
$GPRMC,080325.100,A,4837.6852,N,00859.3792,E,1.42,164.20,080111,,,A*66
$GPGGA,080325.100,4837.6852,N,00859.3792,E,1,6,1.53,486.1,M,48.0,M,,*5D
$GPGSA,A,3,18,21,30,06,16,22,,,,,,,1.81,1.53,0.96*0A
$GPVTG,164.20,T,,M,1.42,N,2.64,K,A*3B
$GPRMC,080325.200,A,4837.6852,N,00859.3792,E,1.46,164.20,080111,,,A*61
$GPGGA,080325.200,4837.6852,N,00859.3792,E,1,6,1.53,486.1,M,48.0,M,,*5E
$GPGSA,A,3,18,21,30,06,16,22,,,,,,,1.81,1.53,0.96*0A
$GPVTG,164.20,T,,M,1.46,N,2.70,K,A*3A
$GPRMC,080325.300,A,4837.6851,N,00859.3792,E,1.20,164.20,080111,,,A*63
$GPGGA,080325.300,4837.6851,N,00859.3792,E,1,6,1.53,486.1,M,48.0,M,,*5C
$GPGSA,A,3,18,21,30,06,16,22,,,,,,,1.81,1.53,0.96*0A
$GPVTG,164.20,T,,M,1.19,N,2.21,K,A*34
$GPRMC,080325.400,A,4837.6851,N,00859.3793,E,1.28,164.20,080111,,,A*6D
$GPGGA,080325.400,4837.6851,N,00859.3793,E,1,6,1.53,486.1,M,48.0,M,,*5A
$GPGSA,A,3,18,21,30,06,16,22,,,,,,,1.81,1.53,0.96*0A
$GPVTG,164.20,T,,M,1.27,N,2.36,K,A*3F
$GPRMC,080325.500,A,4837.6850,N,00859.3793,E,1.34,164.20,080111,,,A*60
$GPGGA,080325.500,4837.6850,N,00859.3793,E,1,6,1.53,486.1,M,48.0,M,,*5A
$GPGSA,A,3,18,21,30,06,16,22,,,,,,,1.81,1.53,0.96*0A
$GPVTG,164.20,T,,M,1.33,N,2.46,K,A*3D
$GPRMC,080325.600,A,4837.6850,N,00859.3793,E,1.06,164.20,080111,,,A*62
$GPGGA,080325.600,4837.6850,N,00859.3793,E,1,6,1.53,486.1,M,48.0,M,,*59
$GPGSA,A,3,18,21,30,06,16,22,,,,,,,1.81,1.53,0.96*0A
$GPVTG,164.20,T,,M,1.06,N,1.97,K,A*34
$GPRMC,080325.700,A,4837.6849,N,00859.3793,E,1.15,164.20,080111,,,A*69
$GPGGA,080325.700,4837.6849,N,00859.3793,E,1,6,1.53,486.1,M,48.0,M,,*50
$GPGSA,A,3,18,21,30,06,16,22,,,,,,,1.81,1.53,0.96*0A
$GPVTG,164.20,T,,M,1.15,N,2.13,K,A*39
$GPRMC,080325.800,A,4837.6849,N,00859.3793,E,1.17,164.20,080111,,,A*64
$GPGGA,080325.800,4837.6849,N,00859.3793,E,1,6,1.53,486.3,M,48.0,M,,*5D
$GPGSA,A,3,18,21,30,06,16,22,,,,,,,1.81,1.53,0.96*0A
$GPVTG,164.20,T,,M,1.14,N,2.12,K,A*39
$GPRMC,080325.900,A,4837.6848,N,00859.3793,E,1.12,164.20,080111,,,A*61
$GPGGA,080325.900,4837.6848,N,00859.3793,E,1,6,1.53,486.3,M,48.0,M,,*5D
$GPGSA,A,3,18,21,30,06,16,22,,,,,,,1.81,1.53,0.96*0A
$GPVTG,164.20,T,,M,1.05,N,1.95,K,A*35
$GPRMC,080326.000,A,4837.6848,N,00859.3793,E,1.09,164.20,080111,,,A*61
$GPGGA,080326.000,4837.6848,N,00859.3793,E,1,6,1.53,486.4,M,48.0,M,,*50
$GPGSA,A,3,18,21,30,06,16,22,,,,,,,1.81,1.53,0.96*0A
$GPVTG,164.20,T,,M,1.01,N,1.87,K,A*32
$GPRMC,080326.100,A,4837.6848,N,00859.3794,E,1.05,164.20,080111,,,A*6B
$GPGGA,080326.100,4837.6848,N,00859.3794,E,1,6,1.53,486.4,M,48.0,M,,*56
$GPGSA,A,3,18,21,30,06,16,22,,,,,,,1.81,1.53,0.96*0A
$GPVTG,164.20,T,,M,0.98,N,1.81,K,A*35
$GPRMC,080326.200,A,4837.6847,N,00859.3794,E,0.98,164.20,080111,,,A*62
$GPGGA,080326.200,4837.6847,N,00859.3794,E,1,6,1.53,486.4,M,48.0,M,,*5A
$GPGSA,A,3,18,21,30,06,16,22,,,,,,,1.81,1.53,0.96*0A
$GPVTG,164.20,T,,M,0.92,N,1.70,K,A*31
$GPRMC,080326.300,A,4837.6847,N,00859.3794,E,1.05,164.20,080111,,,A*66
$GPGGA,080326.300,4837.6847,N,00859.3794,E,1,6,1.53,486.4,M,48.0,M,,*5B
$GPGSA,A,3,18,21,30,06,16,22,,,,,,,1.81,1.53,0.96*0A
$GPVTG,164.20,T,,M,1.01,N,1.88,K,A*3D
$GPRMC,080326.400,A,4837.6847,N,00859.3794,E,0.97,164.20,080111,,,A*6B
$GPGGA,080326.400,4837.6847,N,00859.3794,E,1,6,1.53,486.5,M,48.0,M,,*5D
$GPGSA,A,3,18,21,30,06,16,22,,,,,,,1.81,1.53,0.96*0A
$GPVTG,164.20,T,,M,0.87,N,1.60,K,A*34
$GPRMC,080326.500,A,4837.6847,N,00859.3793,E,1.02,164.20,080111,,,A*60
$GPGGA,080326.500,4837.6847,N,00859.3793,E,1,6,1.53,486.5,M,48.0,M,,*5B
$GPGSA,A,3,18,21,30,06,16,22,,,,,,,1.81,1.53,0.96*0A
$GPVTG,164.20,T,,M,0.92,N,1.70,K,A*31
$GPRMC,080326.600,A,4837.6847,N,00859.3793,E,1.18,164.20,080111,,,A*68
$GPGGA,080326.600,4837.6847,N,00859.3793,E,1,6,1.53,486.6,M,48.0,M,,*5B
$GPGSA,A,3,18,21,30,06,16,22,,,,,,,1.81,1.53,0.96*0A
$GPVTG,164.20,T,,M,1.04,N,1.92,K,A*33
$GPRMC,080326.700,A,4837.6847,N,00859.3793,E,1.31,164.20,080111,,,A*62
$GPGGA,080326.700,4837.6847,N,00859.3793,E,1,6,1.53,486.7,M,48.0,M,,*5B
$GPGSA,A,3,18,21,30,06,16,22,,,,,,,1.81,1.53,0.96*0A
$GPVTG,164.20,T,,M,1.11,N,2.06,K,A*39
$GPRMC,080326.800,A,4837.6847,N,00859.3793,E,1.46,164.20,080111,,,A*6D
$GPGGA,080326.800,4837.6847,N,00859.3793,E,1,6,1.53,486.7,M,48.0,M,,*54
$GPGSA,A,3,18,21,30,06,16,22,,,,,,,1.81,1.53,0.96*0A
$GPVTG,164.20,T,,M,1.23,N,2.28,K,A*34
$GPRMC,080326.900,A,4837.6847,N,00859.3793,E,1.47,164.20,080111,,,A*6D
$GPGGA,080326.900,4837.6847,N,00859.3793,E,1,6,1.53,486.7,M,48.0,M,,*55
$GPGSA,A,3,18,21,30,06,16,22,,,,,,,1.81,1.53,0.96*0A
$GPVTG,164.20,T,,M,1.29,N,2.40,K,A*30
$GPRMC,080327.000,A,4837.6846,N,00859.3793,E,1.55,164.20,080111,,,A*67
$GPGGA,080327.000,4837.6846,N,00859.3793,E,1,6,1.53,486.8,M,48.0,M,,*53
$GPGSA,A,3,18,21,30,06,16,22,,,,,,,1.81,1.53,0.96*0A
$GPVTG,164.20,T,,M,1.40,N,2.59,K,A*37
$GPRMC,080327.100,A,4837.6846,N,00859.3794,E,1.77,164.20,080111,,,A*61
$GPGGA,080327.100,4837.6846,N,00859.3794,E,1,6,1.53,486.8,M,48.0,M,,*55
$GPGSA,A,3,18,21,30,06,16,22,,,,,,,1.81,1.53,0.96*0A
$GPVTG,164.20,T,,M,1.64,N,3.04,K,A*38
$GPRMC,080327.200,A,4837.6846,N,00859.3794,E,2.06,164.20,080111,,,A*67
$GPGGA,080327.200,4837.6846,N,00859.3794,E,1,6,1.53,486.9,M,48.0,M,,*57
$GPGSA,A,3,18,21,30,06,16,22,,,,,,,1.81,1.53,0.96*0A
$GPVTG,164.20,T,,M,1.92,N,3.55,K,A*35
$GPRMC,080327.300,A,4837.6845,N,00859.3794,E,2.27,164.20,080111,,,A*66
$GPGGA,080327.300,4837.6845,N,00859.3794,E,1,6,1.53,486.8,M,48.0,M,,*54
$GPGSA,A,3,18,21,30,06,16,22,,,,,,,1.81,1.53,0.96*0A
$GPVTG,164.20,T,,M,2.21,N,4.09,K,A*30
$GPRMC,080327.400,A,4837.6845,N,00859.3795,E,2.59,162.61,080111,,,A*6A
$GPGGA,080327.400,4837.6845,N,00859.3795,E,1,6,1.53,486.8,M,48.0,M,,*52
$GPGSA,A,3,18,21,30,06,16,22,,,,,,,1.81,1.53,0.96*0A
$GPVTG,162.61,T,,M,2.54,N,4.71,K,A*3E
$GPRMC,080327.500,A,4837.6844,N,00859.3796,E,3.16,160.73,080111,,,A*62
$GPGGA,080327.500,4837.6844,N,00859.3796,E,1,6,1.53,486.9,M,48.0,M,,*50
$GPGSA,A,3,18,21,30,06,16,22,,,,,,,1.81,1.53,0.96*0A
$GPVTG,160.73,T,,M,3.11,N,5.76,K,A*39
$GPRMC,080327.600,A,4837.6844,N,00859.3797,E,3.48,158.99,080111,,,A*64
$GPGGA,080327.600,4837.6844,N,00859.3797,E,1,6,1.53,487.0,M,48.0,M,,*5A
$GPGSA,A,3,18,21,30,06,16,22,,,,,,,1.81,1.53,0.96*0A
$GPVTG,158.99,T,,M,3.41,N,6.32,K,A*30
$GPRMC,080327.700,A,4837.6843,N,00859.3797,E,3.69,157.10,080111,,,A*6F
$GPGGA,080327.700,4837.6843,N,00859.3797,E,1,6,1.53,487.0,M,48.0,M,,*5C
$GPGSA,A,3,18,21,30,06,16,22,,,,,,,1.81,1.53,0.96*0A
$GPVTG,157.10,T,,M,3.63,N,6.73,K,A*3B
$GPRMC,080327.800,A,4837.6842,N,00859.3798,E,4.38,155.35,080111,,,A*68
$GPGGA,080327.800,4837.6842,N,00859.3798,E,1,6,1.53,487.1,M,48.0,M,,*5C
$GPGSA,A,3,18,21,30,06,16,22,,,,,,,1.81,1.53,0.96*0A
$GPVTG,155.35,T,,M,4.32,N,8.01,K,A*36
$GPRMC,080327.900,A,4837.6841,N,00859.3799,E,4.83,153.39,080111,,,A*61
$GPGGA,080327.900,4837.6841,N,00859.3799,E,1,6,1.90,487.0,M,48.0,M,,*51
$GPGSA,A,3,18,21,30,06,16,22,,,,,,,4.03,1.90,3.55*06
$GPVTG,153.39,T,,M,4.79,N,8.88,K,A*32
$GPRMC,080328.000,A,4837.6840,N,00859.3801,E,4.84,151.56,080111,,,A*64
$GPGGA,080328.000,4837.6840,N,00859.3801,E,1,6,1.90,487.0,M,48.0,M,,*58
$GPGSA,A,3,18,21,30,06,16,22,,,,,,,4.03,1.90,3.55*06
$GPVTG,151.56,T,,M,4.81,N,8.91,K,A*36
$GPRMC,080328.100,A,4837.6839,N,00859.3802,E,5.31,149.72,080111,,,A*68
$GPGGA,080328.100,4837.6839,N,00859.3802,E,1,6,1.90,487.0,M,48.0,M,,*54
$GPGSA,A,3,18,21,30,06,16,22,,,,,,,4.02,1.90,3.55*07
$GPVTG,149.72,T,,M,5.29,N,9.81,K,A*3A
$GPRMC,080328.200,A,4837.6838,N,00859.3804,E,5.74,147.92,080111,,,A*6D
$GPGGA,080328.200,4837.6838,N,00859.3804,E,1,6,1.90,487.0,M,48.0,M,,*50
$GPGSA,A,3,18,21,30,06,16,22,,,,,,,4.03,1.90,3.55*06
$GPVTG,147.92,T,,M,5.73,N,10.63,K,A*01
$GPRMC,080328.300,A,4837.6837,N,00859.3805,E,6.16,146.07,080111,,,A*68
$GPGGA,080328.300,4837.6837,N,00859.3805,E,1,6,1.90,487.0,M,48.0,M,,*5F
$GPGSA,A,3,18,21,30,06,16,22,,,,,,,4.03,1.90,3.55*06
$GPVTG,146.07,T,,M,6.15,N,11.40,K,A*0F
$GPRMC,080328.400,A,4837.6836,N,00859.3807,E,6.19,144.28,080111,,,A*6C
$GPGGA,080328.400,4837.6836,N,00859.3807,E,1,6,1.90,487.1,M,48.0,M,,*5A
$GPGSA,A,3,18,21,30,06,16,22,,,,,,,4.03,1.90,3.55*06
$GPVTG,144.28,T,,M,6.17,N,11.44,K,A*06
$GPRMC,080328.500,A,4837.6835,N,00859.3809,E,6.76,142.46,080111,,,A*67
