$GPGGA,165431.000,4634.4270,N,01403.0996,E,1,08,1.3,475.2,M,45.2,M,,0000*51
$GPVTG,89.74,T,,M,0.43,N,0.8,K*5D
$GPGGA,165432.000,4634.4270,N,01403.0998,E,1,08,1.3,474.5,M,45.2,M,,0000*5A
$GPGSA,A,3,16,21,29,18,22,19,27,03,,,,,1.9,1.3,1.4*35
$GPGSV,3,1,11,16,65,275,26,21,64,060,35,18,47,124,41,27,42,294,19*76
$GPGSV,3,2,11,22,27,169,35,03,18,294,22,29,15,098,26,19,12,285,20*7C
$GPGSV,3,3,11,07,06,333,,15,04,074,20,26,01,042,*49
$GPRMC,165432.000,A,4634.4270,N,01403.0998,E,0.53,99.44,060714,,*3C
$GPVTG,99.44,T,,M,0.53,N,1.0,K*57
$GPGGA,165433.000,4634.4270,N,01403.1000,E,1,08,1.3,474.1,M,45.2,M,,0000*56
$GPGSA,A,3,16,21,29,18,22,19,27,03,,,,,1.9,1.3,1.4*35
$GPRMC,165433.000,A,4634.4270,N,01403.1000,E,0.27,338.77,060714,,*0F
$GPVTG,338.77,T,,M,0.27,N,0.5,K*68
$GPGGA,165434.000,4634.4270,N,01403.1000,E,1,08,1.3,473.8,M,45.2,M,,0000*5F
$GPGSA,A,3,16,21,29,18,22,19,27,03,,,,,1.9,1.3,1.4*35
$GPRMC,165434.000,A,4634.4270,N,01403.1000,E,0.26,32.93,060714,,*3A
$GPVTG,32.93,T,,M,0.26,N,0.5,K*5A
$GPGGA,165435.000,4634.4272,N,01403.0998,E,1,07,1.3,472.8,M,45.2,M,,0000*5B
$GPGSA,A,3,21,29,18,22,19,27,03,,,,,,2.1,1.3,1.7*3A
$GPRMC,165435.000,A,4634.4272,N,01403.0998,E,0.28,313.40,060714,,*00
$GPVTG,313.40,T,,M,0.28,N,0.5,K*6A
$GPGGA,165436.000,4634.4271,N,01403.0999,E,1,08,1.3,472.4,M,45.2,M,,0000*59
$GPGSA,A,3,16,21,29,18,22,19,27,03,,,,,1.9,1.3,1.4*35
$GPRMC,165436.000,A,4634.4271,N,01403.0999,E,0.44,321.27,060714,,*0B
$GPVTG,321.27,T,,M,0.44,N,0.8,K*6D
$GPGGA,165437.000,4634.4272,N,01403.0999,E,1,07,1.3,472.2,M,45.2,M,,0000*52
$GPGSA,A,3,21,29,18,22,19,27,03,,,,,,2.1,1.3,1.7*3A
$GPGSV,3,1,11,16,65,275,,21,64,060,34,18,47,124,36,27,42,294,29*70
$GPGSV,3,2,11,22,27,169,35,03,18,294,22,29,15,098,27,19,12,285,18*76
$GPGSV,3,3,11,07,06,333,,15,04,074,,26,01,042,*4B
$GPRMC,165437.000,A,4634.4272,N,01403.0999,E,0.19,11.75,060714,,*36
$GPVTG,11.75,T,,M,0.19,N,0.4,K*5E
$GPGGA,165438.000,4634.4271,N,01403.0999,E,1,07,1.3,472.3,M,45.2,M,,0000*5F
$GPGSA,A,3,21,29,18,22,19,27,03,,,,,,2.1,1.3,1.7*3A
$GPRMC,165438.000,A,4634.4271,N,01403.0999,E,0.44,109.17,060714,,*0E
$GPVTG,109.17,T,,M,0.44,N,0.8,K*66
$GPGGA,165439.000,4634.4272,N,01403.0996,E,1,08,1.3,472.3,M,45.2,M,,0000*5D
$GPGSA,A,3,21,29,18,22,19,27,03,16,,,,,1.9,1.3,1.4*35
$GPRMC,165439.000,A,4634.4272,N,01403.0996,E,0.13,24.24,060714,,*3F
$GPVTG,24.24,T,,M,0.13,N,0.2,K*50
$GPGGA,165440.000,4634.4272,N,01403.0993,E,1,08,1.3,472.5,M,45.2,M,,0000*50
$GPGSA,A,3,21,29,18,22,19,27,03,16,,,,,1.9,1.3,1.4*35
$GPRMC,165440.000,A,4634.4272,N,01403.0993,E,0.12,324.96,060714,,*0F
$GPVTG,324.96,T,,M,0.12,N,0.2,K*6B
$GPGGA,165441.000,4634.4272,N,01403.0991,E,1,08,1.3,472.5,M,45.2,M,,0000*53
$GPGSA,A,3,21,29,18,22,19,27,03,16,,,,,1.9,1.3,1.4*35
$GPRMC,165441.000,A,4634.4272,N,01403.0991,E,0.13,21.39,060714,,*3E
$GPVTG,21.39,T,,M,0.13,N,0.2,K*59
$GPGGA,165442.000,4634.4271,N,01403.0989,E,1,08,1.3,472.8,M,45.2,M,,0000*57
$GPGSA,A,3,21,29,18,22,19,27,03,16,,,,,1.9,1.3,1.4*35
$GPGSV,3,1,11,16,65,274,33,21,64,060,43,18,47,124,43,27,42,294,33*78
$GPGSV,3,2,11,22,27,169,37,03,18,294,29,29,15,099,26,19,12,285,20*74
$GPGSV,3,3,11,07,06,332,,15,04,074,22,26,01,042,*4A
$GPRMC,165442.000,A,4634.4271,N,01403.0989,E,0.09,36.23,060714,,*31
$GPVTG,36.23,T,,M,0.09,N,0.2,K*5F
$GPGGA,165443.000,4634.4270,N,01403.0988,E,1,08,1.3,473.3,M,45.2,M,,0000*5C
$GPGSA,A,3,21,29,18,22,19,27,03,16,,,,,1.9,1.3,1.4*35
$GPRMC,165443.000,A,4634.4270,N,01403.0988,E,0.30,56.22,060714,,*3D
$GPVTG,56.22,T,,M,0.30,N,0.6,K*56
$GPGGA,165444.000,4634.4270,N,01403.0988,E,1,07,1.3,473.6,M,45.2,M,,0000*51
$GPGSA,A,3,21,29,18,22,27,03,16,,,,,,2.0,1.3,1.6*35
$GPRMC,165444.000,A,4634.4270,N,01403.0988,E,0.11,62.67,060714,,*3F
$GPVTG,62.67,T,,M,0.11,N,0.2,K*57
$GPGGA,165445.000,4634.4269,N,01403.0989,E,1,07,1.3,474.0,M,45.2,M,,0000*58
$GPGSA,A,3,21,29,18,22,27,03,16,,,,,,2.0,1.3,1.6*35
$GPRMC,165445.000,A,4634.4269,N,01403.0989,E,0.15,57.82,060714,,*3E
$GPVTG,57.82,T,,M,0.15,N,0.3,K*5F
$GPGGA,165446.000,4634.4268,N,01403.0989,E,1,07,1.3,474.2,M,45.2,M,,0000*58
$GPGSA,A,3,21,29,18,22,27,03,16,,,,,,2.0,1.3,1.6*35
$GPRMC,165446.000,A,4634.4268,N,01403.0989,E,0.08,41.72,060714,,*38
$GPVTG,41.72,T,,M,0.08,N,0.1,K*59
$GPGGA,165447.000,4634.4266,N,01403.0988,E,1,08,1.3,474.9,M,45.2,M,,0000*52
$GPGSA,A,3,21,29,18,22,19,27,03,16,,,,,1.9,1.3,1.4*35
$GPGSV,3,1,11,16,65,274,33,21,64,060,44,18,47,124,43,27,42,294,36*7A
$GPGSV,3,2,11,22,27,169,40,03,18,294,30,29,15,099,27,19,12,285,26*7B
$GPGSV,3,3,11,07,06,332,,15,04,074,22,26,01,042,*4A
$GPRMC,165447.000,A,4634.4266,N,01403.0988,E,0.14,68.71,060714,,*33
$GPVTG,68.71,T,,M,0.14,N,0.3,K*5E
$GPGGA,165448.000,4634.4265,N,01403.0987,E,1,08,1.3,475.6,M,45.2,M,,0000*5F
$GPGSA,A,3,21,29,18,22,19,27,03,16,,,,,1.9,1.3,1.4*35
$GPRMC,165448.000,A,4634.4265,N,01403.0987,E,0.03,82.09,060714,,*3D
$GPVTG,82.09,T,,M,0.03,N,0.1,K*51
$GPGGA,165449.000,4634.4264,N,01403.0986,E,1,08,1.3,476.3,M,45.2,M,,0000*58
$GPGSA,A,3,21,29,18,22,19,27,03,16,,,,,1.9,1.3,1.4*35
$GPRMC,165449.000,A,4634.4264,N,01403.0986,E,0.05,82.80,060714,,*3B
$GPVTG,82.80,T,,M,0.05,N,0.1,K*56
$GPGGA,165450.000,4634.4264,N,01403.0987,E,1,08,1.3,476.2,M,45.2,M,,0000*50
$GPGSA,A,3,21,29,18,22,19,27,03,16,,,,,1.9,1.3,1.4*35
$GPRMC,165450.000,A,4634.4264,N,01403.0987,E,0.14,282.23,060714,,*09
$GPVTG,282.23,T,,M,0.14,N,0.3,K*6F
$GPGGA,165451.000,4634.4265,N,01403.0989,E,1,08,1.3,475.8,M,45.2,M,,0000*57
$GPGSA,A,3,21,29,18,22,19,27,03,16,,,,,1.9,1.3,1.4*35
$GPRMC,165451.000,A,4634.4265,N,01403.0989,E,0.23,2.46,060714,,*0A
$GPVTG,2.46,T,,M,0.23,N,0.4,K*65
$GPGGA,165452.000,4634.4267,N,01403.0992,E,1,08,1.3,475.3,M,45.2,M,,0000*57
$GPGSA,A,3,21,29,18,22,19,27,03,16,,,,,1.9,1.3,1.4*35
$GPGSV,3,1,11,16,65,274,43,21,64,060,44,18,47,124,40,27,42,294,31*79
$GPGSV,3,2,11,22,27,169,40,03,18,294,29,29,15,099,35,19,12,285,24*72
$GPGSV,3,3,11,07,06,332,,15,04,074,16,26,01,042,*4D
$GPRMC,165452.000,A,4634.4267,N,01403.0992,E,1.31,51.51,060714,,*33
$GPVTG,51.51,T,,M,1.31,N,2.4,K*55
$GPGGA,165453.000,4634.4270,N,01403.0999,E,1,08,1.3,474.8,M,45.2,M,,0000*51
$GPGSA,A,3,21,29,18,22,19,27,03,16,,,,,1.9,1.3,1.4*35
$GPRMC,165453.000,A,4634.4270,N,01403.0999,E,1.65,66.61,060714,,*39
$GPVTG,66.61,T,,M,1.65,N,3.1,K*57
$GPGGA,165454.000,4634.4273,N,01403.1004,E,1,08,1.3,474.5,M,45.2,M,,0000*54
$GPGSA,A,3,21,29,18,22,19,27,03,16,,,,,1.9,1.3,1.4*35
$GPRMC,165454.000,A,4634.4273,N,01403.1004,E,1.97,58.56,060714,,*35
$GPVTG,58.56,T,,M,1.97,N,3.7,K*55
$GPGGA,165455.000,4634.4277,N,01403.1011,E,1,08,1.3,474.5,M,45.2,M,,0000*55
$GPGSA,A,3,21,29,18,22,19,27,03,16,,,,,1.9,1.3,1.4*35
$GPRMC,165455.000,A,4634.4277,N,01403.1011,E,2.44,43.55,060714,,*30
$GPVTG,43.55,T,,M,2.44,N,4.5,K*54
$GPGGA,165456.000,4634.4282,N,01403.1017,E,1,08,1.3,474.5,M,45.2,M,,0000*5A
$GPGSA,A,3,21,29,18,22,19,27,03,16,,,,,1.9,1.3,1.4*35
$GPRMC,165456.000,A,4634.4282,N,01403.1017,E,2.45,44.67,060714,,*38
$GPVTG,44.67,T,,M,2.45,N,4.5,K*53
$GPGGA,165457.000,4634.4287,N,01403.1023,E,1,07,1.3,474.4,M,45.2,M,,0000*57
$GPGSA,A,3,21,29,18,22,27,03,16,,,,,,2.0,1.3,1.6*35
$GPGSV,3,1,11,16,65,274,40,21,64,060,44,18,47,124,36,27,42,294,33*79
$GPGSV,3,2,11,22,27,169,40,03,18,294,24,29,15,099,41,19,12,285,20*78
$GPGSV,3,3,11,07,06,332,,15,04,074,26,26,01,042,*4E
$GPRMC,165457.000,A,4634.4287,N,01403.1023,E,2.64,47.79,060714,,*34
$GPVTG,47.79,T,,M,2.64,N,4.9,K*50
$GPGGA,165458.000,4634.4293,N,01403.1030,E,1,06,1.5,474.3,M,45.2,M,,0000*5F
$GPGSA,A,3,21,29,18,22,27,16,,,,,,,2.6,1.5,2.2*31
$GPRMC,165458.000,A,4634.4293,N,01403.1030,E,2.60,46.05,060714,,*32
$GPVTG,46.05,T,,M,2.60,N,4.8,K*5F
$GPGGA,165459.000,4634.4298,N,01403.1037,E,1,06,1.5,474.2,M,45.2,M,,0000*53
$GPGSA,A,3,21,29,18,22,27,16,,,,,,,2.6,1.5,2.2*31
$GPRMC,165459.000,A,4634.4298,N,01403.1037,E,2.32,45.82,060714,,*34
$GPVTG,45.82,T,,M,2.32,N,4.3,K*5F
$GPGGA,165500.000,4634.4302,N,01403.1043,E,1,07,1.3,474.0,M,45.2,M,,0000*5A
$GPGSA,A,3,21,29,18,22,27,03,16,,,,,,2.0,1.3,1.6*35
$GPRMC,165500.000,A,4634.4302,N,01403.1043,E,2.40,55.00,060714,,*36
$GPVTG,55.00,T,,M,2.40,N,4.4,K*56
$GPGGA,165501.000,4634.4306,N,01403.1051,E,1,07,1.3,473.8,M,45.2,M,,0000*53
$GPGSA,A,3,21,29,18,22,27,03,16,,,,,,2.0,1.3,1.6*35
$GPRMC,165501.000,A,4634.4306,N,01403.1051,E,2.34,66.29,060714,,*38
$GPVTG,66.29,T,,M,2.34,N,4.3,K*59
$GPGGA,165502.000,4634.4309,N,01403.1059,E,1,07,1.3,473.6,M,45.2,M,,0000*59
$GPGSA,A,3,21,29,18,22,27,03,16,,,,,,2.0,1.3,1.6*35
$GPGSV,3,1,11,16,65,274,37,21,64,060,45,18,47,124,47,27,42,294,33*7E
$GPGSV,3,2,11,22,27,169,37,03,18,294,29,29,15,099,44,19,12,285,*72
$GPGSV,3,3,11,07,06,332,23,15,04,074,13,26,01,042,*49
$GPRMC,165502.000,A,4634.4309,N,01403.1059,E,2.33,67.15,060714,,*35
$GPVTG,67.15,T,,M,2.33,N,4.3,K*50
$GPGGA,165503.000,4634.4312,N,01403.1067,E,1,07,1.3,473.4,M,45.2,M,,0000*5D
$GPGSA,A,3,21,29,18,22,27,03,16,,,,,,2.0,1.3,1.6*35
$GPRMC,165503.000,A,4634.4312,N,01403.1067,E,2.31,60.35,060714,,*34
$GPVTG,60.35,T,,M,2.31,N,4.3,K*57
$GPGGA,165504.000,4634.4315,N,01403.1074,E,1,08,1.3,473.1,M,45.2,M,,0000*55
$GPGSA,A,3,21,29,18,22,19,27,03,16,,,,,1.9,1.3,1.4*35
$GPRMC,165504.000,A,4634.4315,N,01403.1074,E,2.15,58.26,060714,,*39
$GPVTG,58.26,T,,M,2.15,N,4.0,K*5B
$GPGGA,165505.000,4634.4319,N,01403.1080,E,1,08,1.3,472.8,M,45.2,M,,0000*5B
$GPGSA,A,3,21,29,18,22,19,27,03,16,,,,,1.9,1.3,1.4*35
$GPRMC,165505.000,A,4634.4319,N,01403.1080,E,2.19,56.99,060714,,*39
$GPVTG,56.99,T,,M,2.19,N,4.1,K*5C
$GPGGA,165506.000,4634.4323,N,01403.1087,E,1,08,1.3,472.5,M,45.2,M,,0000*5B
$GPGSA,A,3,21,29,18,22,19,27,03,16,,,,,1.9,1.3,1.4*35
$GPRMC,165506.000,A,4634.4323,N,01403.1087,E,2.48,56.13,060714,,*32
$GPVTG,56.13,T,,M,2.48,N,4.6,K*5D
$GPGGA,165507.000,4634.4326,N,01403.1096,E,1,08,1.3,472.3,M,45.2,M,,0000*59
$GPGSA,A,3,21,29,18,22,19,27,03,16,,,,,1.9,1.3,1.4*35
$GPGSV,3,1,11,16,65,274,37,21,64,060,45,18,48,123,46,27,42,295,34*71
$GPGSV,3,2,11,22,27,169,37,03,18,294,32,29,15,099,44,19,12,285,28*72
$GPGSV,3,3,11,07,06,332,23,15,04,073,17,26,01,042,*4A
$GPRMC,165507.000,A,4634.4326,N,01403.1096,E,2.86,62.53,060714,,*37
$GPVTG,62.53,T,,M,2.86,N,5.3,K*58
$GPGGA,165508.000,4634.4330,N,01403.1106,E,1,08,1.3,472.1,M,45.2,M,,0000*5B
$GPGSA,A,3,21,29,18,22,19,27,03,16,,,,,1.9,1.3,1.4*35
$GPRMC,165508.000,A,4634.4330,N,01403.1106,E,2.77,66.77,060714,,*3B
$GPVTG,66.77,T,,M,2.77,N,5.1,K*56
$GPGGA,165509.000,4634.4333,N,01403.1116,E,1,08,1.3,472.0,M,45.2,M,,0000*59
$GPGSA,A,3,21,29,18,22,19,27,03,16,,,,,1.9,1.3,1.4*35
$GPRMC,165509.000,A,4634.4333,N,01403.1116,E,2.74,73.40,060714,,*3B
$GPVTG,73.40,T,,M,2.74,N,5.1,K*55
$GPGGA,165510.000,4634.4335,N,01403.1126,E,1,08,1.3,471.9,M,45.2,M,,0000*5E
$GPGSA,A,3,21,29,18,22,19,27,03,16,,,,,1.9,1.3,1.4*35
$GPRMC,165510.000,A,4634.4335,N,01403.1126,E,2.60,75.29,060714,,*3A
$GPVTG,75.29,T,,M,2.60,N,4.8,K*51
$GPGGA,165511.000,4634.4336,N,01403.1135,E,1,08,1.3,471.8,M,45.2,M,,0000*5F
$GPGSA,A,3,21,29,18,22,19,27,03,16,,,,,1.9,1.3,1.4*35
$GPRMC,165511.000,A,4634.4336,N,01403.1135,E,2.25,81.22,060714,,*3B
$GPVTG,81.22,T,,M,2.25,N,4.2,K*5A
$GPGGA,165512.000,4634.4336,N,01403.1141,E,1,08,1.3,471.7,M,45.2,M,,0000*50
$GPGSA,A,3,21,29,18,22,19,27,03,16,,,,,1.9,1.3,1.4*35
$GPGSV,3,1,11,16,65,274,40,21,64,060,44,18,48,123,47,27,42,295,38*7D
$GPGSV,3,2,11,22,27,169,42,03,18,294,32,29,15,099,36,19,12,285,28*75
$GPGSV,3,3,11,07,06,332,,15,04,073,17,26,01,042,*4B
$GPRMC,165512.000,A,4634.4336,N,01403.1141,E,1.49,104.64,060714,,*0C
$GPVTG,104.64,T,,M,1.49,N,2.8,K*61
$GPGGA,165513.000,4634.4336,N,01403.1144,E,1,08,1.3,471.4,M,45.2,M,,0000*57
$GPGSA,A,3,21,29,18,22,19,27,03,16,,,,,1.9,1.3,1.4*35
$GPRMC,165513.000,A,4634.4336,N,01403.1144,E,0.33,128.01,060714,,*09
$GPVTG,128.01,T,,M,0.33,N,0.6,K*6C
$GPGGA,165514.000,4634.4336,N,01403.1143,E,1,08,1.3,470.7,M,45.2,M,,0000*55
$GPGSA,A,3,21,29,18,22,19,27,03,16,,,,,1.9,1.3,1.4*35
$GPRMC,165514.000,A,4634.4336,N,01403.1143,E,0.33,211.35,060714,,*07
$GPVTG,211.35,T,,M,0.33,N,0.6,K*62
$GPGGA,165515.000,4634.4336,N,01403.1143,E,1,08,1.3,470.5,M,45.2,M,,0000*56
$GPGSA,A,3,21,29,18,22,19,27,03,16,,,,,1.9,1.3,1.4*35
$GPRMC,165515.000,A,4634.4336,N,01403.1143,E,0.09,60.11,060714,,*3D
$GPVTG,60.11,T,,M,0.09,N,0.2,K*5D
$GPGGA,165516.000,4634.4336,N,01403.1142,E,1,08,1.3,470.5,M,45.2,M,,0000*54
$GPGSA,A,3,21,29,18,22,19,27,03,16,,,,,1.9,1.3,1.4*35
$GPRMC,165516.000,A,4634.4336,N,01403.1142,E,0.11,55.12,060714,,*33
$GPVTG,55.12,T,,M,0.11,N,0.2,K*51
$GPGGA,165517.000,4634.4336,N,01403.1142,E,1,08,1.3,470.5,M,45.2,M,,0000*55
$GPGSA,A,3,21,29,18,22,19,27,03,16,,,,,1.9,1.3,1.4*35
$GPGSV,3,1,11,16,65,274,46,21,64,060,33,18,48,123,45,27,42,295,45*73
$GPGSV,3,2,11,22,27,169,45,03,18,294,31,29,15,099,46,19,12,285,30*7F
$GPGSV,3,3,11,07,06,332,,15,04,073,09,26,01,042,*44
$GPRMC,165517.000,A,4634.4336,N,01403.1142,E,0.11,34.36,060714,,*33
$GPVTG,34.36,T,,M,0.11,N,0.2,K*50
$GPGGA,165518.000,4634.4336,N,01403.1142,E,1,08,1.3,470.5,M,45.2,M,,0000*5A
$GPGSA,A,3,21,29,18,22,19,27,03,16,,,,,1.9,1.3,1.4*35
$GPRMC,165518.000,A,4634.4336,N,01403.1142,E,0.10,38.83,060714,,*3F
$GPVTG,38.83,T,,M,0.10,N,0.2,K*53
$GPGGA,165519.000,4634.4337,N,01403.1141,E,1,08,1.3,470.5,M,45.2,M,,0000*59
$GPGSA,A,3,21,29,18,22,19,27,03,16,,,,,1.9,1.3,1.4*35
$GPRMC,165519.000,A,4634.4337,N,01403.1141,E,0.11,41.86,060714,,*36
$GPVTG,41.86,T,,M,0.11,N,0.2,K*59
$GPGGA,165520.000,4634.4337,N,01403.1141,E,1,08,1.3,470.5,M,45.2,M,,0000*53
$GPGSA,A,3,21,29,18,22,19,27,03,16,,,,,1.9,1.3,1.4*35
$GPRMC,165520.000,A,4634.4337,N,01403.1141,E,0.10,46.62,060714,,*30
$GPVTG,46.62,T,,M,0.10,N,0.2,K*55
$GPGGA,165521.000,4634.4337,N,01403.1141,E,1,08,1.3,470.5,M,45.2,M,,0000*52
$GPGSA,A,3,21,29,18,22,19,27,03,16,,,,,1.9,1.3,1.4*35
$GPRMC,165521.000,A,4634.4337,N,01403.1141,E,0.09,47.60,060714,,*3A
$GPVTG,47.60,T,,M,0.09,N,0.2,K*5E
$GPGGA,165522.000,4634.4337,N,01403.1140,E,1,08,1.3,470.5,M,45.2,M,,0000*50
$GPGSA,A,3,21,29,18,22,19,27,03,16,,,,,1.9,1.3,1.4*35
$GPGSV,3,1,11,16,65,274,47,21,64,060,42,18,48,123,46,27,42,295,44*76
$GPGSV,3,2,11,22,27,169,46,03,18,294,31,29,15,099,46,19,12,285,30*7C
$GPGSV,3,3,11,07,06,332,14,15,04,073,,26,01,042,*48
$GPRMC,165522.000,A,4634.4337,N,01403.1140,E,0.10,52.16,060714,,*35
$GPVTG,52.16,T,,M,0.10,N,0.2,K*53
$GPGGA,165523.000,4634.4337,N,01403.1140,E,1,08,1.3,470.5,M,45.2,M,,0000*51
$GPGSA,A,3,21,29,18,22,19,27,03,16,,,,,1.9,1.3,1.4*35
$GPRMC,165523.000,A,4634.4337,N,01403.1140,E,0.09,52.44,060714,,*3B
$GPVTG,52.44,T,,M,0.09,N,0.2,K*5C
$GPGGA,165524.000,4634.4337,N,01403.1140,E,1,07,1.3,470.5,M,45.2,M,,0000*59
$GPGSA,A,3,21,29,18,22,27,03,16,,,,,,2.0,1.3,1.6*35
$GPRMC,165524.000,A,4634.4337,N,01403.1140,E,0.09,50.64,060714,,*3C
$GPVTG,50.64,T,,M,0.09,N,0.2,K*5C
$GPGGA,165525.000,4634.4337,N,01403.1140,E,1,07,1.3,470.5,M,45.2,M,,0000*58
$GPGSA,A,3,21,29,18,22,27,03,16,,,,,,2.0,1.3,1.6*35
$GPRMC,165525.000,A,4634.4337,N,01403.1140,E,0.09,49.03,060714,,*34
$GPVTG,49.03,T,,M,0.09,N,0.2,K*55
$GPGGA,165526.000,4634.4338,N,01403.1139,E,1,07,1.3,470.5,M,45.2,M,,0000*5A
$GPGSA,A,3,21,29,18,22,27,03,16,,,,,,2.0,1.3,1.6*35
$GPRMC,165526.000,A,4634.4338,N,01403.1139,E,0.09,52.72,060714,,*3A
$GPVTG,52.72,T,,M,0.09,N,0.2,K*59
$GPGGA,165527.000,4634.4338,N,01403.1139,E,1,07,1.3,470.5,M,45.2,M,,0000*5B
$GPGSA,A,3,21,29,18,22,27,03,16,,,,,,2.0,1.3,1.6*35
$GPGSV,3,1,11,16,65,274,47,21,64,060,42,18,48,123,46,27,42,295,44*76
$GPGSV,3,2,11,22,27,169,46,03,18,294,29,29,15,099,46,19,12,285,23*77
$GPGSV,3,3,11,07,06,332,12,15,04,073,,26,01,042,*4E
$GPRMC,165527.000,A,4634.4338,N,01403.1139,E,0.09,54.73,060714,,*3C
$GPVTG,54.73,T,,M,0.09,N,0.2,K*5E
$GPGGA,165528.000,4634.4338,N,01403.1139,E,1,07,1.3,470.5,M,45.2,M,,0000*54
$GPGSA,A,3,21,29,18,22,27,03,16,,,,,,2.0,1.3,1.6*35
$GPRMC,165528.000,A,4634.4338,N,01403.1139,E,0.10,52.10,060714,,*38
$GPVTG,52.10,T,,M,0.10,N,0.2,K*55
$GPGGA,165529.000,4634.4338,N,01403.1139,E,1,07,1.3,470.5,M,45.2,M,,0000*55
$GPGSA,A,3,21,29,18,22,27,03,16,,,,,,2.0,1.3,1.6*35
$GPRMC,165529.000,A,4634.4338,N,01403.1139,E,0.09,48.57,060714,,*39
$GPVTG,48.57,T,,M,0.09,N,0.2,K*55
$GPGGA,165530.000,4634.4338,N,01403.1139,E,1,07,1.3,470.5,M,45.2,M,,0000*5D
$GPGSA,A,3,21,29,18,22,27,03,16,,,,,,2.0,1.3,1.6*35
$GPRMC,165530.000,A,4634.4338,N,01403.1139,E,0.09,53.13,060714,,*3B
$GPVTG,53.13,T,,M,0.09,N,0.2,K*5F
$GPGGA,165531.000,4634.4338,N,01403.1138,E,1,07,1.3,470.5,M,45.2,M,,0000*5D
$GPGSA,A,3,21,29,18,22,27,03,16,,,,,,2.0,1.3,1.6*35
$GPRMC,165531.000,A,4634.4338,N,01403.1138,E,0.09,48.99,060714,,*33
$GPVTG,48.99,T,,M,0.09,N,0.2,K*57
$GPGGA,165532.000,4634.4338,N,01403.1138,E,1,07,1.3,470.5,M,45.2,M,,0000*5E
$GPGSA,A,3,21,29,18,22,27,03,16,,,,,,2.0,1.3,1.6*35
$GPGSV,3,1,11,16,65,274,46,21,64,060,42,18,48,123,46,27,42,295,44*77
$GPGSV,3,2,11,22,27,169,46,03,18,294,28,29,15,099,46,19,12,285,*77
$GPGSV,3,3,11,07,06,332,,15,04,073,,26,01,042,*4D
$GPRMC,165532.000,A,4634.4338,N,01403.1138,E,0.10,47.69,060714,,*38
$GPVTG,47.69,T,,M,0.10,N,0.2,K*5F
$GPGGA,165533.000,4634.4339,N,01403.1138,E,1,07,1.3,470.5,M,45.2,M,,0000*5E
$GPGSA,A,3,21,29,18,22,27,03,16,,,,,,2.0,1.3,1.6*35
$GPRMC,165533.000,A,4634.4339,N,01403.1138,E,0.09,50.83,060714,,*32
$GPVTG,50.83,T,,M,0.09,N,0.2,K*55
$GPGGA,165534.000,4634.4339,N,01403.1138,E,1,07,1.3,470.5,M,45.2,M,,0000*59
$GPGSA,A,3,21,29,18,22,27,03,16,,,,,,2.0,1.3,1.6*35
$GPRMC,165534.000,A,4634.4339,N,01403.1138,E,0.09,51.97,060714,,*31
$GPVTG,51.97,T,,M,0.09,N,0.2,K*51
$GPGGA,165535.000,4634.4339,N,01403.1138,E,1,07,1.3,470.5,M,45.2,M,,0000*58
$GPGSA,A,3,21,29,18,22,27,03,16,,,,,,2.0,1.3,1.6*35
$GPRMC,165535.000,A,4634.4339,N,01403.1138,E,0.09,48.88,060714,,*36
$GPVTG,48.88,T,,M,0.09,N,0.2,K*57
$GPGGA,165536.000,4634.4339,N,01403.1137,E,1,07,1.3,470.5,M,45.2,M,,0000*54
$GPGSA,A,3,21,29,18,22,27,03,16,,,,,,2.0,1.3,1.6*35
$GPRMC,165536.000,A,4634.4339,N,01403.1137,E,0.10,50.24,060714,,*3D
$GPVTG,50.24,T,,M,0.10,N,0.2,K*50
$GPGGA,165537.000,4634.4339,N,01403.1137,E,1,07,1.3,470.5,M,45.2,M,,0000*55
$GPGSA,A,3,21,29,18,22,27,03,16,,,,,,2.0,1.3,1.6*35
$GPGSV,3,1,11,16,65,273,46,21,63,060,42,18,48,123,46,27,42,295,43*70
$GPGSV,3,2,11,22,28,169,45,03,19,294,28,29,15,099,45,19,12,285,*79
$GPGSV,3,3,11,07,06,332,,15,04,073,,26,02,041,*4D
$GPRMC,165537.000,A,4634.4339,N,01403.1137,E,0.12,41.22,060714,,*38
$GPVTG,41.22,T,,M,0.12,N,0.2,K*54
$GPGGA,165538.000,4634.4339,N,01403.1137,E,1,07,1.3,470.5,M,45.2,M,,0000*5A
$GPGSA,A,3,21,29,18,22,27,03,16,,,,,,2.0,1.3,1.6*35
$GPRMC,165538.000,A,4634.4339,N,01403.1137,E,0.08,59.21,060714,,*36
$GPVTG,59.21,T,,M,0.08,N,0.2,K*55
$GPGGA,165539.000,4634.4339,N,01403.1137,E,1,07,1.3,470.6,M,45.2,M,,0000*58
$GPGSA,A,3,21,29,18,22,27,03,16,,,,,,2.0,1.3,1.6*35
$GPRMC,165539.000,A,4634.4339,N,01403.1137,E,0.10,48.50,060714,,*38
$GPVTG,48.50,T,,M,0.10,N,0.2,K*5A
$GPGGA,165540.000,4634.4340,N,01403.1137,E,1,07,1.3,470.6,M,45.2,M,,0000*58
$GPGSA,A,3,21,29,18,22,27,03,16,,,,,,2.0,1.3,1.6*35
$GPRMC,165540.000,A,4634.4340,N,01403.1137,E,0.08,61.79,060714,,*31
$GPVTG,61.79,T,,M,0.08,N,0.2,K*53
$GPGGA,165541.000,4634.4340,N,01403.1137,E,1,07,1.3,470.6,M,45.2,M,,0000*59
$GPGSA,A,3,21,29,18,22,27,03,16,,,,,,2.0,1.3,1.6*35
$GPRMC,165541.000,A,4634.4340,N,01403.1137,E,0.10,50.92,060714,,*3E
$GPVTG,50.92,T,,M,0.10,N,0.2,K*5D
$GPGGA,165542.000,4634.4340,N,01403.1137,E,1,07,1.3,470.6,M,45.2,M,,0000*5A
$GPGSA,A,3,21,29,18,22,27,03,16,,,,,,2.0,1.3,1.6*35
$GPGSV,3,1,11,16,65,273,47,21,63,060,42,18,48,123,46,27,42,295,41*73
$GPGSV,3,2,11,22,28,169,45,03,19,294,28,29,15,099,45,19,12,285,*79
$GPGSV,3,3,11,07,06,332,,15,04,073,,26,02,041,*4D
$GPRMC,165542.000,A,4634.4340,N,01403.1137,E,0.09,51.32,060714,,*3E
$GPVTG,51.32,T,,M,0.09,N,0.2,K*5E
$GPGGA,165543.000,4634.4340,N,01403.1136,E,1,07,1.3,470.6,M,45.2,M,,0000*5A
$GPGSA,A,3,21,29,18,22,27,03,16,,,,,,2.0,1.3,1.6*35
$GPRMC,165543.000,A,4634.4340,N,01403.1136,E,0.10,54.23,060714,,*33
$GPVTG,54.23,T,,M,0.10,N,0.2,K*53
$GPGGA,165544.000,4634.4339,N,01403.1138,E,1,06,1.5,470.6,M,45.2,M,,0000*5A
$GPGSA,A,3,21,29,18,22,27,16,,,,,,,2.6,1.5,2.2*31
$GPRMC,165544.000,A,4634.4339,N,01403.1138,E,1.20,113.21,060714,,*06
$GPVTG,113.21,T,,M,1.20,N,2.2,K*63
$GPGGA,165545.000,4634.4334,N,01403.1152,E,1,06,1.5,470.6,M,45.2,M,,0000*5A
$GPGSA,A,3,21,29,18,22,27,16,,,,,,,2.6,1.5,2.2*31
$GPRMC,165545.000,A,4634.4334,N,01403.1152,E,6.74,119.12,060714,,*0A
$GPVTG,119.12,T,,M,6.74,N,12.5,K*59
$GPGGA,165546.000,4634.4320,N,01403.1187,E,1,08,1.3,470.6,M,45.2,M,,0000*5C
$GPGSA,A,3,21,29,18,22,27,03,16,19,,,,,1.9,1.3,1.4*35
$GPRMC,165546.000,A,4634.4320,N,01403.1187,E,12.94,118.53,060714,,*3B
$GPVTG,118.53,T,,M,12.94,N,24.0,K*66
$GPGGA,165547.000,4634.4304,N,01403.1240,E,1,08,1.3,470.8,M,45.2,M,,0000*5D
$GPGSA,A,3,21,29,18,22,27,03,16,19,,,,,1.9,1.3,1.4*35
$GPGSV,3,1,11,16,65,273,47,21,63,060,42,18,48,123,46,27,42,295,41*73
$GPGSV,3,2,11,22,28,169,45,03,19,294,35,29,15,099,45,19,12,285,28*7F
$GPGSV,3,3,11,07,06,332,,15,04,073,,26,02,041,*4D
$GPRMC,165547.000,A,4634.4304,N,01403.1240,E,15.37,109.58,060714,,*31
$GPVTG,109.58,T,,M,15.37,N,28.5,K*6A
$GPGGA,165548.000,4634.4284,N,01403.1283,E,1,08,1.3,470.7,M,45.2,M,,0000*5B
$GPGSA,A,3,21,29,18,22,27,03,16,19,,,,,1.9,1.3,1.4*35
$GPRMC,165548.000,A,4634.4284,N,01403.1283,E,11.61,141.33,060714,,*3E
$GPVTG,141.33,T,,M,11.61,N,21.5,K*65
$GPGGA,165549.000,4634.4271,N,01403.1298,E,1,08,1.3,470.7,M,45.2,M,,0000*5A
$GPGSA,A,3,21,29,18,22,27,03,16,19,,,,,1.9,1.3,1.4*35
$GPRMC,165549.000,A,4634.4271,N,01403.1298,E,0.39,149.34,060714,,*0D
$GPVTG,149.34,T,,M,0.39,N,0.7,K*66
$GPGGA,165550.000,4634.4270,N,01403.1299,E,1,08,1.3,470.8,M,45.2,M,,0000*5D
$GPGSA,A,3,21,29,18,22,27,03,16,19,,,,,1.9,1.3,1.4*35
$GPRMC,165550.000,A,4634.4270,N,01403.1299,E,0.10,33.23,060714,,*34
$GPVTG,33.23,T,,M,0.10,N,0.2,K*52
$GPGGA,165551.000,4634.4270,N,01403.1298,E,1,08,1.3,470.8,M,45.2,M,,0000*5D
$GPGSA,A,3,21,29,18,22,27,03,16,19,,,,,1.9,1.3,1.4*35
$GPRMC,165551.000,A,4634.4270,N,01403.1298,E,0.06,47.00,060714,,*31
$GPVTG,47.00,T,,M,0.06,N,0.1,K*54
$GPGGA,165552.000,4634.4271,N,01403.1298,E,1,08,1.3,470.7,M,45.2,M,,0000*50
$GPGSA,A,3,21,29,18,22,27,03,16,19,,,,,1.9,1.3,1.4*35
$GPGSV,3,1,11,16,65,273,46,21,63,060,44,18,48,123,45,27,42,295,45*73
$GPGSV,3,2,11,22,28,169,44,03,19,294,42,29,15,099,37,19,12,285,37*75
$GPGSV,3,3,11,07,06,332,,15,04,073,,26,02,041,*4D
$GPRMC,165552.000,A,4634.4271,N,01403.1298,E,0.05,57.59,060714,,*3D
$GPVTG,57.59,T,,M,0.05,N,0.1,K*5A
$GPGGA,165553.000,4634.4271,N,01403.1298,E,1,08,1.3,470.7,M,45.2,M,,0000*51
$GPGSA,A,3,21,29,18,22,27,03,16,19,,,,,1.9,1.3,1.4*35
$GPRMC,165553.000,A,4634.4271,N,01403.1298,E,0.04,59.70,060714,,*38
$GPVTG,59.70,T,,M,0.04,N,0.1,K*5E
$GPGGA,165554.000,4634.4271,N,01403.1297,E,1,08,1.3,470.8,M,45.2,M,,0000*56
$GPGSA,A,3,21,29,18,22,27,03,16,19,,,,,1.9,1.3,1.4*35
$GPRMC,165554.000,A,4634.4271,N,01403.1297,E,0.04,61.58,060714,,*31
$GPVTG,61.58,T,,M,0.04,N,0.1,K*5F
$GPGGA,165555.000,4634.4271,N,01403.1297,E,1,08,1.3,470.8,M,45.2,M,,0000*57
$GPGSA,A,3,21,29,18,22,27,03,16,19,,,,,1.9,1.3,1.4*35
$GPRMC,165555.000,A,4634.4271,N,01403.1297,E,0.04,58.94,060714,,*3A
$GPVTG,58.94,T,,M,0.04,N,0.1,K*55
$GPGGA,165556.000,4634.4271,N,01403.1297,E,1,08,1.3,470.8,M,45.2,M,,0000*54
$GPGSA,A,3,21,29,18,22,27,03,16,19,,,,,1.9,1.3,1.4*35
$GPRMC,165556.000,A,4634.4271,N,01403.1297,E,0.05,55.37,060714,,*3C
$GPVTG,55.37,T,,M,0.05,N,0.1,K*50
$GPGGA,165557.000,4634.4271,N,01403.1296,E,1,08,1.3,470.9,M,45.2,M,,0000*55
$GPGSA,A,3,21,29,18,22,27,03,16,19,,,,,1.9,1.3,1.4*35
$GPGSV,3,1,11,16,65,273,46,21,63,060,44,18,48,123,45,27,42,295,46*70
$GPGSV,3,2,11,22,28,169,44,03,19,294,43,29,15,099,37,19,12,285,37*74
$GPGSV,3,3,11,07,06,332,,15,04,073,,26,02,041,*4D
$GPRMC,165557.000,A,4634.4271,N,01403.1296,E,0.04,60.36,060714,,*3A
$GPVTG,60.36,T,,M,0.04,N,0.1,K*56
$GPGGA,165558.000,4634.4271,N,01403.1296,E,1,08,1.3,470.9,M,45.2,M,,0000*5A
$GPGSA,A,3,21,29,18,22,27,03,16,19,,,,,1.9,1.3,1.4*35
$GPRMC,165558.000,A,4634.4271,N,01403.1296,E,0.05,54.91,060714,,*3E
$GPVTG,54.91,T,,M,0.05,N,0.1,K*5D
$GPGGA,165559.000,4634.4271,N,01403.1296,E,1,08,1.3,470.9,M,45.2,M,,0000*5B
$GPGSA,A,3,21,29,18,22,27,03,16,19,,,,,1.9,1.3,1.4*35
$GPRMC,165559.000,A,4634.4271,N,01403.1296,E,0.04,52.06,060714,,*36
$GPVTG,52.06,T,,M,0.04,N,0.1,K*54
$GPGGA,165600.000,4634.4270,N,01403.1295,E,1,08,1.3,471.0,M,45.2,M,,0000*5E
$GPGSA,A,3,21,29,18,22,27,03,16,19,,,,,1.9,1.3,1.4*35
$GPRMC,165600.000,A,4634.4270,N,01403.1295,E,0.05,54.24,060714,,*3C
$GPVTG,54.24,T,,M,0.05,N,0.1,K*53
$GPGGA,165601.000,4634.4270,N,01403.1295,E,1,08,1.3,471.1,M,45.2,M,,0000*5E
$GPGSA,A,3,21,29,18,22,27,03,16,19,,,,,1.9,1.3,1.4*35
$GPRMC,165601.000,A,4634.4270,N,01403.1295,E,0.04,63.73,060714,,*3A
$GPVTG,63.73,T,,M,0.04,N,0.1,K*54
$GPGGA,165602.000,4634.4270,N,01403.1295,E,1,08,1.3,471.1,M,45.2,M,,0000*5D
$GPGSA,A,3,21,29,18,22,27,03,16,19,,,,,1.9,1.3,1.4*35
$GPGSV,3,1,11,16,65,273,46,21,63,060,45,18,48,123,45,27,42,295,46*71
$GPGSV,3,2,11,22,28,169,43,03,19,294,42,29,15,099,37,19,12,285,38*7D
$GPGSV,3,3,11,07,06,332,,15,04,073,,26,02,041,*4D
$GPRMC,165602.000,A,4634.4270,N,01403.1295,E,0.05,72.75,060714,,*3E
$GPVTG,72.75,T,,M,0.05,N,0.1,K*53
$GPGGA,165603.000,4634.4270,N,01403.1294,E,1,08,1.3,471.2,M,45.2,M,,0000*5E
$GPGSA,A,3,21,29,18,22,27,03,16,19,,,,,1.9,1.3,1.4*35
$GPRMC,165603.000,A,4634.4270,N,01403.1294,E,0.04,52.38,060714,,*34
$GPVTG,52.38,T,,M,0.04,N,0.1,K*59
$GPGGA,165604.000,4634.4270,N,01403.1294,E,1,08,1.3,471.3,M,45.2,M,,0000*58
$GPGSA,A,3,21,29,18,22,27,03,16,19,,,,,1.9,1.3,1.4*35
$GPRMC,165604.000,A,4634.4270,N,01403.1294,E,0.03,41.88,060714,,*3D
$GPVTG,41.88,T,,M,0.03,N,0.1,K*57
$GPGGA,165605.000,4634.4270,N,01403.1293,E,1,08,1.3,471.3,M,45.2,M,,0000*5E
$GPGSA,A,3,21,29,18,22,27,03,16,19,,,,,1.9,1.3,1.4*35
$GPRMC,165605.000,A,4634.4270,N,01403.1293,E,0.04,32.08,060714,,*30
$GPVTG,32.08,T,,M,0.04,N,0.1,K*5C
$GPGGA,165606.000,4634.4270,N,01403.1293,E,1,08,1.3,471.6,M,45.2,M,,0000*58
$GPGSA,A,3,21,29,18,22,27,03,16,19,,,,,1.9,1.3,1.4*35
$GPRMC,165606.000,A,4634.4270,N,01403.1293,E,0.53,22.14,060714,,*3D
$GPVTG,22.14,T,,M,0.53,N,1.0,K*52
$GPGGA,165607.000,4634.4273,N,01403.1293,E,1,08,1.3,471.7,M,45.2,M,,0000*5B
$GPGSA,A,3,21,29,18,22,27,03,16,19,,,,,1.9,1.3,1.4*35
$GPGSV,3,1,11,16,65,273,39,21,63,060,39,18,48,123,36,27,42,295,33*74
$GPGSV,3,2,11,22,28,169,44,03,19,294,33,29,15,099,40,19,12,285,27*72
$GPGSV,3,3,11,07,06,332,,15,05,073,,26,02,041,*4C
$GPRMC,165607.000,A,4634.4273,N,01403.1293,E,2.00,5.97,060714,,*05
$GPVTG,5.97,T,,M,2.00,N,3.7,K*6D
$GPGGA,165608.000,4634.4279,N,01403.1291,E,1,08,1.3,471.7,M,45.2,M,,0000*5C
$GPGSA,A,3,21,29,18,22,27,03,16,19,,,,,1.9,1.3,1.4*35
$GPRMC,165608.000,A,4634.4279,N,01403.1291,E,2.69,330.89,060714,,*07
$GPVTG,330.89,T,,M,2.69,N,5.0,K*69
$GPGGA,165609.000,4634.4284,N,01403.1283,E,1,08,1.3,471.9,M,45.2,M,,0000*52
$GPGSA,A,3,21,29,18,22,27,03,16,19,,,,,1.9,1.3,1.4*35
$GPRMC,165609.000,A,4634.4284,N,01403.1283,E,2.70,309.69,060714,,*0B
$GPVTG,309.69,T,,M,2.70,N,5.0,K*65
$GPGGA,165610.000,4634.4288,N,01403.1273,E,1,08,1.3,472.0,M,45.2,M,,0000*53
$GPGSA,A,3,21,29,18,22,27,03,16,19,,,,,1.9,1.3,1.4*35
$GPRMC,165610.000,A,4634.4288,N,01403.1273,E,2.88,297.12,060714,,*0D
$GPVTG,297.12,T,,M,2.88,N,5.3,K*6B
$GPGGA,165611.000,4634.4291,N,01403.1263,E,1,08,1.3,472.1,M,45.2,M,,0000*5A
$GPGSA,A,3,21,29,18,22,27,03,16,19,,,,,1.9,1.3,1.4*35
$GPRMC,165611.000,A,4634.4291,N,01403.1263,E,2.81,299.58,060714,,*0C
$GPVTG,299.58,T,,M,2.81,N,5.2,K*63
$GPGGA,165612.000,4634.4294,N,01403.1252,E,1,08,1.3,472.1,M,45.2,M,,0000*5E
$GPGSA,A,3,21,29,18,22,27,03,16,19,,,,,1.9,1.3,1.4*35
$GPGSV,3,1,11,16,65,273,35,21,63,060,41,18,48,123,44,27,43,295,35*75
$GPGSV,3,2,11,22,28,169,36,03,19,294,37,29,15,099,47,19,12,285,31*73
$GPGSV,3,3,11,07,06,332,,15,05,073,,26,02,041,*4C
$GPRMC,165612.000,A,4634.4294,N,01403.1252,E,2.97,293.92,060714,,*03
$GPVTG,293.92,T,,M,2.97,N,5.5,K*6F
$GPGGA,165613.000,4634.4297,N,01403.1240,E,1,08,1.3,472.1,M,45.2,M,,0000*5F
$GPGSA,A,3,21,29,18,22,27,03,16,19,,,,,1.9,1.3,1.4*35
$GPRMC,165613.000,A,4634.4297,N,01403.1240,E,3.05,293.64,060714,,*01
$GPVTG,293.64,T,,M,3.05,N,5.7,K*6E
$GPGGA,165614.000,4634.4300,N,01403.1229,E,1,08,1.3,472.1,M,45.2,M,,0000*58
$GPGSA,A,3,21,29,18,22,27,03,16,19,,,,,1.9,1.3,1.4*35
$GPRMC,165614.000,A,4634.4300,N,01403.1229,E,2.95,295.04,060714,,*0E
$GPVTG,295.04,T,,M,2.95,N,5.5,K*64
$GPGGA,165615.000,4634.4304,N,01403.1218,E,1,08,1.3,472.1,M,45.2,M,,0000*5F
$GPGSA,A,3,21,29,18,22,27,03,16,19,,,,,1.9,1.3,1.4*35
$GPRMC,165615.000,A,4634.4304,N,01403.1218,E,2.98,297.98,060714,,*03
$GPVTG,297.98,T,,M,2.98,N,5.5,K*6E
$GPGGA,165616.000,4634.4307,N,01403.1207,E,1,08,1.3,472.1,M,45.2,M,,0000*51
$GPGSA,A,3,21,29,18,22,27,03,16,19,,,,,1.9,1.3,1.4*35
$GPRMC,165616.000,A,4634.4307,N,01403.1207,E,2.80,299.54,060714,,*0A
$GPVTG,299.54,T,,M,2.80,N,5.2,K*6E
$GPGGA,165617.000,4634.4312,N,01403.1197,E,1,08,1.3,472.1,M,45.2,M,,0000*5E
$GPGSA,A,3,21,29,18,22,27,03,16,19,,,,,1.9,1.3,1.4*35
$GPGSV,3,1,11,16,65,273,34,21,63,060,41,18,48,123,43,27,43,295,35*73
$GPGSV,3,2,11,22,28,169,37,03,19,294,36,29,15,099,48,19,12,285,30*7D
$GPGSV,3,3,11,07,06,332,22,15,05,073,,26,02,041,*4C
$GPRMC,165617.000,A,4634.4312,N,01403.1197,E,2.92,298.97,060714,,*08
$GPVTG,298.97,T,,M,2.92,N,5.4,K*65
$GPGGA,165618.000,4634.4317,N,01403.1188,E,1,08,1.3,472.1,M,45.2,M,,0000*5A
$GPGSA,A,3,21,29,18,22,27,03,16,19,,,,,1.9,1.3,1.4*35
$GPRMC,165618.000,A,4634.4317,N,01403.1188,E,2.81,300.94,060714,,*0D
$GPVTG,300.94,T,,M,2.81,N,5.2,K*62
$GPGGA,165619.000,4634.4322,N,01403.1178,E,1,08,1.3,472.1,M,45.2,M,,0000*52
$GPGSA,A,3,21,29,18,22,27,03,16,19,,,,,1.9,1.3,1.4*35
$GPRMC,165619.000,A,4634.4322,N,01403.1178,E,2.90,299.31,060714,,*0B
$GPVTG,299.31,T,,M,2.90,N,5.4,K*6A
$GPGGA,165620.000,4634.4327,N,01403.1169,E,1,08,1.3,472.0,M,45.2,M,,0000*5C
$GPGSA,A,3,21,29,18,22,27,03,16,19,,,,,1.9,1.3,1.4*35
$GPRMC,165620.000,A,4634.4327,N,01403.1169,E,2.82,301.41,060714,,*00
$GPVTG,301.41,T,,M,2.82,N,5.2,K*68
$GPGGA,165621.000,4634.4332,N,01403.1160,E,1,08,1.3,472.0,M,45.2,M,,0000*50
$GPGSA,A,3,21,29,18,22,27,03,16,19,,,,,1.9,1.3,1.4*35
$GPRMC,165621.000,A,4634.4332,N,01403.1160,E,2.72,305.39,060714,,*08
$GPVTG,305.39,T,,M,2.72,N,5.0,K*6E
$GPGGA,165622.000,4634.4337,N,01403.1152,E,1,08,1.3,472.0,M,45.2,M,,0000*57
$GPGSA,A,3,21,29,18,22,27,03,16,19,,,,,1.9,1.3,1.4*35
$GPGSV,3,1,11,16,65,273,35,21,63,060,41,18,48,123,44,27,43,295,34*74
$GPGSV,3,2,11,22,28,169,37,03,19,294,37,29,15,099,48,19,12,285,35*79
$GPGSV,3,3,11,07,06,332,21,15,05,073,20,26,02,041,*4D
$GPRMC,165622.000,A,4634.4337,N,01403.1152,E,2.75,315.50,060714,,*06
$GPVTG,315.50,T,,M,2.75,N,5.1,K*66
$GPGGA,165623.000,4634.4343,N,01403.1144,E,1,08,1.3,471.8,M,45.2,M,,0000*59
$GPGSA,A,3,21,29,18,22,27,03,16,19,,,,,1.9,1.3,1.4*35
$GPRMC,165623.000,A,4634.4343,N,01403.1144,E,2.62,309.24,060714,,*0B
$GPVTG,309.24,T,,M,2.62,N,4.8,K*66
$GPGGA,165624.000,4634.4347,N,01403.1138,E,1,08,1.3,471.5,M,45.2,M,,0000*5C
$GPGSA,A,3,21,29,18,22,27,03,16,19,,,,,1.9,1.3,1.4*35
$GPRMC,165624.000,A,4634.4347,N,01403.1138,E,1.72,305.19,060714,,*03
$GPVTG,305.19,T,,M,1.72,N,3.2,K*6B
$GPGGA,165625.000,4634.4349,N,01403.1135,E,1,07,1.3,471.3,M,45.2,M,,0000*57
$GPGSA,A,3,21,29,18,22,27,16,19,,,,,,2.0,1.3,1.5*3D
$GPRMC,165625.000,A,4634.4349,N,01403.1135,E,0.15,343.38,060714,,*00
$GPVTG,343.38,T,,M,0.15,N,0.3,K*68
$GPGGA,165626.000,4634.4349,N,01403.1135,E,1,08,1.3,471.2,M,45.2,M,,0000*5A
$GPGSA,A,3,21,29,18,22,27,03,16,19,,,,,1.9,1.3,1.4*35
$GPRMC,165626.000,A,4634.4349,N,01403.1135,E,0.03,183.06,060714,,*07
$GPVTG,183.06,T,,M,0.03,N,0.1,K*6E
$GPGGA,165627.000,4634.4350,N,01403.1135,E,1,08,1.3,471.2,M,45.2,M,,0000*53
$GPGSA,A,3,21,29,18,22,27,03,16,19,,,,,1.9,1.3,1.4*35
$GPGSV,3,1,11,16,65,273,46,21,63,060,40,18,48,123,39,27,43,295,43*7B
$GPGSV,3,2,11,22,28,169,43,03,19,294,30,29,15,099,42,19,12,285,26*75
$GPGSV,3,3,11,07,06,332,20,15,05,073,14,26,02,041,*4B
$GPRMC,165627.000,A,4634.4350,N,01403.1135,E,0.07,101.66,060714,,*06
$GPVTG,101.66,T,,M,0.07,N,0.1,K*66
$GPGGA,165628.000,4634.4350,N,01403.1136,E,1,07,1.3,471.2,M,45.2,M,,0000*50
$GPGSA,A,3,21,29,18,22,27,03,16,,,,,,2.0,1.3,1.6*35
$GPRMC,165628.000,A,4634.4350,N,01403.1136,E,0.12,41.82,060714,,*31
$GPVTG,41.82,T,,M,0.12,N,0.2,K*5E
$GPGGA,165629.000,4634.4351,N,01403.1136,E,1,07,1.3,471.2,M,45.2,M,,0000*50
$GPGSA,A,3,21,29,18,22,27,03,16,,,,,,2.0,1.3,1.6*35
$GPRMC,165629.000,A,4634.4351,N,01403.1136,E,0.10,48.23,060714,,*31
$GPVTG,48.23,T,,M,0.10,N,0.2,K*5E
$GPGGA,165630.000,4634.4351,N,01403.1136,E,1,07,1.3,471.2,M,45.2,M,,0000*58
$GPGSA,A,3,21,29,18,22,27,03,16,,,,,,2.0,1.3,1.6*35
$GPRMC,165630.000,A,4634.4351,N,01403.1136,E,0.09,44.86,060714,,*32
$GPVTG,44.86,T,,M,0.09,N,0.2,K*55
$GPGGA,165631.000,4634.4352,N,01403.1136,E,1,07,1.3,471.1,M,45.2,M,,0000*59
$GPGSA,A,3,21,29,18,22,27,03,16,,,,,,2.0,1.3,1.6*35
$GPRMC,165631.000,A,4634.4352,N,01403.1136,E,0.09,48.35,060714,,*34
$GPVTG,48.35,T,,M,0.09,N,0.2,K*51
$GPGGA,165632.000,4634.4352,N,01403.1136,E,1,07,1.3,471.1,M,45.2,M,,0000*5A
$GPGSA,A,3,21,29,18,22,27,03,16,,,,,,2.0,1.3,1.6*35
$GPGSV,3,1,11,16,65,273,47,21,63,060,42,18,48,123,45,27,43,295,43*73
$GPGSV,3,2,11,22,28,169,46,03,19,294,28,29,15,099,44,19,12,285,*7B
$GPGSV,3,3,11,07,06,332,,15,05,073,18,26,02,041,*45
$GPRMC,165632.000,A,4634.4352,N,01403.1136,E,0.10,45.29,060714,,*3F
$GPVTG,45.29,T,,M,0.10,N,0.2,K*59
$GPGGA,165633.000,4634.4353,N,01403.1136,E,1,08,1.3,471.1,M,45.2,M,,0000*55
$GPGSA,A,3,21,29,18,22,19,27,03,16,,,,,1.9,1.3,1.4*35
$GPRMC,165633.000,A,4634.4353,N,01403.1136,E,0.09,42.20,060714,,*39
$GPVTG,42.20,T,,M,0.09,N,0.2,K*5F
$GPGGA,165634.000,4634.4353,N,01403.1136,E,1,08,1.3,471.0,M,45.2,M,,0000*53
$GPGSA,A,3,21,29,18,22,19,27,03,16,,,,,1.9,1.3,1.4*35
$GPRMC,165634.000,A,4634.4353,N,01403.1136,E,0.09,40.22,060714,,*3E
$GPVTG,40.22,T,,M,0.09,N,0.2,K*5F
$GPGGA,165635.000,4634.4353,N,01403.1137,E,1,08,1.3,471.0,M,45.2,M,,0000*53
$GPGSA,A,3,21,29,18,22,19,27,03,16,,,,,1.9,1.3,1.4*35
$GPRMC,165635.000,A,4634.4353,N,01403.1137,E,0.09,49.26,060714,,*33
$GPVTG,49.26,T,,M,0.09,N,0.2,K*52
$GPGGA,165636.000,4634.4354,N,01403.1137,E,1,08,1.3,471.0,M,45.2,M,,0000*57
$GPGSA,A,3,21,29,18,22,19,27,03,16,,,,,1.9,1.3,1.4*35
$GPRMC,165636.000,A,4634.4354,N,01403.1137,E,0.09,48.21,060714,,*31
$GPVTG,48.21,T,,M,0.09,N,0.2,K*54
$GPGGA,165637.000,4634.4354,N,01403.1137,E,1,08,1.3,471.0,M,45.2,M,,0000*56
$GPGSA,A,3,21,29,18,22,19,27,03,16,,,,,1.9,1.3,1.4*35
$GPGSV,3,1,11,16,65,273,47,21,63,060,42,18,48,123,45,27,43,295,42*72
$GPGSV,3,2,11,22,28,169,46,03,19,294,28,29,15,099,44,19,12,285,28*71
$GPGSV,3,3,11,07,06,332,,15,05,073,19,26,02,041,*44
$GPRMC,165637.000,A,4634.4354,N,01403.1137,E,0.10,52.57,060714,,*32
$GPVTG,52.57,T,,M,0.10,N,0.2,K*56
$GPGGA,165638.000,4634.4354,N,01403.1137,E,1,08,1.3,471.0,M,45.2,M,,0000*59
$GPGSA,A,3,21,29,18,22,19,27,03,16,,,,,1.9,1.3,1.4*35
$GPRMC,165638.000,A,4634.4354,N,01403.1137,E,0.09,54.28,060714,,*3B
$GPVTG,54.28,T,,M,0.09,N,0.2,K*50
$GPGGA,165639.000,4634.4354,N,01403.1137,E,1,08,1.3,471.0,M,45.2,M,,0000*58
$GPGSA,A,3,21,29,18,22,19,27,03,16,,,,,1.9,1.3,1.4*35
$GPRMC,165639.000,A,4634.4354,N,01403.1137,E,0.10,51.98,060714,,*3C
$GPVTG,51.98,T,,M,0.10,N,0.2,K*56
$GPGGA,165640.000,4634.4355,N,01403.1137,E,1,07,1.3,471.0,M,45.2,M,,0000*58
$GPGSA,A,3,21,29,18,22,27,03,16,,,,,,2.0,1.3,1.6*35
$GPRMC,165640.000,A,4634.4355,N,01403.1137,E,0.08,50.49,060714,,*37
$GPVTG,50.49,T,,M,0.08,N,0.2,K*52
$GPGGA,165641.000,4634.4355,N,01403.1137,E,1,07,1.3,471.0,M,45.2,M,,0000*59
$GPGSA,A,3,21,29,18,22,27,03,16,,,,,,2.0,1.3,1.6*35
$GPRMC,165641.000,A,4634.4355,N,01403.1137,E,0.10,49.74,060714,,*39
$GPVTG,49.74,T,,M,0.10,N,0.2,K*5D
$GPGGA,165642.000,4634.4355,N,01403.1137,E,1,07,1.3,471.0,M,45.2,M,,0000*5A
$GPGSA,A,3,21,29,18,22,27,03,16,,,,,,2.0,1.3,1.6*35
$GPGSV,3,1,11,16,65,272,47,21,63,060,42,18,48,123,45,27,43,295,42*73
$GPGSV,3,2,11,22,28,169,46,03,19,294,29,29,14,099,44,19,12,285,*7B
$GPGSV,3,3,11,07,06,332,,15,05,073,20,26,02,041,*4E
$GPRMC,165642.000,A,4634.4355,N,01403.1137,E,0.09,52.92,060714,,*30
$GPVTG,52.92,T,,M,0.09,N,0.2,K*57
$GPGGA,165643.000,4634.4355,N,01403.1137,E,1,08,1.3,471.1,M,45.2,M,,0000*55
$GPGSA,A,3,21,29,18,22,19,27,03,16,,,,,1.9,1.3,1.4*35
$GPRMC,165643.000,A,4634.4355,N,01403.1137,E,0.10,53.34,060714,,*34
$GPVTG,53.34,T,,M,0.10,N,0.2,K*52
$GPGGA,165644.000,4634.4356,N,01403.1138,E,1,08,1.3,471.1,M,45.2,M,,0000*5E
$GPGSA,A,3,21,29,18,22,19,27,03,16,,,,,1.9,1.3,1.4*35
$GPRMC,165644.000,A,4634.4356,N,01403.1138,E,0.09,51.95,060714,,*3E
$GPVTG,51.95,T,,M,0.09,N,0.2,K*53
$GPGGA,165645.000,4634.4356,N,01403.1138,E,1,08,1.3,471.1,M,45.2,M,,0000*5F
$GPGSA,A,3,21,29,18,22,19,27,03,16,,,,,1.9,1.3,1.4*35
$GPRMC,165645.000,A,4634.4356,N,01403.1138,E,0.09,57.17,060714,,*33
$GPVTG,57.17,T,,M,0.09,N,0.2,K*5F
$GPGGA,165646.000,4634.4356,N,01403.1138,E,1,08,1.3,471.1,M,45.2,M,,0000*5C
$GPGSA,A,3,21,29,18,22,19,27,03,16,,,,,1.9,1.3,1.4*35
$GPRMC,165646.000,A,4634.4356,N,01403.1138,E,0.08,52.64,060714,,*30
$GPVTG,52.64,T,,M,0.08,N,0.2,K*5F
$GPGGA,165647.000,4634.4356,N,01403.1138,E,1,08,1.3,471.2,M,45.2,M,,0000*5E
$GPGSA,A,3,21,29,18,22,19,27,03,16,,,,,1.9,1.3,1.4*35
$GPGSV,3,1,11,16,65,272,47,21,63,060,41,18,48,123,45,27,43,295,42*70
$GPGSV,3,2,11,22,28,169,45,03,19,294,29,29,14,099,44,19,12,285,31*7A
$GPGSV,3,3,11,07,06,332,,15,05,073,21,26,02,041,*4F
$GPRMC,165647.000,A,4634.4356,N,01403.1138,E,0.09,51.25,060714,,*36
$GPVTG,51.25,T,,M,0.09,N,0.2,K*58
$GPGGA,165648.000,4634.4356,N,01403.1138,E,1,08,1.3,471.2,M,45.2,M,,0000*51
$GPGSA,A,3,21,29,18,22,19,27,03,16,,,,,1.9,1.3,1.4*35
$GPRMC,165648.000,A,4634.4356,N,01403.1138,E,0.09,55.09,060714,,*33
$GPVTG,55.09,T,,M,0.09,N,0.2,K*52
$GPGGA,165649.000,4634.4356,N,01403.1138,E,1,08,1.3,471.2,M,45.2,M,,0000*50
$GPGSA,A,3,21,29,18,22,19,27,03,16,,,,,1.9,1.3,1.4*35
$GPRMC,165649.000,A,4634.4356,N,01403.1138,E,0.09,52.45,060714,,*3D
$GPVTG,52.45,T,,M,0.09,N,0.2,K*5D
$GPGGA,165650.000,4634.4356,N,01403.1138,E,1,08,1.3,471.2,M,45.2,M,,0000*58
$GPGSA,A,3,21,29,18,22,19,27,03,16,,,,,1.9,1.3,1.4*35
$GPRMC,165650.000,A,4634.4356,N,01403.1138,E,0.10,49.16,060714,,*31
$GPVTG,49.16,T,,M,0.10,N,0.2,K*59
$GPGGA,165651.000,4634.4357,N,01403.1138,E,1,08,1.3,471.2,M,45.2,M,,0000*58
$GPGSA,A,3,21,29,18,22,19,27,03,16,,,,,1.9,1.3,1.4*35
$GPRMC,165651.000,A,4634.4357,N,01403.1138,E,0.09,51.04,060714,,*33
$GPVTG,51.04,T,,M,0.09,N,0.2,K*5B
$GPGGA,165652.000,4634.4357,N,01403.1138,E,1,08,1.3,471.2,M,45.2,M,,0000*5B
$GPGSA,A,3,21,29,18,22,19,27,03,16,,,,,1.9,1.3,1.4*35
$GPGSV,3,1,11,16,65,272,47,21,63,060,41,18,48,123,46,27,43,295,42*73
$GPGSV,3,2,11,22,28,169,45,03,19,294,29,29,14,099,44,19,12,285,30*7B
$GPGSV,3,3,11,07,06,332,,15,05,073,20,26,02,041,*4E
$GPRMC,165652.000,A,4634.4357,N,01403.1138,E,0.09,53.15,060714,,*32
$GPVTG,53.15,T,,M,0.09,N,0.2,K*59
$GPGGA,165653.000,4634.4357,N,01403.1139,E,1,08,1.3,471.3,M,45.2,M,,0000*5A
$GPGSA,A,3,21,29,18,22,19,27,03,16,,,,,1.9,1.3,1.4*35
$GPRMC,165653.000,A,4634.4357,N,01403.1139,E,0.09,49.52,060714,,*3A
$GPVTG,49.52,T,,M,0.09,N,0.2,K*51
$GPGGA,165654.000,4634.4357,N,01403.1139,E,1,08,1.3,471.3,M,45.2,M,,0000*5D
$GPGSA,A,3,21,29,18,22,19,27,03,16,,,,,1.9,1.3,1.4*35
$GPRMC,165654.000,A,4634.4357,N,01403.1139,E,0.09,52.29,060714,,*3B
$GPVTG,52.29,T,,M,0.09,N,0.2,K*57
$GPGGA,165655.000,4634.4357,N,01403.1139,E,1,08,1.3,471.2,M,45.2,M,,0000*5D
$GPGSA,A,3,21,29,18,22,19,27,03,16,,,,,1.9,1.3,1.4*35
$GPRMC,165655.000,A,4634.4357,N,01403.1139,E,0.09,47.19,060714,,*3D
$GPVTG,47.19,T,,M,0.09,N,0.2,K*50
$GPGGA,165656.000,4634.4357,N,01403.1139,E,1,08,1.3,471.3,M,45.2,M,,0000*5F
$GPGSA,A,3,21,29,18,22,19,27,03,16,,,,,1.9,1.3,1.4*35
$GPRMC,165656.000,A,4634.4357,N,01403.1139,E,0.08,53.61,060714,,*35
$GPVTG,53.61,T,,M,0.08,N,0.2,K*5B
$GPGGA,165657.000,4634.4357,N,01403.1139,E,1,08,1.3,471.3,M,45.2,M,,0000*5E
$GPGSA,A,3,21,29,18,22,19,27,03,16,,,,,1.9,1.3,1.4*35
$GPGSV,3,1,11,16,65,272,47,21,63,060,42,18,48,122,46,27,43,295,42*71
$GPGSV,3,2,11,22,28,169,45,03,19,294,34,29,14,099,44,19,12,285,32*75
$GPGSV,3,3,11,07,06,332,,15,05,073,20,26,02,041,*4E
$GPRMC,165657.000,A,4634.4357,N,01403.1139,E,0.08,48.96,060714,,*36
$GPVTG,48.96,T,,M,0.08,N,0.1,K*5A
$GPGGA,165658.000,4634.4357,N,01403.1139,E,1,08,1.3,471.3,M,45.2,M,,0000*51
$GPGSA,A,3,21,29,18,22,19,27,03,16,,,,,1.9,1.3,1.4*35
$GPRMC,165658.000,A,4634.4357,N,01403.1139,E,0.09,51.45,060714,,*3E
$GPVTG,51.45,T,,M,0.09,N,0.2,K*5E
$GPGGA,165659.000,4634.4357,N,01403.1139,E,1,08,1.3,471.3,M,45.2,M,,0000*50
$GPGSA,A,3,21,29,18,22,19,27,03,16,,,,,1.9,1.3,1.4*35
$GPRMC,165659.000,A,4634.4357,N,01403.1139,E,0.10,50.21,060714,,*34
$GPVTG,50.21,T,,M,0.10,N,0.2,K*55
$GPGGA,165700.000,4634.4357,N,01403.1139,E,1,08,1.3,471.3,M,45.2,M,,0000*5D
$GPGSA,A,3,21,29,18,22,19,27,03,16,,,,,1.9,1.3,1.4*35
$GPRMC,165700.000,A,4634.4357,N,01403.1139,E,0.10,52.17,060714,,*3E
$GPVTG,52.17,T,,M,0.10,N,0.2,K*52
$GPGGA,165701.000,4634.4358,N,01403.1139,E,1,08,1.3,471.3,M,45.2,M,,0000*53
$GPGSA,A,3,21,29,18,22,19,27,03,16,,,,,1.9,1.3,1.4*35
$GPRMC,165701.000,A,4634.4358,N,01403.1139,E,0.08,56.42,060714,,*3D
$GPVTG,56.42,T,,M,0.08,N,0.2,K*5F
$GPGGA,165702.000,4634.4358,N,01403.1139,E,1,08,1.3,471.4,M,45.2,M,,0000*57
$GPGSA,A,3,21,29,18,22,19,27,03,16,,,,,1.9,1.3,1.4*35
$GPGSV,3,1,11,16,65,272,46,21,63,060,42,18,48,122,45,27,43,295,42*73
$GPGSV,3,2,11,22,28,169,46,03,19,294,33,29,14,099,44,19,12,285,32*71
$GPGSV,3,3,11,07,06,332,,15,05,073,22,26,02,041,*4C
$GPRMC,165702.000,A,4634.4358,N,01403.1139,E,0.09,53.67,060714,,*3D
$GPVTG,53.67,T,,M,0.09,N,0.2,K*5C
$GPGGA,165703.000,4634.4358,N,01403.1139,E,1,08,1.3,471.4,M,45.2,M,,0000*56
$GPGSA,A,3,21,29,18,22,19,27,03,16,,,,,1.9,1.3,1.4*35
$GPRMC,165703.000,A,4634.4358,N,01403.1139,E,0.09,52.35,060714,,*3A
$GPVTG,52.35,T,,M,0.09,N,0.2,K*5A
$GPGGA,165704.000,4634.4358,N,01403.1140,E,1,08,1.3,471.4,M,45.2,M,,0000*5F
$GPGSA,A,3,21,29,18,22,19,27,03,16,,,,,1.9,1.3,1.4*35
$GPRMC,165704.000,A,4634.4358,N,01403.1140,E,0.10,41.56,060714,,*3C
$GPVTG,41.56,T,,M,0.10,N,0.2,K*55
$GPGGA,165705.000,4634.4358,N,01403.1140,E,1,08,1.3,471.4,M,45.2,M,,0000*5E
$GPGSA,A,3,21,29,18,22,19,27,03,16,,,,,1.9,1.3,1.4*35
$GPRMC,165705.000,A,4634.4358,N,01403.1140,E,0.09,53.76,060714,,*34
$GPVTG,53.76,T,,M,0.09,N,0.2,K*5C
$GPGGA,165706.000,4634.4358,N,01403.1140,E,1,08,1.3,471.4,M,45.2,M,,0000*5D
$GPGSA,A,3,21,29,18,22,19,27,03,16,,,,,1.9,1.3,1.4*35
$GPRMC,165706.000,A,4634.4358,N,01403.1140,E,0.09,49.45,060714,,*3C
$GPVTG,49.45,T,,M,0.09,N,0.2,K*57
$GPGGA,165707.000,4634.4358,N,01403.1140,E,1,08,1.3,471.4,M,45.2,M,,0000*5C
$GPGSA,A,3,21,29,18,22,19,27,03,16,,,,,1.9,1.3,1.4*35
$GPGSV,3,1,11,16,65,272,46,21,63,060,42,18,48,122,45,27,43,295,43*72
$GPGSV,3,2,11,22,28,169,46,03,19,294,31,29,14,099,44,19,12,285,33*72
$GPGSV,3,3,11,07,06,332,,15,05,073,22,26,02,041,*4C
$GPRMC,165707.000,A,4634.4358,N,01403.1140,E,0.11,54.07,060714,,*3E
$GPVTG,54.07,T,,M,0.11,N,0.2,K*54
$GPGGA,165708.000,4634.4358,N,01403.1140,E,1,08,1.3,471.5,M,45.2,M,,0000*52
$GPGSA,A,3,21,29,18,22,19,27,03,16,,,,,1.9,1.3,1.4*35
$GPRMC,165708.000,A,4634.4358,N,01403.1140,E,0.09,46.41,060714,,*39
$GPVTG,46.41,T,,M,0.09,N,0.2,K*5C
$GPGGA,165709.000,4634.4358,N,01403.1140,E,1,08,1.3,471.5,M,45.2,M,,0000*53
$GPGSA,A,3,21,29,18,22,19,27,03,16,,,,,1.9,1.3,1.4*35
$GPRMC,165709.000,A,4634.4358,N,01403.1140,E,0.10,52.21,060714,,*33
$GPVTG,52.21,T,,M,0.10,N,0.2,K*57
$GPGGA,165710.000,4634.4358,N,01403.1140,E,1,08,1.3,471.5,M,45.2,M,,0000*5B
$GPGSA,A,3,21,29,18,22,19,27,03,16,,,,,1.9,1.3,1.4*35
$GPRMC,165710.000,A,4634.4358,N,01403.1140,E,0.09,47.23,060714,,*35
$GPVTG,47.23,T,,M,0.09,N,0.2,K*59
$GPGGA,165711.000,4634.4358,N,01403.1140,E,1,08,1.3,471.5,M,45.2,M,,0000*5A
$GPGSA,A,3,21,29,18,22,19,27,03,16,,,,,1.9,1.3,1.4*35
$GPRMC,165711.000,A,4634.4358,N,01403.1140,E,0.09,48.81,060714,,*33
$GPVTG,48.81,T,,M,0.09,N,0.2,K*5E
$GPGGA,165712.000,4634.4359,N,01403.1140,E,1,08,1.3,471.3,M,45.2,M,,0000*5E
$GPGSA,A,3,21,29,18,22,19,27,03,16,,,,,1.9,1.3,1.4*35
$GPGSV,3,1,11,16,65,272,46,21,63,060,42,18,48,122,45,27,43,295,42*73
$GPGSV,3,2,11,22,28,169,46,03,19,294,36,29,14,099,45,19,13,285,27*70
$GPGSV,3,3,11,07,06,332,,15,05,073,21,26,02,041,*4F
$GPRMC,165712.000,A,4634.4359,N,01403.1140,E,0.09,48.31,060714,,*3A
$GPVTG,48.31,T,,M,0.09,N,0.2,K*55
$GPGGA,165713.000,4634.4359,N,01403.1140,E,1,08,1.3,471.2,M,45.2,M,,0000*5E
$GPGSA,A,3,21,29,18,22,19,27,03,16,,,,,1.9,1.3,1.4*35
$GPRMC,165713.000,A,4634.4359,N,01403.1140,E,0.09,52.77,060714,,*32
$GPVTG,52.77,T,,M,0.09,N,0.2,K*5C
$GPGGA,165714.000,4634.4360,N,01403.1139,E,1,07,1.3,471.0,M,45.2,M,,0000*50
$GPGSA,A,3,21,29,18,22,27,03,16,,,,,,2.0,1.3,1.6*35
$GPRMC,165714.000,A,4634.4360,N,01403.1139,E,0.10,43.13,060714,,*3B
$GPVTG,43.13,T,,M,0.10,N,0.2,K*56
$GPGGA,165715.000,4634.4360,N,01403.1139,E,1,07,1.3,470.9,M,45.2,M,,0000*59
$GPGSA,A,3,21,29,18,22,27,03,16,,,,,,2.0,1.3,1.6*35
$GPRMC,165715.000,A,4634.4360,N,01403.1139,E,0.09,50.73,060714,,*36
$GPVTG,50.73,T,,M,0.09,N,0.2,K*5A
$GPGGA,165716.000,4634.4360,N,01403.1139,E,1,07,1.3,470.8,M,45.2,M,,0000*5B
$GPGSA,A,3,21,29,18,22,27,03,16,,,,,,2.0,1.3,1.6*35
$GPRMC,165716.000,A,4634.4360,N,01403.1139,E,0.09,48.91,060714,,*30
$GPVTG,48.91,T,,M,0.09,N,0.2,K*5F
$GPGGA,165717.000,4634.4360,N,01403.1139,E,1,07,1.3,470.6,M,45.2,M,,0000*54
$GPGSA,A,3,21,29,18,22,27,03,16,,,,,,2.0,1.3,1.6*35
$GPGSV,3,1,11,16,65,271,46,21,63,060,42,18,48,122,46,27,43,295,42*73
$GPGSV,3,2,11,22,28,169,46,03,19,294,36,29,14,099,45,19,13,285,*75
$GPGSV,3,3,11,07,06,332,19,15,05,073,12,26,02,041,*47
$GPRMC,165717.000,A,4634.4360,N,01403.1139,E,0.09,55.76,060714,,*34
$GPVTG,55.76,T,,M,0.09,N,0.2,K*5A
$GPGGA,165718.000,4634.4361,N,01403.1139,E,1,07,1.3,470.5,M,45.2,M,,0000*59
$GPGSA,A,3,21,29,18,22,27,03,16,,,,,,2.0,1.3,1.6*35
$GPRMC,165718.000,A,4634.4361,N,01403.1139,E,0.09,50.51,060714,,*3A
$GPVTG,50.51,T,,M,0.09,N,0.2,K*5A
$GPGGA,165719.000,4634.4361,N,01403.1138,E,1,07,1.3,470.4,M,45.2,M,,0000*58
$GPGSA,A,3,21,29,18,22,27,03,16,,,,,,2.0,1.3,1.6*35
$GPRMC,165719.000,A,4634.4361,N,01403.1138,E,0.08,52.49,060714,,*30
$GPVTG,52.49,T,,M,0.08,N,0.2,K*50
$GPGGA,165720.000,4634.4361,N,01403.1138,E,1,07,1.3,470.4,M,45.2,M,,0000*52
$GPGSA,A,3,21,29,18,22,27,03,16,,,,,,2.0,1.3,1.6*35
$GPRMC,165720.000,A,4634.4361,N,01403.1138,E,0.09,50.47,060714,,*37
$GPVTG,50.47,T,,M,0.09,N,0.2,K*5D
$GPGGA,165721.000,4634.4361,N,01403.1138,E,1,07,1.3,470.3,M,45.2,M,,0000*54
$GPGSA,A,3,21,29,18,22,27,03,16,,,,,,2.0,1.3,1.6*35
$GPRMC,165721.000,A,4634.4361,N,01403.1138,E,0.08,55.47,060714,,*32
$GPVTG,55.47,T,,M,0.08,N,0.2,K*59
$GPGGA,165722.000,4634.4361,N,01403.1138,E,1,07,1.3,470.2,M,45.2,M,,0000*56
$GPGSA,A,3,21,29,18,22,27,03,16,,,,,,2.0,1.3,1.6*35
$GPGSV,3,1,11,16,65,271,46,21,63,060,42,18,48,122,45,27,43,295,42*70
$GPGSV,3,2,11,22,28,169,47,03,19,294,36,29,14,099,45,19,13,285,*74
$GPGSV,3,3,11,07,06,332,19,15,05,073,14,26,02,041,*41
$GPRMC,165722.000,A,4634.4361,N,01403.1138,E,0.08,52.52,060714,,*32
$GPVTG,52.52,T,,M,0.08,N,0.2,K*5A
$GPGGA,165723.000,4634.4362,N,01403.1138,E,1,07,1.3,470.1,M,45.2,M,,0000*57
$GPGSA,A,3,21,29,18,22,27,03,16,,,,,,2.0,1.3,1.6*35
$GPRMC,165723.000,A,4634.4362,N,01403.1138,E,0.09,50.95,060714,,*38
$GPVTG,50.95,T,,M,0.09,N,0.2,K*52
$GPGGA,165724.000,4634.4362,N,01403.1138,E,1,07,1.3,470.1,M,45.2,M,,0000*50
$GPGSA,A,3,21,29,18,22,27,03,16,,,,,,2.0,1.3,1.6*35
$GPRMC,165724.000,A,4634.4362,N,01403.1138,E,0.08,52.93,060714,,*3A
$GPVTG,52.93,T,,M,0.08,N,0.2,K*57
$GPGGA,165725.000,4634.4362,N,01403.1138,E,1,07,1.3,470.0,M,45.2,M,,0000*50
$GPGSA,A,3,21,29,18,22,27,03,16,,,,,,2.0,1.3,1.6*35
$GPRMC,165725.000,A,4634.4362,N,01403.1138,E,0.08,51.98,060714,,*33
$GPVTG,51.98,T,,M,0.08,N,0.2,K*5F
$GPGGA,165726.000,4634.4362,N,01403.1138,E,1,07,1.3,469.9,M,45.2,M,,0000*52
$GPGSA,A,3,21,29,18,22,27,03,16,,,,,,2.0,1.3,1.6*35
$GPRMC,165726.000,A,4634.4362,N,01403.1138,E,0.09,48.84,060714,,*34
$GPVTG,48.84,T,,M,0.09,N,0.2,K*5B
$GPGGA,165727.000,4634.4362,N,01403.1138,E,1,07,1.3,469.9,M,45.2,M,,0000*53
$GPGSA,A,3,21,29,18,22,27,03,16,,,,,,2.0,1.3,1.6*35
$GPGSV,3,1,11,16,65,271,46,21,63,060,42,18,48,122,46,27,43,295,42*73
$GPGSV,3,2,11,22,28,169,47,03,19,294,36,29,14,099,45,19,13,285,*74
$GPGSV,3,3,11,07,06,332,21,15,05,073,13,26,02,041,*4D
$GPRMC,165727.000,A,4634.4362,N,01403.1138,E,0.09,54.35,060714,,*32
$GPVTG,54.35,T,,M,0.09,N,0.2,K*5C
$GPGGA,165728.000,4634.4362,N,01403.1137,E,1,07,1.3,469.9,M,45.2,M,,0000*53
$GPGSA,A,3,21,29,18,22,27,03,16,,,,,,2.0,1.3,1.6*35
$GPRMC,165728.000,A,4634.4362,N,01403.1137,E,0.09,50.17,060714,,*36
$GPVTG,50.17,T,,M,0.09,N,0.2,K*58
$GPGGA,165729.000,4634.4362,N,01403.1137,E,1,07,1.3,469.8,M,45.2,M,,0000*53
$GPGSA,A,3,21,29,18,22,27,03,16,,,,,,2.0,1.3,1.6*35
$GPRMC,165729.000,A,4634.4362,N,01403.1137,E,0.08,54.33,060714,,*34
$GPVTG,54.33,T,,M,0.08,N,0.1,K*58
$GPGGA,165730.000,4634.4362,N,01403.1137,E,1,07,1.3,469.8,M,45.2,M,,0000*5B
$GPGSA,A,3,21,29,18,22,27,03,16,,,,,,2.0,1.3,1.6*35
$GPRMC,165730.000,A,4634.4362,N,01403.1137,E,0.09,48.96,060714,,*3F
$GPVTG,48.96,T,,M,0.09,N,0.2,K*58
$GPGGA,165731.000,4634.4362,N,01403.1137,E,1,07,1.3,469.8,M,45.2,M,,0000*5A
$GPGSA,A,3,21,29,18,22,27,03,16,,,,,,2.0,1.3,1.6*35
$GPRMC,165731.000,A,4634.4362,N,01403.1137,E,0.09,50.93,060714,,*32
$GPVTG,50.93,T,,M,0.09,N,0.2,K*54
$GPGGA,165732.000,4634.4363,N,01403.1137,E,1,07,1.3,469.7,M,45.2,M,,0000*57
$GPGSA,A,3,21,29,18,22,27,03,16,,,,,,2.0,1.3,1.6*35
$GPGSV,3,1,11,16,65,271,46,21,63,060,42,18,48,122,46,27,43,295,42*73
$GPGSV,3,2,11,22,28,169,46,03,19,294,36,29,14,099,45,19,13,285,*75
$GPGSV,3,3,11,07,06,332,22,15,05,073,,26,02,041,*4C
$GPRMC,165732.000,A,4634.4363,N,01403.1137,E,0.08,50.63,060714,,*3E
$GPVTG,50.63,T,,M,0.08,N,0.2,K*5A
$GPGGA,165733.000,4634.4363,N,01403.1137,E,1,07,1.3,469.7,M,45.2,M,,0000*56
$GPGSA,A,3,21,29,18,22,27,03,16,,,,,,2.0,1.3,1.6*35
$GPRMC,165733.000,A,4634.4363,N,01403.1137,E,0.09,52.82,060714,,*33
$GPVTG,52.82,T,,M,0.09,N,0.2,K*56
$GPGGA,165734.000,4634.4363,N,01403.1137,E,1,07,1.3,469.7,M,45.2,M,,0000*51
$GPGSA,A,3,21,29,18,22,27,03,16,,,,,,2.0,1.3,1.6*35
$GPRMC,165734.000,A,4634.4363,N,01403.1137,E,0.09,48.66,060714,,*35
$GPVTG,48.66,T,,M,0.09,N,0.2,K*57
$GPGGA,165735.000,4634.4363,N,01403.1137,E,1,08,1.3,469.7,M,45.2,M,,0000*5F
$GPGSA,A,3,19,21,29,18,22,27,03,16,,,,,1.9,1.3,1.4*35
$GPRMC,165735.000,A,4634.4363,N,01403.1137,E,0.10,59.07,060714,,*3B
$GPVTG,59.07,T,,M,0.10,N,0.2,K*58
$GPGGA,165736.000,4634.4363,N,01403.1137,E,1,08,1.3,469.7,M,45.2,M,,0000*5C
$GPGSA,A,3,19,21,29,18,22,27,03,16,,,,,1.9,1.3,1.4*35
$GPRMC,165736.000,A,4634.4363,N,01403.1137,E,0.08,50.70,060714,,*38
$GPVTG,50.70,T,,M,0.08,N,0.2,K*58
$GPGGA,165737.000,4634.4363,N,01403.1137,E,1,08,1.3,469.7,M,45.2,M,,0000*5D
$GPGSA,A,3,19,21,29,18,22,27,03,16,,,,,1.9,1.3,1.4*35
$GPGSV,3,1,11,16,65,271,46,21,63,060,42,18,48,122,46,27,43,295,42*73
$GPGSV,3,2,11,22,28,169,46,03,19,294,36,29,14,099,45,19,13,285,28*7F
$GPGSV,3,3,11,07,06,332,23,15,05,073,,26,02,041,*4D
$GPRMC,165737.000,A,4634.4363,N,01403.1137,E,0.09,52.76,060714,,*3C
$GPVTG,52.76,T,,M,0.09,N,0.2,K*5D
$GPGGA,165738.000,4634.4363,N,01403.1137,E,1,08,1.3,469.7,M,45.2,M,,0000*52
$GPGSA,A,3,19,21,29,18,22,27,03,16,,,,,1.9,1.3,1.4*35
$GPRMC,165738.000,A,4634.4363,N,01403.1137,E,0.09,50.86,060714,,*3E
$GPVTG,50.86,T,,M,0.09,N,0.2,K*50
$GPGGA,165739.000,4634.4363,N,01403.1137,E,1,08,1.3,469.6,M,45.2,M,,0000*52
$GPGSA,A,3,19,21,29,18,22,27,03,16,,,,,1.9,1.3,1.4*35
$GPRMC,165739.000,A,4634.4363,N,01403.1137,E,0.08,51.09,060714,,*38
$GPVTG,51.09,T,,M,0.08,N,0.1,K*54
$GPGGA,165740.000,4634.4363,N,01403.1137,E,1,08,1.3,469.6,M,45.2,M,,0000*5C
$GPGSA,A,3,19,21,29,18,22,27,03,16,,,,,1.9,1.3,1.4*35
$GPRMC,165740.000,A,4634.4363,N,01403.1137,E,0.10,52.61,060714,,*32
$GPVTG,52.61,T,,M,0.10,N,0.2,K*53
$GPGGA,165741.000,4634.4363,N,01403.1137,E,1,08,1.3,469.6,M,45.2,M,,0000*5D
$GPGSA,A,3,19,21,29,18,22,27,03,16,,,,,1.9,1.3,1.4*35
$GPRMC,165741.000,A,4634.4363,N,01403.1137,E,0.09,52.70,060714,,*3B
$GPVTG,52.70,T,,M,0.09,N,0.2,K*5B
$GPGGA,165742.000,4634.4363,N,01403.1137,E,1,08,1.3,469.6,M,45.2,M,,0000*5E
$GPGSA,A,3,19,21,29,18,22,27,03,16,,,,,1.9,1.3,1.4*35
$GPGSV,3,1,11,16,65,271,47,21,63,060,42,18,48,122,46,27,43,295,42*72
$GPGSV,3,2,11,22,28,169,46,03,19,294,36,29,14,099,45,19,13,285,28*7F
$GPGSV,3,3,11,07,06,332,22,15,05,073,,26,02,041,*4C
$GPRMC,165742.000,A,4634.4363,N,01403.1137,E,0.09,52.52,060714,,*38
$GPVTG,52.52,T,,M,0.09,N,0.2,K*5B
$GPGGA,165743.000,4634.4363,N,01403.1137,E,1,08,1.3,469.6,M,45.2,M,,0000*5F
$GPGSA,A,3,19,21,29,18,22,27,03,16,,,,,1.9,1.3,1.4*35
$GPRMC,165743.000,A,4634.4363,N,01403.1137,E,0.10,44.20,060714,,*33
$GPVTG,44.20,T,,M,0.10,N,0.2,K*51
$GPGGA,165744.000,4634.4363,N,01403.1137,E,1,08,1.3,469.7,M,45.2,M,,0000*59
$GPGSA,A,3,19,21,29,18,22,27,03,16,,,,,1.9,1.3,1.4*35
$GPRMC,165744.000,A,4634.4363,N,01403.1137,E,0.09,58.50,060714,,*36
$GPVTG,58.50,T,,M,0.09,N,0.2,K*53
$GPGGA,165745.000,4634.4363,N,01403.1137,E,1,08,1.3,469.7,M,45.2,M,,0000*58
$GPGSA,A,3,19,21,29,18,22,27,03,16,,,,,1.9,1.3,1.4*35
$GPRMC,165745.000,A,4634.4363,N,01403.1137,E,0.09,54.02,060714,,*3C
$GPVTG,54.02,T,,M,0.09,N,0.2,K*58
$GPGGA,165746.000,4634.4363,N,01403.1137,E,1,08,1.3,469.7,M,45.2,M,,0000*5B
$GPGSA,A,3,19,21,29,18,22,27,03,16,,,,,1.9,1.3,1.4*35
$GPRMC,165746.000,A,4634.4363,N,01403.1137,E,0.09,53.92,060714,,*31
$GPVTG,53.92,T,,M,0.09,N,0.2,K*56
$GPGGA,165747.000,4634.4363,N,01403.1137,E,1,08,1.3,469.7,M,45.2,M,,0000*5A
$GPGSA,A,3,19,21,29,18,22,27,03,16,,,,,1.9,1.3,1.4*35
$GPGSV,3,1,11,16,65,271,47,21,63,060,42,18,48,122,46,27,43,295,42*72
$GPGSV,3,2,11,22,28,169,46,03,19,294,36,29,14,099,45,19,13,285,28*7F
$GPGSV,3,3,11,07,06,332,21,15,05,073,,26,02,041,*4F
$GPRMC,165747.000,A,4634.4363,N,01403.1137,E,0.09,53.81,060714,,*32
$GPVTG,53.81,T,,M,0.09,N,0.2,K*54
$GPGGA,165748.000,4634.4363,N,01403.1137,E,1,08,1.3,469.7,M,45.2,M,,0000*55
$GPGSA,A,3,19,21,29,18,22,27,03,16,,,,,1.9,1.3,1.4*35
$GPRMC,165748.000,A,4634.4363,N,01403.1137,E,0.09,47.83,060714,,*3A
$GPVTG,47.83,T,,M,0.09,N,0.2,K*53
$GPGGA,165749.000,4634.4363,N,01403.1137,E,1,08,1.3,469.7,M,45.2,M,,0000*54
$GPGSA,A,3,19,21,29,18,22,27,03,16,,,,,1.9,1.3,1.4*35
$GPRMC,165749.000,A,4634.4363,N,01403.1137,E,0.09,50.82,060714,,*3C
$GPVTG,50.82,T,,M,0.09,N,0.2,K*54
$GPGGA,165750.000,4634.4363,N,01403.1137,E,1,08,1.3,469.7,M,45.2,M,,0000*5C
$GPGSA,A,3,19,21,29,18,22,27,03,16,,,,,1.9,1.3,1.4*35
$GPRMC,165750.000,A,4634.4363,N,01403.1137,E,0.10,50.63,060714,,*33
$GPVTG,50.63,T,,M,0.10,N,0.2,K*53
$GPGGA,165751.000,4634.4363,N,01403.1137,E,1,08,1.3,469.7,M,45.2,M,,0000*5D
$GPGSA,A,3,19,21,29,18,22,27,03,16,,,,,1.9,1.3,1.4*35
$GPRMC,165751.000,A,4634.4363,N,01403.1137,E,0.09,52.42,060714,,*3B
$GPVTG,52.42,T,,M,0.09,N,0.2,K*5A
$GPGGA,165752.000,4634.4363,N,01403.1137,E,1,08,1.3,469.8,M,45.2,M,,0000*51
$GPGSA,A,3,19,21,29,18,22,27,03,16,,,,,1.9,1.3,1.4*35
$GPGSV,3,1,11,16,65,271,47,21,63,060,41,18,48,122,46,27,43,295,42*71
$GPGSV,3,2,11,22,28,169,46,03,19,294,36,29,14,099,45,19,13,285,29*7E
$GPGSV,3,3,11,07,06,332,21,15,05,073,22,26,02,041,*4F
$GPRMC,165752.000,A,4634.4363,N,01403.1137,E,0.09,49.96,060714,,*3B
$GPVTG,49.96,T,,M,0.09,N,0.2,K*59
$GPGGA,165753.000,4634.4363,N,01403.1137,E,1,08,1.3,469.8,M,45.2,M,,0000*50
$GPGSA,A,3,19,21,29,18,22,27,03,16,,,,,1.9,1.3,1.4*35
$GPRMC,165753.000,A,4634.4363,N,01403.1137,E,0.10,54.68,060714,,*3F
$GPVTG,54.68,T,,M,0.10,N,0.2,K*5C
$GPGGA,165754.000,4634.4363,N,01403.1137,E,1,08,1.3,469.8,M,45.2,M,,0000*57
$GPGSA,A,3,19,21,29,18,22,27,03,16,,,,,1.9,1.3,1.4*35
$GPRMC,165754.000,A,4634.4363,N,01403.1137,E,0.09,49.11,060714,,*32
$GPVTG,49.11,T,,M,0.09,N,0.2,K*56
$GPGGA,165755.000,4634.4363,N,01403.1137,E,1,08,1.3,469.8,M,45.2,M,,0000*56
$GPGSA,A,3,19,21,29,18,22,27,03,16,,,,,1.9,1.3,1.4*35
$GPRMC,165755.000,A,4634.4363,N,01403.1137,E,0.09,52.97,060714,,*37
$GPVTG,52.97,T,,M,0.09,N,0.2,K*52
$GPGGA,165756.000,4634.4363,N,01403.1137,E,1,08,1.3,469.8,M,45.2,M,,0000*55
$GPGSA,A,3,19,21,29,18,22,27,03,16,,,,,1.9,1.3,1.4*35
$GPRMC,165756.000,A,4634.4363,N,01403.1137,E,0.09,49.94,060714,,*3D
$GPVTG,49.94,T,,M,0.09,N,0.2,K*5B
$GPGGA,165757.000,4634.4363,N,01403.1137,E,1,08,1.3,469.8,M,45.2,M,,0000*54
$GPGSA,A,3,19,21,29,18,22,27,03,16,,,,,1.9,1.3,1.4*35
$GPGSV,3,1,11,16,65,271,47,21,63,060,41,18,48,122,46,27,43,295,41*72
$GPGSV,3,2,11,22,28,169,46,03,19,294,36,29,14,099,45,19,13,285,29*7E
$GPGSV,3,3,11,07,06,332,21,15,05,073,21,26,02,041,*4C
$GPRMC,165757.000,A,4634.4363,N,01403.1137,E,0.08,56.17,060714,,*38
$GPVTG,56.17,T,,M,0.08,N,0.1,K*5C
$GPGGA,165758.000,4634.4363,N,01403.1137,E,1,08,1.3,469.9,M,45.2,M,,0000*5A
$GPGSA,A,3,19,21,29,18,22,27,03,16,,,,,1.9,1.3,1.4*35
$GPRMC,165758.000,A,4634.4363,N,01403.1137,E,0.10,50.09,060714,,*37
$GPVTG,50.09,T,,M,0.10,N,0.2,K*5F
$GPGGA,165759.000,4634.4363,N,01403.1137,E,1,08,1.3,469.9,M,45.2,M,,0000*5B
$GPGSA,A,3,19,21,29,18,22,27,03,16,,,,,1.9,1.3,1.4*35
$GPRMC,165759.000,A,4634.4363,N,01403.1137,E,0.09,53.03,060714,,*37
$GPVTG,53.03,T,,M,0.09,N,0.2,K*5E
$GPGGA,165800.000,4634.4363,N,01403.1137,E,1,08,1.3,469.9,M,45.2,M,,0000*58
$GPGSA,A,3,19,21,29,18,22,27,03,16,,,,,1.9,1.3,1.4*35
$GPRMC,165800.000,A,4634.4363,N,01403.1137,E,0.09,48.07,060714,,*3A
$GPVTG,48.07,T,,M,0.09,N,0.2,K*50
$GPGGA,165801.000,4634.4363,N,01403.1137,E,1,08,1.3,469.9,M,45.2,M,,0000*59
$GPGSA,A,3,19,21,29,18,22,27,03,16,,,,,1.9,1.3,1.4*35
$GPRMC,165801.000,A,4634.4363,N,01403.1137,E,0.09,51.37,060714,,*30
$GPVTG,51.37,T,,M,0.09,N,0.2,K*5B
$GPGGA,165802.000,4634.4363,N,01403.1137,E,1,08,1.3,469.9,M,45.2,M,,0000*5A
$GPGSA,A,3,19,21,29,18,22,27,03,16,,,,,1.9,1.3,1.4*35
$GPGSV,3,1,11,16,65,271,47,21,63,060,41,18,48,122,46,27,43,295,41*72
$GPGSV,3,2,11,22,28,169,46,03,19,294,36,29,14,099,45,19,13,285,29*7E
$GPGSV,3,3,11,07,06,332,20,15,05,073,20,26,02,041,*4C
$GPRMC,165802.000,A,4634.4363,N,01403.1137,E,0.10,51.52,060714,,*38
$GPVTG,51.52,T,,M,0.10,N,0.2,K*50
$GPGGA,165803.000,4634.4363,N,01403.1137,E,1,08,1.3,469.9,M,45.2,M,,0000*5B
$GPGSA,A,3,19,21,29,18,22,27,03,16,,,,,1.9,1.3,1.4*35
$GPRMC,165803.000,A,4634.4363,N,01403.1137,E,0.08,50.00,060714,,*36
$GPVTG,50.00,T,,M,0.08,N,0.2,K*5F
$GPGGA,165804.000,4634.4363,N,01403.1137,E,1,08,1.3,469.9,M,45.2,M,,0000*5C
$GPGSA,A,3,19,21,29,18,22,27,03,16,,,,,1.9,1.3,1.4*35
$GPRMC,165804.000,A,4634.4363,N,01403.1137,E,0.10,52.80,060714,,*32
$GPVTG,52.80,T,,M,0.10,N,0.2,K*5C
$GPGGA,165805.000,4634.4363,N,01403.1137,E,1,08,1.3,470.0,M,45.2,M,,0000*5C
$GPGSA,A,3,19,21,29,18,22,27,03,16,,,,,1.9,1.3,1.4*35
$GPRMC,165805.000,A,4634.4363,N,01403.1137,E,0.10,51.35,060714,,*3E
$GPVTG,51.35,T,,M,0.10,N,0.2,K*51
$GPGGA,165806.000,4634.4363,N,01403.1137,E,1,08,1.3,470.0,M,45.2,M,,0000*5F
$GPGSA,A,3,19,21,29,18,22,27,03,16,,,,,1.9,1.3,1.4*35
$GPRMC,165806.000,A,4634.4363,N,01403.1137,E,0.09,52.35,060714,,*36
$GPVTG,52.35,T,,M,0.09,N,0.2,K*5A
$GPGGA,165807.000,4634.4363,N,01403.1137,E,1,08,1.3,470.0,M,45.2,M,,0000*5E
$GPGSA,A,3,19,21,29,18,22,27,03,16,,,,,1.9,1.3,1.4*35
$GPGSV,3,1,11,16,65,271,47,21,63,060,41,18,48,122,46,27,43,295,42*71
$GPGSV,3,2,11,22,28,169,46,03,19,294,36,29,14,099,44,19,13,285,29*7F
$GPGSV,3,3,11,07,06,332,12,15,05,073,13,26,02,041,*4D
$GPRMC,165807.000,A,4634.4363,N,01403.1137,E,0.10,46.12,060714,,*3F
$GPVTG,46.12,T,,M,0.10,N,0.2,K*52
$GPGGA,165808.000,4634.4363,N,01403.1137,E,1,08,1.3,470.0,M,45.2,M,,0000*51
$GPGSA,A,3,19,21,29,18,22,27,03,16,,,,,1.9,1.3,1.4*35
$GPRMC,165808.000,A,4634.4363,N,01403.1137,E,0.09,54.11,060714,,*38
$GPVTG,54.11,T,,M,0.09,N,0.2,K*5A
$GPGGA,165809.000,4634.4363,N,01403.1137,E,1,08,1.3,470.0,M,45.2,M,,0000*50
$GPGSA,A,3,19,21,29,18,22,27,03,16,,,,,1.9,1.3,1.4*35
$GPRMC,165809.000,A,4634.4363,N,01403.1137,E,0.09,46.85,060714,,*37
$GPVTG,46.85,T,,M,0.09,N,0.2,K*54
