$GPSSETUP,2F5A,2,1,1,0,2,1,0,0,8,0,0,0,0,0,0,0,17,12C,78,3E8,1D6,1F4,64,7C,64,7D0,0,0,0,0,0,0,0,0,0,0,10,10,10,10,10,10,10,10,10,10,10,10,10,10,0,0,6C,1,0,0,0,0,0,0,0,0,0,0,0,0,0,0,0,0,0,0,0,0,0,0,0,0,0,0,0,0,0,0,0,0,0,0,0,0,0,0,0,0,810D*03
$GPRMC,130746.000,A,4838.3220,N,00859.0303,E,7.15,200.27,090313,,,A*65
$GPGGA,130746.000,4838.3220,N,00859.0303,E,1,7,1.66,497.7,M,48.0,M,,*5C
$GPGSA,A,3,10,08,05,02,26,28,04,,,,,,1.87,1.66,0.87*06
$GPVTG,200.27,T,,M,0.77,N,1.43,K,A*3C
$SMGPS,0.0 m,+3.66 m/s,5.66 VRx,0.00 km,0 m,270.0 °,1:-- (  0.0 km/h)*EE
$GPRMC,130746.500,A,4838.3222,N,00859.0305,E,3.49,200.27,090313,,,A*69
$GPGGA,130746.500,4838.3222,N,00859.0305,E,1,7,1.66,497.9,M,48.0,M,,*53
$GPGSA,A,3,10,08,05,02,26,28,04,,,,,,1.87,1.66,0.87*06
$GPVTG,200.27,T,,M,0.67,N,1.24,K,A*3C
$SMGPS,0.2 m,+1.76 m/s,5.67 VRx,0.00 km,1 m,186.3 °,1:-- (  0.0 km/h)*E6
$GPRMC,130747.000,A,4838.3222,N,00859.0306,E,1.12,200.27,090313,,,A*62
$GPGGA,130747.000,4838.3222,N,00859.0306,E,1,7,1.66,497.6,M,48.0,M,,*5B
$GPGSA,A,3,10,08,05,02,26,28,04,,,,,,1.87,1.66,0.87*06
$GPVTG,200.27,T,,M,0.54,N,1.01,K,A*3B
$SMGPS,-0.1 m,+0.50 m/s,5.67 VRx,0.00 km,0 m,90.0 °,1:-- (  0.0 km/h)*F9
$GPRMC,130747.500,A,4838.3222,N,00859.0304,E,0.45,200.27,090313,,,A*66
$GPGGA,130747.500,4838.3222,N,00859.0304,E,1,7,1.66,497.4,M,48.0,M,,*5E
$GPGSA,A,3,10,08,05,02,26,28,04,,,,,,1.87,1.66,0.87*06
$GPVTG,200.27,T,,M,0.44,N,0.81,K,A*33
$SMGPS,-0.3 m,-0.05 m/s,5.67 VRx,0.00 km,0 m,90.0 °,1:-- (  0.0 km/h)*FD
$GPRMC,130748.000,A,4838.3224,N,00859.0306,E,0.36,200.27,090313,,,A*6C
$GPGGA,130748.000,4838.3224,N,00859.0306,E,1,7,1.66,497.3,M,48.0,M,,*57
$GPGSA,A,3,10,08,05,02,26,28,04,,,,,,1.87,1.66,0.87*06
$GPVTG,200.27,T,,M,0.33,N,0.61,K,A*3D
$SMGPS,-0.4 m,-0.07 m/s,5.67 VRx,0.00 km,0 m,0.0 °,1:-- (  0.0 km/h)*C1
$GPRMC,130748.500,A,4838.3224,N,00859.0305,E,0.31,200.27,090313,,,A*6D
$GPGGA,130748.500,4838.3224,N,00859.0305,E,1,7,1.66,497.4,M,48.0,M,,*56
$GPGSA,A,3,10,08,05,02,26,28,04,,,,,,1.87,1.66,0.87*06
$GPVTG,200.27,T,,M,0.29,N,0.54,K,A*30
$SMGPS,-0.3 m,+0.05 m/s,5.67 VRx,0.00 km,0 m,90.0 °,1:-- (  0.0 km/h)*FB
$GPRMC,130749.000,A,4838.3227,N,00859.0306,E,0.33,200.27,090313,,,A*6B
$GPGGA,130749.000,4838.3227,N,00859.0306,E,1,7,1.66,497.5,M,48.0,M,,*53
$GPGSA,A,3,10,08,05,02,26,28,04,,,,,,1.87,1.66,0.87*06
$GPVTG,200.27,T,,M,0.22,N,0.41,K,A*3F
$SMGPS,-0.2 m,+0.13 m/s,5.63 VRx,0.00 km,0 m,90.0 °,1:-- (  0.0 km/h)*F9
$GPRMC,130749.500,A,4838.3228,N,00859.0307,E,0.37,200.27,090313,,,A*64
$GPGGA,130749.500,4838.3228,N,00859.0307,E,1,7,1.66,497.3,M,48.0,M,,*5E
$GPGSA,A,3,10,08,05,02,26,28,04,,,,,,1.87,1.66,0.87*06
$GPVTG,200.27,T,,M,0.21,N,0.39,K,A*33
$SMGPS,-0.4 m,-0.16 m/s,5.55 VRx,0.00 km,1 m,13.9 °,1:-- (  0.0 km/h)*FA
$GPRMC,130750.000,A,4838.3228,N,00859.0306,E,0.42,200.27,090313,,,A*6A
$GPGGA,130750.000,4838.3228,N,00859.0306,E,1,7,1.66,497.2,M,48.0,M,,*53
$GPGSA,A,3,10,08,05,02,26,28,04,,,,,,1.87,1.66,0.87*06
$GPVTG,200.27,T,,M,0.09,N,0.17,K,A*35
$SMGPS,-0.5 m,-0.21 m/s,5.65 VRx,0.00 km,1 m,22.4 °,1:-- (  0.0 km/h)*F3
$GPRMC,130750.500,A,4838.3227,N,00859.0305,E,0.20,200.27,090313,,,A*67
$GPGGA,130750.500,4838.3227,N,00859.0305,E,1,7,1.66,497.2,M,48.0,M,,*5A
$GPGSA,A,3,10,08,05,02,26,28,04,,,,,,1.87,1.66,0.87*06
$GPVTG,200.27,T,,M,0.16,N,0.31,K,A*3F
$SMGPS,-0.5 m,-0.06 m/s,5.53 VRx,0.00 km,1 m,13.9 °,1:-- (  0.0 km/h)*FC
$GPRMC,130751.000,A,4838.3227,N,00859.0304,E,0.22,200.27,090313,,,A*60
$GPGGA,130751.000,4838.3227,N,00859.0304,E,1,7,1.66,497.3,M,48.0,M,,*5E
$GPGSA,A,3,10,08,05,02,26,28,04,,,,,,1.87,1.66,0.87*06
$GPVTG,200.27,T,,M,0.11,N,0.20,K,A*38
$SMGPS,-0.4 m,+0.10 m/s,5.67 VRx,0.00 km,1 m,9.4 °,1:-- (  0.0 km/h)*CD
$GPRMC,130751.500,A,4838.3226,N,00859.0304,E,0.11,200.27,090313,,,A*64
$GPGGA,130751.500,4838.3226,N,00859.0304,E,1,7,1.66,497.3,M,48.0,M,,*5A
$GPGSA,A,3,10,08,05,02,26,28,04,,,,,,1.87,1.66,0.87*06
$GPVTG,200.27,T,,M,0.11,N,0.21,K,A*39
$SMGPS,-0.4 m,+0.01 m/s,5.67 VRx,0.00 km,1 m,0.0 °,1:-- (  0.0 km/h)*C0
$GPRMC,130752.000,A,4838.3226,N,00859.0303,E,0.29,200.27,090313,,,A*6E
$GPGGA,130752.000,4838.3226,N,00859.0303,E,1,7,1.66,497.1,M,48.0,M,,*59
$GPGSA,A,3,10,08,05,02,26,28,04,,,,,,1.87,1.66,0.87*06
$GPVTG,200.27,T,,M,0.02,N,0.04,K,A*3C
$SMGPS,-0.6 m,-0.15 m/s,5.67 VRx,0.00 km,1 m,0.0 °,1:-- (  0.0 km/h)*C1
$GPRMC,130752.500,A,4838.3226,N,00859.0303,E,0.11,200.27,090313,,,A*60
$GPGGA,130752.500,4838.3226,N,00859.0303,E,1,7,1.66,497.1,M,48.0,M,,*5C
$GPGSA,A,3,10,08,05,02,26,28,04,,,,,,1.87,1.66,0.87*06
$GPVTG,200.27,T,,M,0.03,N,0.06,K,A*3F
$SMGPS,-0.6 m,-0.06 m/s,5.67 VRx,0.00 km,1 m,350.6 °,1:-- (  0.0 km/h)*C3
$GPRMC,130753.000,A,4838.3226,N,00859.0302,E,0.14,200.27,090313,,,A*60
$GPGGA,130753.000,4838.3226,N,00859.0302,E,1,7,1.66,497.2,M,48.0,M,,*5A
$GPGSA,A,3,10,08,05,02,26,28,04,,,,,,1.87,1.66,0.87*06
$GPVTG,200.27,T,,M,0.05,N,0.09,K,A*36
$SMGPS,-0.5 m,+0.07 m/s,5.67 VRx,0.00 km,1 m,350.6 °,1:-- (  0.0 km/h)*C7
$GPRMC,130753.500,A,4838.3225,N,00859.0302,E,0.10,200.27,090313,,,A*62
$GPGGA,130753.500,4838.3225,N,00859.0302,E,1,7,1.66,497.1,M,48.0,M,,*5F
$GPGSA,A,3,10,08,05,02,26,28,04,,,,,,1.87,1.66,0.87*06
$GPVTG,200.27,T,,M,0.03,N,0.05,K,A*3C
$SMGPS,-0.6 m,-0.05 m/s,5.67 VRx,0.00 km,1 m,346.1 °,1:-- (  0.0 km/h)*C0
$GPRMC,130754.000,A,4838.3224,N,00859.0301,E,0.38,200.27,090313,,,A*68
$GPGGA,130754.000,4838.3224,N,00859.0301,E,1,7,1.66,497.3,M,48.0,M,,*5D
$GPGSA,A,3,10,08,05,02,26,28,04,,,,,,1.87,1.66,0.87*06
$GPVTG,200.27,T,,M,0.05,N,0.09,K,A*36
$SMGPS,-0.4 m,+0.20 m/s,5.63 VRx,0.00 km,1 m,270.0 °,1:-- (  0.0 km/h)*C2
$GPRMC,130754.500,A,4838.3223,N,00859.0301,E,0.12,200.27,090313,,,A*62
$GPGGA,130754.500,4838.3223,N,00859.0301,E,1,7,1.66,497.2,M,48.0,M,,*5E
$GPGSA,A,3,10,08,05,02,26,28,04,,,,,,1.87,1.66,0.87*06
$GPVTG,200.27,T,,M,0.03,N,0.05,K,A*3C
$SMGPS,-0.5 m,-0.06 m/s,5.61 VRx,0.00 km,1 m,270.0 °,1:-- (  0.0 km/h)*C3
$GPRMC,130755.000,A,4838.3223,N,00859.0302,E,0.42,200.27,090313,,,A*60
$GPGGA,130755.000,4838.3223,N,00859.0302,E,1,7,1.66,497.0,M,48.0,M,,*5B
$GPGSA,A,3,10,08,05,02,26,28,04,,,,,,1.87,1.66,0.87*06
$GPVTG,200.27,T,,M,0.03,N,0.06,K,A*3F
$SMGPS,-0.7 m,-0.22 m/s,5.67 VRx,0.00 km,1 m,270.0 °,1:-- (  0.0 km/h)*C1
$GPRMC,130755.500,A,4838.3222,N,00859.0303,E,0.27,200.27,090313,,,A*66
$GPGGA,130755.500,4838.3222,N,00859.0303,E,1,7,1.66,497.0,M,48.0,M,,*5E
$GPGSA,A,3,10,08,05,02,26,28,04,,,,,,1.87,1.66,0.87*06
$GPVTG,200.27,T,,M,0.06,N,0.12,K,A*3F
$SMGPS,-0.7 m,-0.14 m/s,5.67 VRx,0.00 km,1 m,270.0 °,1:-- (  0.0 km/h)*C4
$GPRMC,130756.000,A,4838.3222,N,00859.0303,E,0.36,200.27,090313,,,A*60
$GPGGA,130756.000,4838.3222,N,00859.0303,E,1,7,1.66,497.2,M,48.0,M,,*5A
$GPGSA,A,3,10,08,05,02,26,28,04,,,,,,1.87,1.66,0.87*06
$GPVTG,200.27,T,,M,0.09,N,0.17,K,A*35
$SMGPS,-0.5 m,+0.18 m/s,5.67 VRx,0.00 km,1 m,270.0 °,1:-- (  0.0 km/h)*CC
$GPRMC,130756.500,A,4838.3224,N,00859.0304,E,0.06,200.27,090313,,,A*67
$GPGGA,130756.500,4838.3224,N,00859.0304,E,1,7,1.66,497.1,M,48.0,M,,*5D
$GPGSA,A,3,10,08,05,02,26,28,04,,,,,,1.87,1.66,0.87*06
$GPVTG,200.27,T,,M,0.05,N,0.08,K,A*37
$SMGPS,-0.6 m,+0.02 m/s,5.67 VRx,0.00 km,1 m,270.0 °,1:-- (  0.0 km/h)*C4
$GPRMC,130757.000,A,4838.3224,N,00859.0304,E,0.30,200.27,090313,,,A*66
$GPGGA,130757.000,4838.3224,N,00859.0304,E,1,7,1.66,497.2,M,48.0,M,,*5A
$GPGSA,A,3,10,08,05,02,26,28,04,,,,,,1.87,1.66,0.87*06
$GPVTG,200.27,T,,M,0.08,N,0.15,K,A*36
$SMGPS,-0.5 m,+0.15 m/s,5.67 VRx,0.00 km,1 m,0.0 °,1:-- (  0.0 km/h)*C4
$GPRMC,130757.500,A,4838.3224,N,00859.0304,E,0.12,200.27,090313,,,A*63
$GPGGA,130757.500,4838.3224,N,00859.0304,E,1,7,1.66,497.3,M,48.0,M,,*5E
$GPGSA,A,3,10,08,05,02,26,28,04,,,,,,1.87,1.66,0.87*06
$GPVTG,200.27,T,,M,0.06,N,0.11,K,A*3C
$SMGPS,-0.4 m,+0.06 m/s,5.67 VRx,0.00 km,0 m,0.0 °,1:-- (  0.0 km/h)*C6
$GPRMC,130758.000,A,4838.3224,N,00859.0303,E,0.26,200.27,090313,,,A*69
$GPGGA,130758.000,4838.3224,N,00859.0303,E,1,7,1.66,497.1,M,48.0,M,,*51
$GPGSA,A,3,10,08,05,02,26,28,04,,,,,,1.87,1.66,0.87*06
$GPVTG,200.27,T,,M,0.02,N,0.04,K,A*3C
$SMGPS,-0.6 m,-0.13 m/s,5.67 VRx,0.00 km,0 m,0.0 °,1:-- (  0.0 km/h)*C6
$GPRMC,130758.500,A,4838.3224,N,00859.0304,E,0.09,200.27,090313,,,A*66
$GPGGA,130758.500,4838.3224,N,00859.0304,E,1,7,2.00,497.2,M,48.0,M,,*53
$GPGSA,A,3,10,08,05,02,26,28,04,,,,,,2.65,2.00,1.74*07
$GPVTG,200.27,T,,M,0.06,N,0.12,K,A*3F
$SMGPS,-0.5 m,+0.04 m/s,5.67 VRx,0.00 km,1 m,270.0 °,1:-- (  0.0 km/h)*C1
$GPRMC,130759.000,A,4838.3223,N,00859.0303,E,0.26,200.27,090313,,,A*6F
$GPGGA,130759.000,4838.3223,N,00859.0303,E,1,7,1.66,497.3,M,48.0,M,,*55
$GPGSA,A,3,10,08,05,02,26,28,04,,,,,,1.87,1.66,0.87*06
$GPVTG,200.27,T,,M,0.06,N,0.12,K,A*3F
$SMGPS,-0.4 m,+0.13 m/s,5.67 VRx,0.00 km,1 m,0.0 °,1:-- (  0.0 km/h)*C3
$GPRMC,130759.500,A,4838.3223,N,00859.0303,E,0.23,200.27,090313,,,A*6F
$GPGGA,130759.500,4838.3223,N,00859.0303,E,1,7,1.66,497.3,M,48.0,M,,*50
$GPGSA,A,3,10,08,05,02,26,28,04,,,,,,1.87,1.66,0.87*06
$GPVTG,200.27,T,,M,0.06,N,0.11,K,A*3C
$SMGPS,-0.4 m,+0.12 m/s,5.67 VRx,0.00 km,0 m,270.0 °,1:-- (  0.0 km/h)*C6
$GPRMC,130800.000,A,4838.3221,N,00859.0303,E,0.16,200.27,090313,,,A*6D
$GPGGA,130800.000,4838.3221,N,00859.0303,E,1,7,2.00,497.2,M,48.0,M,,*56
$GPGSA,A,3,10,08,05,02,26,28,04,,,,,,2.65,2.00,1.74*07
$GPVTG,200.27,T,,M,0.03,N,0.06,K,A*3F
$SMGPS,-0.5 m,-0.08 m/s,5.67 VRx,0.00 km,0 m,270.0 °,1:-- (  0.0 km/h)*CA
$GPRMC,130800.500,A,4838.3221,N,00859.0303,E,0.48,200.27,090313,,,A*63
$GPGGA,130800.500,4838.3221,N,00859.0303,E,1,7,1.66,497.0,M,48.0,M,,*52
$GPGSA,A,3,10,08,05,02,26,28,04,,,,,,1.87,1.66,0.87*06
$GPVTG,200.27,T,,M,0.05,N,0.10,K,A*3E
$SMGPS,-0.7 m,-0.25 m/s,5.67 VRx,0.00 km,1 m,270.0 °,1:-- (  0.0 km/h)*C6
$GPRMC,130801.000,A,4838.3220,N,00859.0302,E,0.48,200.27,090313,,,A*67
$GPGGA,130801.000,4838.3220,N,00859.0302,E,1,7,1.66,496.9,M,48.0,M,,*5E
$GPGSA,A,3,10,08,05,02,26,28,04,,,,,,1.87,1.66,0.87*06
$GPVTG,200.27,T,,M,0.01,N,0.01,K,A*3A
$SMGPS,-0.8 m,-0.25 m/s,5.67 VRx,0.00 km,1 m,270.0 °,1:-- (  0.0 km/h)*C9
$GPRMC,130801.500,A,4838.3218,N,00859.0301,E,0.43,200.27,090313,,,A*61
$GPGGA,130801.500,4838.3218,N,00859.0301,E,1,7,1.66,496.8,M,48.0,M,,*52
$GPGSA,A,3,10,08,05,02,26,28,04,,,,,,1.87,1.66,0.87*06
$GPVTG,200.27,T,,M,0.07,N,0.13,K,A*3F
$SMGPS,-0.9 m,-0.22 m/s,5.67 VRx,0.00 km,2 m,189.4 °,1:-- (  0.0 km/h)*CD
$GPRMC,130802.000,A,4838.3217,N,00859.0299,E,0.26,200.27,090313,,,A*6B
$GPGGA,130802.000,4838.3217,N,00859.0299,E,1,7,1.66,497.0,M,48.0,M,,*52
$GPGSA,A,3,10,08,05,02,26,28,04,,,,,,1.87,1.66,0.87*06
$GPVTG,200.27,T,,M,0.03,N,0.05,K,A*3C
$SMGPS,-0.7 m,+0.13 m/s,5.67 VRx,0.00 km,2 m,195.4 °,1:-- (  0.0 km/h)*CA
$GPRMC,130802.500,A,4838.3215,N,00859.0298,E,0.54,200.27,090313,,,A*68
$GPGGA,130802.500,4838.3215,N,00859.0298,E,1,7,1.66,497.2,M,48.0,M,,*56
$GPGSA,A,3,10,08,05,02,26,28,04,,,,,,1.87,1.66,0.87*06
$GPVTG,200.27,T,,M,0.03,N,0.06,K,A*3F
$SMGPS,-0.5 m,+0.28 m/s,5.67 VRx,0.00 km,2 m,206.4 °,1:-- (  0.0 km/h)*C9
$GPRMC,130803.000,A,4838.3214,N,00859.0297,E,0.59,200.27,090313,,,A*6F
$GPGGA,130803.000,4838.3214,N,00859.0297,E,1,7,1.66,497.3,M,48.0,M,,*5D
$GPGSA,A,3,10,08,05,02,26,28,04,,,,,,1.87,1.66,0.87*06
$GPVTG,200.27,T,,M,0.01,N,0.02,K,A*39
$SMGPS,-0.4 m,+0.30 m/s,5.67 VRx,0.00 km,2 m,200.0 °,1:-- (  0.0 km/h)*C3
$GPRMC,130803.500,A,4838.3213,N,00859.0297,E,0.52,200.27,090313,,,A*66
$GPGGA,130803.500,4838.3213,N,00859.0297,E,1,7,2.00,497.5,M,48.0,M,,*5A
$GPGSA,A,3,10,08,05,02,26,28,04,,,,,,2.65,2.00,1.74*07
$GPVTG,200.27,T,,M,0.09,N,0.17,K,A*35
$SMGPS,-0.2 m,+0.26 m/s,5.67 VRx,0.00 km,2 m,201.6 °,1:-- (  0.0 km/h)*C5
$GPRMC,130804.000,A,4838.3212,N,00859.0295,E,0.74,200.27,090313,,,A*63
$GPGGA,130804.000,4838.3212,N,00859.0295,E,1,7,1.66,497.7,M,48.0,M,,*5A
$GPGSA,A,3,10,08,05,02,26,28,04,,,,,,1.87,1.66,0.87*06
$GPVTG,200.27,T,,M,0.15,N,0.28,K,A*34
$SMGPS,-0.0 m,+0.37 m/s,5.67 VRx,0.00 km,2 m,201.6 °,1:-- (  0.0 km/h)*C7
$GPRMC,130804.500,A,4838.3212,N,00859.0294,E,0.78,200.27,090313,,,A*6B
$GPGGA,130804.500,4838.3212,N,00859.0294,E,1,7,1.66,497.9,M,48.0,M,,*50
$GPGSA,A,3,10,08,05,02,26,28,04,,,,,,1.87,1.66,0.87*06
$GPVTG,200.27,T,,M,0.12,N,0.22,K,A*39
$SMGPS,0.2 m,+0.40 m/s,5.67 VRx,0.00 km,2 m,207.9 °,1:-- (  0.0 km/h)*E1
$GPRMC,130805.000,A,4838.3212,N,00859.0294,E,0.58,200.27,090313,,,A*6D
$GPGGA,130805.000,4838.3212,N,00859.0294,E,1,7,1.66,498.0,M,48.0,M,,*52
$GPGSA,A,3,10,08,05,02,26,28,04,,,,,,1.87,1.66,0.87*06
$GPVTG,200.27,T,,M,0.09,N,0.17,K,A*35
$SMGPS,0.3 m,+0.29 m/s,5.67 VRx,0.00 km,2 m,209.3 °,1:-- (  0.0 km/h)*EB
$GPRMC,130805.500,A,4838.3212,N,00859.0294,E,0.18,200.27,090313,,,A*6C
$GPGGA,130805.500,4838.3212,N,00859.0294,E,1,7,1.66,498.0,M,48.0,M,,*57
$GPGSA,A,3,10,08,05,02,26,28,04,,,,,,1.87,1.66,0.87*06
$GPVTG,200.27,T,,M,0.08,N,0.14,K,A*37
$SMGPS,0.3 m,+0.08 m/s,5.67 VRx,0.00 km,2 m,209.3 °,1:-- (  0.0 km/h)*E8
$GPRMC,130806.000,A,4838.3212,N,00859.0294,E,0.47,200.27,090313,,,A*60
$GPGGA,130806.000,4838.3212,N,00859.0294,E,1,7,1.66,498.1,M,48.0,M,,*50
$GPGSA,A,3,10,08,05,02,26,28,04,,,,,,1.87,1.66,0.87*06
$GPVTG,200.27,T,,M,0.05,N,0.09,K,A*36
$SMGPS,0.4 m,+0.24 m/s,5.67 VRx,0.00 km,2 m,209.3 °,1:-- (  0.0 km/h)*E1
$GPRMC,130806.500,A,4838.3212,N,00859.0295,E,0.33,200.27,090313,,,A*67
$GPGGA,130806.500,4838.3212,N,00859.0295,E,1,7,1.66,498.2,M,48.0,M,,*57
$GPGSA,A,3,10,08,05,02,26,28,04,,,,,,1.87,1.66,0.87*06
$GPVTG,200.27,T,,M,0.06,N,0.12,K,A*3F
$SMGPS,0.5 m,+0.17 m/s,5.67 VRx,0.00 km,2 m,209.3 °,1:-- (  0.0 km/h)*E0
$GPRMC,130807.000,A,4838.3212,N,00859.0295,E,0.23,200.27,090313,,,A*62
$GPGGA,130807.000,4838.3212,N,00859.0295,E,1,7,1.66,498.2,M,48.0,M,,*53
$GPGSA,A,3,10,08,05,02,26,28,04,,,,,,1.87,1.66,0.87*06
$GPVTG,200.27,T,,M,0.04,N,0.08,K,A*36
$SMGPS,0.5 m,+0.12 m/s,5.67 VRx,0.00 km,2 m,207.9 °,1:-- (  0.0 km/h)*E1
$GPRMC,130807.500,A,4838.3212,N,00859.0295,E,0.17,200.27,090313,,,A*60
$GPGGA,130807.500,4838.3212,N,00859.0295,E,1,7,1.66,498.2,M,48.0,M,,*56
$GPGSA,A,3,10,08,05,02,26,28,04,,,,,,1.87,1.66,0.87*06
$GPVTG,200.27,T,,M,0.17,N,0.31,K,A*3E
$SMGPS,0.5 m,+0.00 m/s,5.67 VRx,0.00 km,2 m,207.9 °,1:-- (  0.0 km/h)*E2
$GPRMC,130808.000,A,4838.3212,N,00859.0295,E,0.33,200.27,090313,,,A*6C
$GPGGA,130808.000,4838.3212,N,00859.0295,E,1,7,1.66,498.3,M,48.0,M,,*5D
$GPGSA,A,3,10,08,05,02,26,28,04,,,,,,1.87,1.66,0.87*06
$GPVTG,200.27,T,,M,0.10,N,0.18,K,A*32
$SMGPS,0.6 m,+0.16 m/s,5.67 VRx,0.00 km,2 m,207.9 °,1:-- (  0.0 km/h)*E6
$GPRMC,130808.500,A,4838.3212,N,00859.0295,E,0.25,200.27,090313,,,A*6E
$GPGGA,130808.500,4838.3212,N,00859.0295,E,1,7,1.66,498.4,M,48.0,M,,*5F
$GPGSA,A,3,10,08,05,02,26,28,04,,,,,,1.87,1.66,0.87*06
$GPVTG,200.27,T,,M,0.06,N,0.11,K,A*3C
$SMGPS,0.7 m,+0.13 m/s,5.67 VRx,0.00 km,2 m,207.9 °,1:-- (  0.0 km/h)*E2
$GPRMC,130809.000,A,4838.3212,N,00859.0295,E,0.19,200.27,090313,,,A*65
$GPGGA,130809.000,4838.3212,N,00859.0295,E,1,7,1.66,498.3,M,48.0,M,,*5C
$GPGSA,A,3,10,08,05,02,26,28,04,,,,,,1.87,1.66,0.87*06
$GPVTG,200.27,T,,M,0.13,N,0.25,K,A*3F
$SMGPS,0.6 m,-0.07 m/s,5.67 VRx,0.00 km,2 m,207.9 °,1:-- (  0.0 km/h)*E0
$GPRMC,130809.500,A,4838.3212,N,00859.0295,E,0.38,200.27,090313,,,A*63
$GPGGA,130809.500,4838.3212,N,00859.0295,E,1,7,1.66,498.2,M,48.0,M,,*58
$GPGSA,A,3,10,08,05,02,26,28,04,,,,,,1.87,1.66,0.87*06
$GPVTG,200.27,T,,M,0.20,N,0.38,K,A*33
$SMGPS,0.5 m,-0.17 m/s,5.67 VRx,0.00 km,2 m,207.9 °,1:-- (  0.0 km/h)*E2
$GPRMC,130810.000,A,4838.3212,N,00859.0295,E,0.84,200.27,090313,,,A*69
$GPGGA,130810.000,4838.3212,N,00859.0295,E,1,7,1.66,497.9,M,48.0,M,,*51
$GPGSA,A,3,10,08,05,02,26,28,04,,,,,,1.87,1.66,0.87*06
$GPVTG,200.27,T,,M,0.15,N,0.27,K,A*3B
$SMGPS,0.2 m,-0.42 m/s,5.67 VRx,0.00 km,2 m,207.9 °,1:-- (  0.0 km/h)*E5
$GPRMC,130810.500,A,4838.3212,N,00859.0295,E,0.54,200.27,090313,,,A*61
$GPGGA,130810.500,4838.3212,N,00859.0295,E,1,7,2.00,497.8,M,48.0,M,,*56
$GPGSA,A,3,10,08,05,02,26,28,04,,,,,,2.65,2.00,1.74*07
$GPVTG,200.27,T,,M,0.13,N,0.24,K,A*3E
$SMGPS,0.1 m,-0.27 m/s,5.67 VRx,0.00 km,2 m,207.9 °,1:-- (  0.0 km/h)*E5
$GPRMC,130811.000,A,4838.3213,N,00859.0295,E,0.34,200.27,090313,,,A*62
$GPGGA,130811.000,4838.3213,N,00859.0295,E,1,7,2.00,498.0,M,48.0,M,,*54
$GPGSA,A,3,10,08,05,02,26,28,04,,,,,,2.65,2.00,1.74*07
$GPVTG,200.27,T,,M,0.06,N,0.12,K,A*3F
$SMGPS,0.3 m,+0.17 m/s,5.67 VRx,0.00 km,2 m,207.9 °,1:-- (  0.0 km/h)*E2
$GPRMC,130811.500,A,4838.3213,N,00859.0295,E,0.25,200.27,090313,,,A*67
$GPGGA,130811.500,4838.3213,N,00859.0295,E,1,7,1.66,498.1,M,48.0,M,,*53
$GPGSA,A,3,10,08,05,02,26,28,04,,,,,,1.87,1.66,0.87*06
$GPVTG,200.27,T,,M,0.11,N,0.20,K,A*38
$SMGPS,0.4 m,+0.11 m/s,5.67 VRx,0.00 km,2 m,207.9 °,1:-- (  0.0 km/h)*E3
$GPRMC,130812.000,A,4838.3213,N,00859.0295,E,0.33,200.27,090313,,,A*66
$GPGGA,130812.000,4838.3213,N,00859.0295,E,1,7,2.00,498.1,M,48.0,M,,*56
$GPGSA,A,3,10,08,05,02,26,28,04,,,,,,2.65,2.00,1.74*07
$GPVTG,200.27,T,,M,0.14,N,0.26,K,A*3B
$SMGPS,0.4 m,+0.15 m/s,5.67 VRx,0.00 km,2 m,207.9 °,1:-- (  0.0 km/h)*E7
$GPRMC,130812.500,A,4838.3213,N,00859.0295,E,0.22,200.27,090313,,,A*63
$GPGGA,130812.500,4838.3213,N,00859.0295,E,1,7,2.00,498.0,M,48.0,M,,*52
$GPGSA,A,3,10,08,05,02,26,28,04,,,,,,2.65,2.00,1.74*07
$GPVTG,200.27,T,,M,0.14,N,0.25,K,A*38
$SMGPS,0.3 m,-0.09 m/s,5.67 VRx,0.00 km,2 m,207.9 °,1:-- (  0.0 km/h)*EB
$GPRMC,130813.000,A,4838.3213,N,00859.0295,E,0.11,200.27,090313,,,A*67
$GPGGA,130813.000,4838.3213,N,00859.0295,E,1,7,2.00,498.0,M,48.0,M,,*56
$GPGSA,A,3,10,08,05,02,26,28,04,,,,,,2.65,2.00,1.74*07
$GPVTG,200.27,T,,M,0.11,N,0.21,K,A*39
$SMGPS,0.3 m,-0.01 m/s,5.67 VRx,0.00 km,2 m,207.9 °,1:-- (  0.0 km/h)*E3
$GPRMC,130813.500,A,4838.3213,N,00859.0295,E,0.20,200.27,090313,,,A*60
$GPGGA,130813.500,4838.3213,N,00859.0295,E,1,7,2.00,498.1,M,48.0,M,,*52
$GPGSA,A,3,10,08,05,02,26,28,04,,,,,,2.65,2.00,1.74*07
$GPVTG,200.27,T,,M,0.12,N,0.22,K,A*39
$SMGPS,0.4 m,+0.08 m/s,5.67 VRx,0.00 km,2 m,207.9 °,1:-- (  0.0 km/h)*EB
$GPRMC,130814.000,A,4838.3213,N,00859.0295,E,0.23,200.27,090313,,,A*61
$GPGGA,130814.000,4838.3213,N,00859.0295,E,1,7,2.00,498.2,M,48.0,M,,*53
$GPGSA,A,3,10,08,05,02,26,28,04,,,,,,2.65,2.00,1.74*07
$GPVTG,200.27,T,,M,0.02,N,0.03,K,A*3B
$SMGPS,0.5 m,+0.12 m/s,5.67 VRx,0.00 km,2 m,207.9 °,1:-- (  0.0 km/h)*E1
$GPRMC,130814.500,A,4838.3213,N,00859.0295,E,0.11,200.27,090313,,,A*65
$GPGGA,130814.500,4838.3213,N,00859.0295,E,1,7,1.66,498.2,M,48.0,M,,*55
$GPGSA,A,3,10,08,05,02,26,28,04,,,,,,1.87,1.66,0.87*06
$GPVTG,200.27,T,,M,0.06,N,0.11,K,A*3C
$SMGPS,0.5 m,+0.05 m/s,5.67 VRx,0.00 km,2 m,207.9 °,1:-- (  0.0 km/h)*E7
$GPRMC,130815.000,A,4838.3213,N,00859.0295,E,0.08,200.27,090313,,,A*69
$GPGGA,130815.000,4838.3213,N,00859.0295,E,1,7,1.66,498.1,M,48.0,M,,*52
$GPGSA,A,3,10,08,05,02,26,28,04,,,,,,1.87,1.66,0.87*06
$GPVTG,200.27,T,,M,0.07,N,0.13,K,A*3F
$SMGPS,0.4 m,-0.02 m/s,5.67 VRx,0.00 km,2 m,207.9 °,1:-- (  0.0 km/h)*E7
$GPRMC,130815.500,A,4838.3213,N,00859.0295,E,0.14,200.27,090313,,,A*61
$GPGGA,130815.500,4838.3213,N,00859.0295,E,1,7,1.66,498.2,M,48.0,M,,*54
$GPGSA,A,3,10,08,05,02,26,28,04,,,,,,1.87,1.66,0.87*06
$GPVTG,200.27,T,,M,0.05,N,0.10,K,A*3E
$SMGPS,0.5 m,+0.07 m/s,5.67 VRx,0.00 km,2 m,207.9 °,1:-- (  0.0 km/h)*E5
$GPRMC,130816.000,A,4838.3213,N,00859.0296,E,0.28,200.27,090313,,,A*6B
$GPGGA,130816.000,4838.3213,N,00859.0296,E,1,7,1.66,498.3,M,48.0,M,,*50
$GPGSA,A,3,10,08,05,02,26,28,04,,,,,,1.87,1.66,0.87*06
$GPVTG,200.27,T,,M,0.00,N,0.01,K,A*3B
$SMGPS,0.6 m,+0.14 m/s,5.67 VRx,0.00 km,2 m,207.9 °,1:-- (  0.0 km/h)*E4
$GPRMC,130816.500,A,4838.3213,N,00859.0296,E,0.57,200.27,090313,,,A*66
$GPGGA,130816.500,4838.3213,N,00859.0296,E,1,8,1.32,498.5,M,48.0,M,,*5D
$GPGSA,A,3,10,08,05,02,26,28,04,07,,,,,1.58,1.32,0.86*03
$GPVTG,200.27,T,,M,0.06,N,0.10,K,A*3D
$SMGPS,0.8 m,+0.29 m/s,5.67 VRx,0.00 km,2 m,204.8 °,1:-- (  0.0 km/h)*E6
$GPRMC,130817.000,A,4838.3213,N,00859.0295,E,0.10,200.27,090313,,,A*62
$GPGGA,130817.000,4838.3213,N,00859.0295,E,1,8,1.32,498.5,M,48.0,M,,*5A
$GPGSA,A,3,10,08,05,02,26,28,04,07,,,,,1.58,1.32,0.86*03
$GPVTG,200.27,T,,M,0.06,N,0.10,K,A*3D
$SMGPS,0.8 m,+0.04 m/s,5.67 VRx,0.00 km,2 m,204.8 °,1:-- (  0.0 km/h)*E9
$GPRMC,130817.500,A,4838.3213,N,00859.0295,E,0.12,200.27,090313,,,A*65
$GPGGA,130817.500,4838.3213,N,00859.0295,E,1,8,1.32,498.4,M,48.0,M,,*5E
$GPGSA,A,3,10,08,05,02,26,28,04,07,,,,,1.58,1.32,0.86*03
$GPVTG,200.27,T,,M,0.03,N,0.05,K,A*3C
$SMGPS,0.7 m,-0.06 m/s,5.67 VRx,0.00 km,3 m,207.9 °,1:-- (  0.0 km/h)*E1
$GPRMC,130818.000,A,4838.3213,N,00859.0295,E,0.11,200.27,090313,,,A*6C
$GPGGA,130818.000,4838.3213,N,00859.0295,E,1,8,1.32,498.4,M,48.0,M,,*54
$GPGSA,A,3,10,08,05,02,26,28,04,07,,,,,1.58,1.32,0.86*03
$GPVTG,200.27,T,,M,0.09,N,0.18,K,A*3A
$SMGPS,0.7 m,+0.03 m/s,5.67 VRx,0.00 km,2 m,207.9 °,1:-- (  0.0 km/h)*E3
$GPRMC,130818.500,A,4838.3213,N,00859.0295,E,0.19,200.27,090313,,,A*61
$GPGGA,130818.500,4838.3213,N,00859.0295,E,1,8,1.32,498.4,M,48.0,M,,*51
$GPGSA,A,3,10,08,05,02,26,28,04,07,,,,,1.58,1.32,0.86*03
$GPVTG,200.27,T,,M,0.19,N,0.36,K,A*37
$SMGPS,0.7 m,+0.01 m/s,5.67 VRx,0.00 km,3 m,207.9 °,1:-- (  0.0 km/h)*E0
$GPRMC,130819.000,A,4838.3213,N,00859.0296,E,0.59,200.27,090313,,,A*62
$GPGGA,130819.000,4838.3213,N,00859.0296,E,1,8,1.32,498.2,M,48.0,M,,*50
$GPGSA,A,3,10,08,05,02,26,28,04,07,,,,,1.58,1.32,0.86*03
$GPVTG,200.27,T,,M,0.19,N,0.35,K,A*34
$SMGPS,0.5 m,-0.29 m/s,5.67 VRx,0.00 km,3 m,207.9 °,1:-- (  0.0 km/h)*EE
$GPRMC,130819.500,A,4838.3212,N,00859.0296,E,0.50,200.27,090313,,,A*6F
$GPGGA,130819.500,4838.3212,N,00859.0296,E,1,8,1.32,498.1,M,48.0,M,,*57
$GPGSA,A,3,10,08,05,02,26,28,04,07,,,,,1.58,1.32,0.86*03
$GPVTG,200.27,T,,M,0.23,N,0.42,K,A*3D
$SMGPS,0.4 m,-0.23 m/s,5.67 VRx,0.00 km,2 m,204.8 °,1:-- (  0.0 km/h)*E6
$GPRMC,130820.000,A,4838.3212,N,00859.0296,E,0.35,200.27,090313,,,A*63
$GPGGA,130820.000,4838.3212,N,00859.0296,E,1,8,1.32,498.3,M,48.0,M,,*5A
$GPGSA,A,3,10,08,05,02,26,28,04,07,,,,,1.58,1.32,0.86*03
$GPVTG,200.27,T,,M,0.27,N,0.50,K,A*3A
$SMGPS,0.6 m,+0.11 m/s,5.67 VRx,0.00 km,2 m,204.8 °,1:-- (  0.0 km/h)*E3
$GPRMC,130820.500,A,4838.3212,N,00859.0296,E,0.52,200.27,090313,,,A*67
$GPGGA,130820.500,4838.3212,N,00859.0296,E,1,8,1.32,498.3,M,48.0,M,,*5F
$GPGSA,A,3,10,08,05,02,26,28,04,07,,,,,1.58,1.32,0.86*03
$GPVTG,200.27,T,,M,0.46,N,0.86,K,A*36
$SMGPS,0.6 m,+0.13 m/s,5.67 VRx,0.00 km,2 m,204.8 °,1:-- (  0.0 km/h)*E1
$GPRMC,130821.000,A,4838.3211,N,00859.0296,E,0.34,200.27,090313,,,A*60
$GPGGA,130821.000,4838.3211,N,00859.0296,E,1,8,1.32,498.4,M,48.0,M,,*5F
$GPGSA,A,3,10,08,05,02,26,28,04,07,,,,,1.58,1.32,0.86*03
$GPVTG,200.27,T,,M,0.31,N,0.57,K,A*3A
$SMGPS,0.7 m,+0.07 m/s,5.67 VRx,0.00 km,2 m,204.8 °,1:-- (  0.0 km/h)*E5
$GPRMC,130821.500,A,4838.3211,N,00859.0296,E,0.55,200.27,090313,,,A*62
$GPGGA,130821.500,4838.3211,N,00859.0296,E,1,8,1.32,498.5,M,48.0,M,,*5B
$GPGSA,A,3,10,08,05,02,26,28,04,07,,,,,1.58,1.32,0.86*03
$GPVTG,200.27,T,,M,0.29,N,0.54,K,A*30
$SMGPS,0.8 m,+0.24 m/s,5.67 VRx,0.00 km,2 m,204.8 °,1:-- (  0.0 km/h)*EB
$GPRMC,130822.000,A,4838.3211,N,00859.0296,E,0.40,200.27,090313,,,A*60
$GPGGA,130822.000,4838.3211,N,00859.0296,E,1,8,1.32,498.6,M,48.0,M,,*5E
$GPGSA,A,3,10,08,05,02,26,28,04,07,,,,,1.58,1.32,0.86*03
$GPVTG,200.27,T,,M,0.17,N,0.32,K,A*3D
$SMGPS,0.9 m,+0.19 m/s,5.67 VRx,0.00 km,2 m,204.8 °,1:-- (  0.0 km/h)*E4
$GPRMC,130822.500,A,4838.3212,N,00859.0297,E,0.34,200.27,090313,,,A*64
$GPGGA,130822.500,4838.3212,N,00859.0297,E,1,8,1.32,498.7,M,48.0,M,,*58
$GPGSA,A,3,10,08,05,02,26,28,04,07,,,,,1.58,1.32,0.86*03
$GPVTG,200.27,T,,M,0.19,N,0.35,K,A*34
$SMGPS,1.0 m,+0.14 m/s,5.67 VRx,0.00 km,3 m,204.8 °,1:-- (  0.0 km/h)*E0
$GPRMC,130823.000,A,4838.3212,N,00859.0297,E,0.23,200.27,090313,,,A*66
$GPGGA,130823.000,4838.3212,N,00859.0297,E,1,8,1.32,498.6,M,48.0,M,,*5D
$GPGSA,A,3,10,08,05,02,26,28,04,07,,,,,1.58,1.32,0.86*03
$GPVTG,200.27,T,,M,0.21,N,0.40,K,A*3D
$SMGPS,0.9 m,-0.05 m/s,5.67 VRx,0.00 km,2 m,201.6 °,1:-- (  0.0 km/h)*E4
$GPRMC,130823.500,A,4838.3212,N,00859.0297,E,0.22,200.27,090313,,,A*62
$GPGGA,130823.500,4838.3212,N,00859.0297,E,1,8,1.32,498.6,M,48.0,M,,*58
$GPGSA,A,3,10,08,05,02,26,28,04,07,,,,,1.58,1.32,0.86*03
$GPVTG,200.27,T,,M,0.19,N,0.35,K,A*34
$SMGPS,0.9 m,-0.06 m/s,5.67 VRx,0.00 km,2 m,201.6 °,1:-- (  0.0 km/h)*E7
$GPRMC,130824.000,A,4838.3212,N,00859.0297,E,0.25,200.27,090313,,,A*67
$GPGGA,130824.000,4838.3212,N,00859.0297,E,1,8,1.32,498.7,M,48.0,M,,*5B
$GPGSA,A,3,10,08,05,02,26,28,04,07,,,,,1.58,1.32,0.86*03
$GPVTG,200.27,T,,M,0.13,N,0.24,K,A*3E
$SMGPS,1.0 m,+0.11 m/s,5.67 VRx,0.00 km,2 m,201.6 °,1:-- (  0.0 km/h)*EF
$GPRMC,130824.500,A,4838.3211,N,00859.0297,E,0.18,200.27,090313,,,A*6F
$GPGGA,130824.500,4838.3211,N,00859.0297,E,1,8,1.32,498.7,M,48.0,M,,*5D
$GPGSA,A,3,10,08,05,02,26,28,04,07,,,,,1.58,1.32,0.86*03
$GPVTG,200.27,T,,M,0.13,N,0.23,K,A*39
$SMGPS,1.0 m,+0.06 m/s,5.67 VRx,0.00 km,2 m,201.6 °,1:-- (  0.0 km/h)*E9
$GPRMC,130825.000,A,4838.3211,N,00859.0297,E,0.17,200.27,090313,,,A*64
$GPGGA,130825.000,4838.3211,N,00859.0297,E,1,8,1.32,498.6,M,48.0,M,,*58
$GPGSA,A,3,10,08,05,02,26,28,04,07,,,,,1.58,1.32,0.86*03
$GPVTG,200.27,T,,M,0.05,N,0.08,K,A*37
$SMGPS,0.9 m,-0.09 m/s,5.67 VRx,0.00 km,2 m,201.6 °,1:-- (  0.0 km/h)*E8
$GPRMC,130825.500,A,4838.3211,N,00859.0297,E,0.41,200.27,090313,,,A*62
$GPGGA,130825.500,4838.3211,N,00859.0297,E,1,8,1.65,498.5,M,48.0,M,,*5C
$GPGSA,A,3,10,08,05,02,26,28,04,07,,,,,2.38,1.65,1.72*0E
$GPVTG,200.27,T,,M,0.09,N,0.17,K,A*35
$SMGPS,0.8 m,-0.21 m/s,5.67 VRx,0.00 km,2 m,201.6 °,1:-- (  0.0 km/h)*E3
$GPRMC,130826.000,A,4838.3211,N,00859.0297,E,1.08,200.27,090313,,,A*68
$GPGGA,130826.000,4838.3211,N,00859.0297,E,1,8,1.65,498.1,M,48.0,M,,*5E
$GPGSA,A,3,10,08,05,02,26,28,04,07,,,,,2.38,1.65,1.72*0E
$GPVTG,200.27,T,,M,0.14,N,0.26,K,A*3B
$SMGPS,0.4 m,-0.55 m/s,5.67 VRx,0.00 km,2 m,201.6 °,1:-- (  0.0 km/h)*EC
$GPRMC,130826.500,A,4838.3212,N,00859.0297,E,0.79,200.27,090313,,,A*69
$GPGGA,130826.500,4838.3212,N,00859.0297,E,1,8,1.32,497.9,M,48.0,M,,*5D
$GPGSA,A,3,10,08,05,02,26,28,04,07,,,,,1.58,1.32,0.86*03
$GPVTG,200.27,T,,M,0.11,N,0.21,K,A*39
$SMGPS,0.2 m,-0.40 m/s,5.67 VRx,0.00 km,2 m,201.6 °,1:-- (  0.0 km/h)*EE
$GPRMC,130827.000,A,4838.3212,N,00859.0297,E,0.44,200.27,090313,,,A*63
$GPGGA,130827.000,4838.3212,N,00859.0297,E,1,8,1.65,497.9,M,48.0,M,,*5B
$GPGSA,A,3,10,08,05,02,26,28,04,07,,,,,2.38,1.65,1.73*0F
$GPVTG,200.27,T,,M,0.08,N,0.15,K,A*36
$SMGPS,0.2 m,-0.22 m/s,5.67 VRx,0.00 km,2 m,201.6 °,1:-- (  0.0 km/h)*EA
$GPRMC,130827.500,A,4838.3212,N,00859.0297,E,0.39,200.27,090313,,,A*6C
$GPGGA,130827.500,4838.3212,N,00859.0297,E,1,8,1.32,497.8,M,48.0,M,,*5D
$GPGSA,A,3,10,08,05,02,26,28,04,07,,,,,1.58,1.32,0.86*03
$GPVTG,200.27,T,,M,0.08,N,0.15,K,A*36
$SMGPS,0.1 m,-0.20 m/s,5.67 VRx,0.00 km,2 m,201.6 °,1:-- (  0.0 km/h)*EB
$GPRMC,130828.000,A,4838.3212,N,00859.0297,E,0.72,200.27,090313,,,A*69
$GPGGA,130828.000,4838.3212,N,00859.0297,E,1,8,1.65,497.5,M,48.0,M,,*58
$GPGSA,A,3,10,08,05,02,26,28,04,07,,,,,2.38,1.65,1.72*0E
$GPVTG,200.27,T,,M,0.13,N,0.23,K,A*39
$SMGPS,-0.2 m,-0.36 m/s,5.67 VRx,0.00 km,2 m,201.6 °,1:-- (  0.0 km/h)*C2
$GPRMC,130828.500,A,4838.3212,N,00859.0297,E,0.91,200.27,090313,,,A*61
$GPGGA,130828.500,4838.3212,N,00859.0297,E,1,8,1.65,497.3,M,48.0,M,,*5B
$GPGSA,A,3,10,08,05,02,26,28,04,07,,,,,2.38,1.65,1.72*0E
$GPVTG,200.27,T,,M,0.15,N,0.27,K,A*3B
$SMGPS,-0.4 m,-0.46 m/s,5.67 VRx,0.00 km,2 m,201.6 °,1:-- (  0.0 km/h)*C3
$GPRMC,130829.000,A,4838.3212,N,00859.0297,E,0.72,200.27,090313,,,A*68
$GPGGA,130829.000,4838.3212,N,00859.0297,E,1,8,1.32,497.1,M,48.0,M,,*5F
$GPGSA,A,3,10,08,05,02,26,28,04,07,,,,,1.58,1.32,0.87*02
$GPVTG,200.27,T,,M,0.13,N,0.25,K,A*3F
$SMGPS,-0.6 m,-0.36 m/s,5.67 VRx,0.00 km,2 m,201.6 °,1:-- (  0.0 km/h)*C6
$GPRMC,130829.500,A,4838.3213,N,00859.0297,E,0.89,200.27,090313,,,A*68
$GPGGA,130829.500,4838.3213,N,00859.0297,E,1,8,1.32,496.8,M,48.0,M,,*53
$GPGSA,A,3,10,08,05,02,26,28,04,07,,,,,1.58,1.32,0.86*03
$GPVTG,200.27,T,,M,0.07,N,0.13,K,A*3F
$SMGPS,-0.9 m,-0.46 m/s,5.67 VRx,0.00 km,2 m,201.6 °,1:-- (  0.0 km/h)*CE
$GPRMC,130830.000,A,4838.3213,N,00859.0297,E,0.95,200.27,090313,,,A*68
$GPGGA,130830.000,4838.3213,N,00859.0297,E,1,8,1.65,496.6,M,48.0,M,,*52
$GPGSA,A,3,10,08,05,02,26,28,04,07,,,,,2.38,1.65,1.72*0E
$GPVTG,200.27,T,,M,0.04,N,0.07,K,A*39
$SMGPS,-1.1 m,-0.49 m/s,5.67 VRx,0.00 km,2 m,201.6 °,1:-- (  0.0 km/h)*C8
$GPRMC,130830.500,A,4838.3213,N,00859.0297,E,1.11,200.27,090313,,,A*60
$GPGGA,130830.500,4838.3213,N,00859.0297,E,1,8,1.32,496.2,M,48.0,M,,*51
$GPGSA,A,3,10,08,05,02,26,28,04,07,,,,,1.58,1.32,0.87*02
$GPVTG,200.27,T,,M,0.09,N,0.16,K,A*34
$SMGPS,-1.5 m,-0.57 m/s,5.67 VRx,0.00 km,3 m,201.6 °,1:-- (  0.0 km/h)*C2
$GPRMC,130831.000,A,4838.3213,N,00859.0297,E,1.33,200.27,090313,,,A*64
$GPGGA,130831.000,4838.3213,N,00859.0297,E,1,8,1.32,495.8,M,48.0,M,,*5C
$GPGSA,A,3,10,08,05,02,26,28,04,07,,,,,1.58,1.32,0.87*02
$GPVTG,200.27,T,,M,0.13,N,0.23,K,A*39
$SMGPS,-1.9 m,-0.68 m/s,5.67 VRx,0.00 km,3 m,201.6 °,1:-- (  0.0 km/h)*C2
$GPRMC,130831.500,A,4838.3213,N,00859.0297,E,0.43,200.27,090313,,,A*67
$GPGGA,130831.500,4838.3213,N,00859.0297,E,1,8,1.65,495.9,M,48.0,M,,*5A
$GPGSA,A,3,10,08,05,02,26,28,04,07,,,,,2.38,1.65,1.72*0E
$GPVTG,200.27,T,,M,0.10,N,0.19,K,A*33
$SMGPS,-1.8 m,-0.21 m/s,5.67 VRx,0.00 km,3 m,201.6 °,1:-- (  0.0 km/h)*CE
$GPRMC,130832.000,A,4838.3213,N,00859.0297,E,0.48,200.27,090313,,,A*6A
$GPGGA,130832.000,4838.3213,N,00859.0297,E,1,8,1.32,495.8,M,48.0,M,,*5F
$GPGSA,A,3,10,08,05,02,26,28,04,07,,,,,1.58,1.32,0.87*02
$GPVTG,200.27,T,,M,0.04,N,0.08,K,A*36
$SMGPS,-1.9 m,-0.25 m/s,5.67 VRx,0.00 km,3 m,201.6 °,1:-- (  0.0 km/h)*CB
$GPRMC,130832.500,A,4838.3213,N,00859.0297,E,0.21,200.27,090313,,,A*60
$GPGGA,130832.500,4838.3213,N,00859.0297,E,1,8,1.32,495.9,M,48.0,M,,*5B
$GPGSA,A,3,10,08,05,02,26,28,04,07,,,,,1.58,1.32,0.86*03
$GPVTG,200.27,T,,M,0.01,N,0.03,K,A*38
$SMGPS,-1.8 m,+0.11 m/s,5.67 VRx,0.00 km,3 m,201.6 °,1:-- (  0.0 km/h)*CB
$GPRMC,130833.000,A,4838.3213,N,00859.0297,E,0.51,200.27,090313,,,A*63
$GPGGA,130833.000,4838.3213,N,00859.0297,E,1,8,1.32,496.1,M,48.0,M,,*54
$GPGSA,A,3,10,08,05,02,26,28,04,07,,,,,1.58,1.32,0.87*02
$GPVTG,200.27,T,,M,0.03,N,0.06,K,A*3F
$SMGPS,-1.6 m,+0.26 m/s,5.67 VRx,0.00 km,3 m,201.6 °,1:-- (  0.0 km/h)*C1
$GPRMC,130833.500,A,4838.3213,N,00859.0297,E,0.20,200.27,090313,,,A*60
$GPGGA,130833.500,4838.3213,N,00859.0297,E,1,8,1.32,496.1,M,48.0,M,,*51
$GPGSA,A,3,10,08,05,02,26,28,04,07,,,,,1.58,1.32,0.87*02
$GPVTG,200.27,T,,M,0.10,N,0.19,K,A*33
$SMGPS,-1.6 m,+0.09 m/s,5.66 VRx,0.00 km,3 m,201.6 °,1:-- (  0.0 km/h)*CD
$GPRMC,130834.000,A,4838.3213,N,00859.0297,E,0.25,200.27,090313,,,A*67
$GPGGA,130834.000,4838.3213,N,00859.0297,E,1,8,1.32,496.2,M,48.0,M,,*50
$GPGSA,A,3,10,08,05,02,26,28,04,07,,,,,1.58,1.32,0.87*02
$GPVTG,200.27,T,,M,0.07,N,0.13,K,A*3F
$SMGPS,-1.5 m,+0.12 m/s,5.67 VRx,0.00 km,3 m,201.6 °,1:-- (  0.0 km/h)*C5
$GPRMC,130834.500,A,4838.3214,N,00859.0297,E,0.10,200.27,090313,,,A*63
$GPGGA,130834.500,4838.3214,N,00859.0297,E,1,8,1.65,496.2,M,48.0,M,,*50
$GPGSA,A,3,10,08,05,02,26,28,04,07,,,,,2.38,1.65,1.73*0F
$GPVTG,200.27,T,,M,0.06,N,0.11,K,A*3C
$SMGPS,-1.5 m,+0.04 m/s,5.67 VRx,0.00 km,3 m,201.6 °,1:-- (  0.0 km/h)*C2
$GPRMC,130835.000,A,4838.3214,N,00859.0297,E,0.29,200.27,090313,,,A*6D
$GPGGA,130835.000,4838.3214,N,00859.0297,E,1,8,1.32,496.0,M,48.0,M,,*54
$GPGSA,A,3,10,08,05,02,26,28,04,07,,,,,1.58,1.32,0.87*02
$GPVTG,200.27,T,,M,0.06,N,0.11,K,A*3C
$SMGPS,-1.7 m,-0.14 m/s,5.67 VRx,0.00 km,3 m,201.6 °,1:-- (  0.0 km/h)*C7
$GPRMC,130835.500,A,4838.3214,N,00859.0296,E,0.18,200.27,090313,,,A*6B
$GPGGA,130835.500,4838.3214,N,00859.0296,E,1,8,1.32,496.0,M,48.0,M,,*50
$GPGSA,A,3,10,08,05,02,26,28,04,07,,,,,1.58,1.32,0.87*02
$GPVTG,200.27,T,,M,0.04,N,0.08,K,A*36
$SMGPS,-1.7 m,-0.09 m/s,5.66 VRx,0.00 km,3 m,201.6 °,1:-- (  0.0 km/h)*CA
$GPRMC,130836.000,A,4838.3214,N,00859.0296,E,0.46,200.27,090313,,,A*66
$GPGGA,130836.000,4838.3214,N,00859.0296,E,1,8,1.65,495.8,M,48.0,M,,*5F
$GPGSA,A,3,10,08,05,02,26,28,04,07,,,,,2.39,1.65,1.73*0E
$GPVTG,200.27,T,,M,0.05,N,0.09,K,A*36
$SMGPS,-1.9 m,-0.23 m/s,5.67 VRx,0.00 km,3 m,204.8 °,1:-- (  0.0 km/h)*C6
$GPRMC,130836.500,A,4838.3214,N,00859.0296,E,0.29,200.27,090313,,,A*6A
$GPGGA,130836.500,4838.3214,N,00859.0296,E,1,8,1.32,495.8,M,48.0,M,,*58
$GPGSA,A,3,10,08,05,02,26,28,04,07,,,,,1.58,1.32,0.87*02
$GPVTG,200.27,T,,M,0.01,N,0.02,K,A*39
$SMGPS,-1.9 m,-0.15 m/s,5.67 VRx,0.00 km,3 m,204.8 °,1:-- (  0.0 km/h)*C3
$GPRMC,130837.000,A,4838.3214,N,00859.0296,E,0.45,200.27,090313,,,A*64
$GPGGA,130837.000,4838.3214,N,00859.0296,E,1,8,1.32,495.6,M,48.0,M,,*52
$GPGSA,A,3,10,08,05,02,26,28,04,07,,,,,1.58,1.32,0.87*02
$GPVTG,200.27,T,,M,0.02,N,0.03,K,A*3B
$SMGPS,-2.1 m,-0.23 m/s,5.67 VRx,0.00 km,3 m,204.8 °,1:-- (  0.0 km/h)*CD
$GPRMC,130837.500,A,4838.3214,N,00859.0296,E,0.11,200.27,090313,,,A*60
$GPGGA,130837.500,4838.3214,N,00859.0296,E,1,8,1.32,495.7,M,48.0,M,,*56
$GPGSA,A,3,10,08,05,02,26,28,04,07,,,,,1.58,1.32,0.87*02
$GPVTG,200.27,T,,M,0.03,N,0.05,K,A*3C
$SMGPS,-2.0 m,-0.06 m/s,5.67 VRx,0.00 km,3 m,204.8 °,1:-- (  0.0 km/h)*CB
$GPRMC,130838.000,A,4838.3214,N,00859.0296,E,0.28,200.27,090313,,,A*60
$GPGGA,130838.000,4838.3214,N,00859.0296,E,1,8,1.32,495.6,M,48.0,M,,*5D
$GPGSA,A,3,10,08,05,02,26,28,04,07,,,,,1.58,1.32,0.87*02
$GPVTG,200.27,T,,M,0.06,N,0.12,K,A*3F
$SMGPS,-2.1 m,-0.14 m/s,5.67 VRx,0.00 km,3 m,204.8 °,1:-- (  0.0 km/h)*C9
$GPRMC,130838.500,A,4838.3214,N,00859.0296,E,0.07,200.27,090313,,,A*68
$GPGGA,130838.500,4838.3214,N,00859.0296,E,1,8,1.32,495.6,M,48.0,M,,*58
$GPGSA,A,3,10,08,05,02,26,28,04,07,,,,,1.58,1.32,0.87*02
$GPVTG,200.27,T,,M,0.05,N,0.09,K,A*36
$SMGPS,-2.1 m,-0.03 m/s,5.67 VRx,0.00 km,3 m,204.8 °,1:-- (  0.0 km/h)*CF
$GPRMC,130839.000,A,4838.3214,N,00859.0296,E,0.04,200.27,090313,,,A*6F
$GPGGA,130839.000,4838.3214,N,00859.0296,E,1,8,1.32,495.6,M,48.0,M,,*5C
$GPGSA,A,3,10,08,05,02,26,28,04,07,,,,,1.58,1.32,0.87*02
$GPVTG,200.27,T,,M,0.02,N,0.04,K,A*3C
$SMGPS,-2.1 m,-0.02 m/s,5.67 VRx,0.00 km,3 m,204.8 °,1:-- (  0.0 km/h)*CE
$GPRMC,130839.500,A,4838.3214,N,00859.0296,E,0.12,200.27,090313,,,A*6D
$GPGGA,130839.500,4838.3214,N,00859.0296,E,1,8,1.32,495.6,M,48.0,M,,*59
$GPGSA,A,3,10,08,05,02,26,28,04,07,,,,,1.58,1.32,0.87*02
$GPVTG,200.27,T,,M,0.04,N,0.07,K,A*39
$SMGPS,-2.1 m,+0.06 m/s,5.67 VRx,0.00 km,3 m,204.8 °,1:-- (  0.0 km/h)*CC
$GPRMC,130840.000,A,4838.3214,N,00859.0296,E,0.08,200.27,090313,,,A*6D
$GPGGA,130840.000,4838.3214,N,00859.0296,E,1,8,1.32,495.6,M,48.0,M,,*52
$GPGSA,A,3,10,08,05,02,26,28,04,07,,,,,1.58,1.32,0.87*02
$GPVTG,200.27,T,,M,0.06,N,0.11,K,A*3C
$SMGPS,-2.1 m,-0.03 m/s,5.67 VRx,0.00 km,3 m,204.8 °,1:-- (  0.0 km/h)*CF
$GPRMC,130840.500,A,4838.3214,N,00859.0296,E,0.11,200.27,090313,,,A*60
$GPGGA,130840.500,4838.3214,N,00859.0296,E,1,8,1.32,495.6,M,48.0,M,,*57
$GPGSA,A,3,10,08,05,02,26,28,04,07,,,,,1.58,1.32,0.87*02
$GPVTG,200.27,T,,M,0.06,N,0.11,K,A*3C
$SMGPS,-2.1 m,+0.05 m/s,5.67 VRx,0.00 km,3 m,204.8 °,1:-- (  0.0 km/h)*CF
$GPRMC,130841.000,A,4838.3214,N,00859.0296,E,0.24,200.27,090313,,,A*62
$GPGGA,130841.000,4838.3214,N,00859.0296,E,1,8,1.32,495.7,M,48.0,M,,*52
$GPGSA,A,3,10,08,05,02,26,28,04,07,,,,,1.58,1.32,0.87*02
$GPVTG,200.27,T,,M,0.12,N,0.21,K,A*3A
$SMGPS,-2.0 m,+0.11 m/s,5.67 VRx,0.00 km,3 m,204.8 °,1:-- (  0.0 km/h)*CB
$GPRMC,130841.500,A,4838.3214,N,00859.0296,E,0.31,200.27,090313,,,A*63
$GPGGA,130841.500,4838.3214,N,00859.0296,E,1,8,1.32,495.8,M,48.0,M,,*58
$GPGSA,A,3,10,08,05,02,26,28,04,07,,,,,1.58,1.32,0.87*02
$GPVTG,200.27,T,,M,0.11,N,0.21,K,A*39
$SMGPS,-1.9 m,+0.15 m/s,5.67 VRx,0.00 km,3 m,204.8 °,1:-- (  0.0 km/h)*C5
$GPRMC,130842.000,A,4838.3214,N,00859.0296,E,0.16,200.27,090313,,,A*60
$GPGGA,130842.000,4838.3214,N,00859.0296,E,1,8,1.32,495.8,M,48.0,M,,*5E
$GPGSA,A,3,10,08,05,02,26,28,04,07,,,,,1.58,1.32,0.87*02
$GPVTG,200.27,T,,M,0.10,N,0.18,K,A*32
$SMGPS,-1.9 m,+0.07 m/s,5.67 VRx,0.00 km,3 m,204.8 °,1:-- (  0.0 km/h)*C6
$GPRMC,130842.500,A,4838.3213,N,00859.0296,E,0.50,200.27,090313,,,A*60
$GPGGA,130842.500,4838.3213,N,00859.0296,E,1,8,1.32,495.5,M,48.0,M,,*51
$GPGSA,A,3,10,08,05,02,26,28,04,07,,,,,1.58,1.32,0.87*02
$GPVTG,200.27,T,,M,0.11,N,0.21,K,A*39
$SMGPS,-2.2 m,-0.25 m/s,5.67 VRx,0.00 km,3 m,204.8 °,1:-- (  0.0 km/h)*C8
$GPRMC,130843.000,A,4838.3213,N,00859.0296,E,0.26,200.27,090313,,,A*65
$GPGGA,130843.000,4838.3213,N,00859.0296,E,1,8,1.32,495.7,M,48.0,M,,*57
$GPGSA,A,3,10,08,05,02,26,28,04,07,,,,,1.58,1.32,0.87*02
$GPVTG,200.27,T,,M,0.13,N,0.24,K,A*3E
$SMGPS,-2.0 m,+0.11 m/s,5.67 VRx,0.00 km,3 m,204.8 °,1:-- (  0.0 km/h)*CB
$GPRMC,130843.500,A,4838.3213,N,00859.0296,E,0.23,200.27,090313,,,A*65
$GPGGA,130843.500,4838.3213,N,00859.0296,E,1,8,1.32,495.8,M,48.0,M,,*5D
$GPGSA,A,3,10,08,05,02,26,28,04,07,,,,,1.58,1.32,0.87*02
$GPVTG,200.27,T,,M,0.15,N,0.28,K,A*34
$SMGPS,-1.9 m,+0.09 m/s,5.67 VRx,0.00 km,3 m,204.8 °,1:-- (  0.0 km/h)*C8
$GPRMC,130844.000,A,4838.3213,N,00859.0296,E,0.13,200.27,090313,,,A*64
$GPGGA,130844.000,4838.3213,N,00859.0296,E,1,8,1.32,495.8,M,48.0,M,,*5F
$GPGSA,A,3,10,08,05,02,26,28,04,07,,,,,1.58,1.32,0.87*02
$GPVTG,200.27,T,,M,0.09,N,0.17,K,A*35
$SMGPS,-1.9 m,+0.05 m/s,5.67 VRx,0.00 km,3 m,204.8 °,1:-- (  0.0 km/h)*C4
$GPRMC,130844.500,A,4838.3213,N,00859.0296,E,0.27,200.27,090313,,,A*66
$GPGGA,130844.500,4838.3213,N,00859.0296,E,1,8,1.32,495.9,M,48.0,M,,*5B
$GPGSA,A,3,10,08,05,02,26,28,04,07,,,,,1.58,1.32,0.87*02
$GPVTG,200.27,T,,M,0.06,N,0.12,K,A*3F
$SMGPS,-1.8 m,+0.13 m/s,5.67 VRx,0.00 km,3 m,204.8 °,1:-- (  0.0 km/h)*C2
$GPRMC,130845.000,A,4838.3213,N,00859.0296,E,0.22,200.27,090313,,,A*67
$GPGGA,130845.000,4838.3213,N,00859.0296,E,1,8,1.65,495.9,M,48.0,M,,*5D
$GPGSA,A,3,10,08,05,02,26,28,04,07,,,,,2.39,1.65,1.73*0E
$GPVTG,200.27,T,,M,0.10,N,0.19,K,A*33
$SMGPS,-1.8 m,+0.10 m/s,5.67 VRx,0.00 km,3 m,204.8 °,1:-- (  0.0 km/h)*C1
$GPRMC,130845.500,A,4838.3213,N,00859.0296,E,0.14,200.27,090313,,,A*67
$GPGGA,130845.500,4838.3213,N,00859.0296,E,1,8,1.32,495.8,M,48.0,M,,*5B
$GPGSA,A,3,10,08,05,02,26,28,04,07,,,,,1.58,1.32,0.87*02
$GPVTG,200.27,T,,M,0.09,N,0.16,K,A*34
$SMGPS,-1.9 m,-0.05 m/s,5.67 VRx,0.00 km,3 m,204.8 °,1:-- (  0.0 km/h)*C2
$GPRMC,130846.000,A,4838.3213,N,00859.0296,E,0.17,200.27,090313,,,A*62
$GPGGA,130846.000,4838.3213,N,00859.0296,E,1,8,1.65,495.8,M,48.0,M,,*5F
$GPGSA,A,3,10,08,05,02,26,28,04,07,,,,,2.39,1.65,1.73*0E
$GPVTG,200.27,T,,M,0.10,N,0.19,K,A*33
$SMGPS,-1.9 m,-0.07 m/s,5.67 VRx,0.00 km,3 m,204.8 °,1:-- (  0.0 km/h)*C0
$GPRMC,130846.500,A,4838.3213,N,00859.0296,E,0.43,200.27,090313,,,A*66
$GPGGA,130846.500,4838.3213,N,00859.0296,E,1,8,1.65,495.7,M,48.0,M,,*55
$GPGSA,A,3,10,08,05,02,26,28,04,07,,,,,2.39,1.65,1.73*0E
$GPVTG,200.27,T,,M,0.12,N,0.23,K,A*38
$SMGPS,-2.0 m,-0.21 m/s,5.67 VRx,0.00 km,3 m,204.8 °,1:-- (  0.0 km/h)*CE
$GPRMC,130847.000,A,4838.3214,N,00859.0296,E,0.30,200.27,090313,,,A*61
$GPGGA,130847.000,4838.3214,N,00859.0296,E,1,8,1.65,495.6,M,48.0,M,,*57
$GPGSA,A,3,10,08,05,02,26,28,04,07,,,,,2.39,1.65,1.73*0E
$GPVTG,200.27,T,,M,0.08,N,0.15,K,A*36
$SMGPS,-2.1 m,-0.15 m/s,5.67 VRx,0.00 km,3 m,204.8 °,1:-- (  0.0 km/h)*C8
$GPRMC,130847.500,A,4838.3214,N,00859.0296,E,0.17,200.27,090313,,,A*61
$GPGGA,130847.500,4838.3214,N,00859.0296,E,1,8,1.32,495.6,M,48.0,M,,*50
$GPGSA,A,3,10,08,05,02,26,28,04,07,,,,,1.58,1.32,0.87*02
$GPVTG,200.27,T,,M,0.06,N,0.10,K,A*3D
$SMGPS,-2.1 m,-0.08 m/s,5.67 VRx,0.00 km,3 m,204.8 °,1:-- (  0.0 km/h)*C4
$GPRMC,130848.000,A,4838.3214,N,00859.0296,E,0.29,200.27,090313,,,A*66
$GPGGA,130848.000,4838.3214,N,00859.0296,E,1,8,1.32,495.7,M,48.0,M,,*5B
$GPGSA,A,3,10,08,05,02,26,28,04,07,,,,,1.58,1.32,0.87*02
$GPVTG,200.27,T,,M,0.08,N,0.14,K,A*37
$SMGPS,-2.0 m,+0.15 m/s,5.67 VRx,0.00 km,3 m,204.8 °,1:-- (  0.0 km/h)*CF
$GPRMC,130848.500,A,4838.3214,N,00859.0296,E,0.23,200.27,090313,,,A*69
$GPGGA,130848.500,4838.3214,N,00859.0296,E,1,8,1.32,495.8,M,48.0,M,,*51
$GPGSA,A,3,10,08,05,02,26,28,04,07,,,,,1.58,1.32,0.87*02
$GPVTG,200.27,T,,M,0.11,N,0.21,K,A*39
$SMGPS,-1.9 m,+0.10 m/s,5.67 VRx,0.00 km,3 m,204.8 °,1:-- (  0.0 km/h)*C0
$GPRMC,130849.000,A,4838.3214,N,00859.0296,E,0.30,200.27,090313,,,A*6F
$GPGGA,130849.000,4838.3214,N,00859.0296,E,1,8,1.32,495.9,M,48.0,M,,*54
$GPGSA,A,3,10,08,05,02,26,28,04,07,,,,,1.58,1.32,0.87*02
$GPVTG,200.27,T,,M,0.13,N,0.25,K,A*3F
$SMGPS,-1.8 m,+0.14 m/s,5.67 VRx,0.00 km,3 m,204.8 °,1:-- (  0.0 km/h)*C5
$GPRMC,130849.500,A,4838.3213,N,00859.0296,E,0.34,200.27,090313,,,A*69
$GPGGA,130849.500,4838.3213,N,00859.0296,E,1,8,1.32,496.0,M,48.0,M,,*5C
$GPGSA,A,3,10,08,05,02,26,28,04,07,,,,,1.58,1.32,0.87*02
$GPVTG,200.27,T,,M,0.07,N,0.12,K,A*3E
$SMGPS,-1.7 m,+0.17 m/s,5.67 VRx,0.00 km,3 m,204.8 °,1:-- (  0.0 km/h)*C9
$GPRMC,130850.000,A,4838.3213,N,00859.0296,E,0.26,200.27,090313,,,A*67
$GPGGA,130850.000,4838.3213,N,00859.0296,E,1,8,1.32,496.0,M,48.0,M,,*51
$GPGSA,A,3,10,08,05,02,26,28,04,07,,,,,1.58,1.32,0.87*02
$GPVTG,200.27,T,,M,0.11,N,0.20,K,A*38
$SMGPS,-1.7 m,+0.12 m/s,5.67 VRx,0.00 km,3 m,204.8 °,1:-- (  0.0 km/h)*CC
$GPRMC,130850.500,A,4838.3213,N,00859.0296,E,0.43,200.27,090313,,,A*61
$GPGGA,130850.500,4838.3213,N,00859.0296,E,1,8,1.32,496.1,M,48.0,M,,*55
$GPGSA,A,3,10,08,05,02,26,28,04,07,,,,,1.58,1.32,0.87*02
$GPVTG,200.27,T,,M,0.16,N,0.30,K,A*3E
$SMGPS,-1.6 m,+0.20 m/s,5.67 VRx,0.00 km,3 m,204.8 °,1:-- (  0.0 km/h)*CC
$GPRMC,130851.000,A,4838.3213,N,00859.0296,E,0.23,200.27,090313,,,A*63
$GPGGA,130851.000,4838.3213,N,00859.0296,E,1,8,1.32,496.1,M,48.0,M,,*51
$GPGSA,A,3,10,08,05,02,26,28,04,07,,,,,1.58,1.32,0.87*02
$GPVTG,200.27,T,,M,0.22,N,0.40,K,A*3E
$SMGPS,-1.6 m,+0.04 m/s,5.67 VRx,0.00 km,3 m,204.8 °,1:-- (  0.0 km/h)*CA
$GPRMC,130851.500,A,4838.3213,N,00859.0296,E,0.27,200.27,090313,,,A*62
$GPGGA,130851.500,4838.3213,N,00859.0296,E,1,8,1.32,496.1,M,48.0,M,,*54
$GPGSA,A,3,10,08,05,02,26,28,04,07,,,,,1.58,1.32,0.87*02
$GPVTG,200.27,T,,M,0.19,N,0.35,K,A*34
$SMGPS,-1.6 m,+0.10 m/s,5.67 VRx,0.00 km,3 m,204.8 °,1:-- (  0.0 km/h)*CF
$GPRMC,130852.000,A,4838.3212,N,00859.0296,E,0.82,200.27,090313,,,A*6A
$GPGGA,130852.000,4838.3212,N,00859.0296,E,1,8,1.32,496.5,M,48.0,M,,*57
$GPGSA,A,3,10,08,05,02,26,28,04,07,,,,,1.58,1.32,0.87*02
$GPVTG,200.27,T,,M,0.21,N,0.39,K,A*33
$SMGPS,-1.2 m,+0.41 m/s,5.67 VRx,0.00 km,3 m,204.8 °,1:-- (  0.0 km/h)*CF
$GPRMC,130852.500,A,4838.3212,N,00859.0296,E,1.07,200.27,090313,,,A*63
$GPGGA,130852.500,4838.3212,N,00859.0296,E,1,8,1.32,496.8,M,48.0,M,,*5F
$GPGSA,A,3,10,08,05,02,26,28,04,07,,,,,1.58,1.32,0.87*02
$GPVTG,200.27,T,,M,0.19,N,0.35,K,A*34
$SMGPS,-0.9 m,+0.54 m/s,5.67 VRx,0.00 km,3 m,204.8 °,1:-- (  0.0 km/h)*C1
$GPRMC,130853.000,A,4838.3212,N,00859.0296,E,1.12,200.27,090313,,,A*63
$GPGGA,130853.000,4838.3212,N,00859.0296,E,1,8,1.32,497.1,M,48.0,M,,*53
$GPGSA,A,3,10,08,05,02,26,28,04,07,,,,,1.58,1.32,0.87*02
$GPVTG,200.27,T,,M,0.14,N,0.25,K,A*38
$SMGPS,-0.6 m,+0.57 m/s,5.67 VRx,0.00 km,3 m,204.8 °,1:-- (  0.0 km/h)*CD
$GPRMC,130853.500,A,4838.3212,N,00859.0296,E,1.01,200.27,090313,,,A*64
$GPGGA,130853.500,4838.3212,N,00859.0296,E,1,8,1.32,497.3,M,48.0,M,,*54
$GPGSA,A,3,10,08,05,02,26,28,04,07,,,,,1.58,1.32,0.87*02
$GPVTG,200.27,T,,M,0.06,N,0.11,K,A*3C
$SMGPS,-0.4 m,+0.52 m/s,5.67 VRx,0.00 km,2 m,204.8 °,1:-- (  0.0 km/h)*CB
$GPRMC,130854.000,A,4838.3212,N,00859.0296,E,0.83,200.27,090313,,,A*6D
$GPGGA,130854.000,4838.3212,N,00859.0296,E,1,8,1.32,497.5,M,48.0,M,,*50
$GPGSA,A,3,10,08,05,02,26,28,04,07,,,,,1.58,1.32,0.87*02
$GPVTG,200.27,T,,M,0.12,N,0.23,K,A*38
$SMGPS,-0.2 m,+0.42 m/s,5.67 VRx,0.00 km,2 m,204.8 °,1:-- (  0.0 km/h)*CC
$GPRMC,130854.500,A,4838.3212,N,00859.0296,E,0.32,200.27,090313,,,A*62
$GPGGA,130854.500,4838.3212,N,00859.0296,E,1,8,1.32,497.5,M,48.0,M,,*55
$GPGSA,A,3,10,08,05,02,26,28,04,07,,,,,1.58,1.32,0.87*02
$GPVTG,200.27,T,,M,0.07,N,0.12,K,A*3E
$SMGPS,-0.2 m,+0.16 m/s,5.67 VRx,0.00 km,2 m,204.8 °,1:-- (  0.0 km/h)*CD
$GPRMC,130855.000,A,4838.3212,N,00859.0296,E,0.10,200.27,090313,,,A*66
$GPGGA,130855.000,4838.3212,N,00859.0296,E,1,8,1.65,497.4,M,48.0,M,,*52
$GPGSA,A,3,10,08,05,02,26,28,04,07,,,,,2.39,1.65,1.73*0E
$GPVTG,200.27,T,,M,0.07,N,0.14,K,A*38
$SMGPS,-0.3 m,+0.03 m/s,5.67 VRx,0.00 km,2 m,204.8 °,1:-- (  0.0 km/h)*C8
$GPRMC,130855.500,A,4838.3212,N,00859.0296,E,0.49,200.27,090313,,,A*6F
$GPGGA,130855.500,4838.3212,N,00859.0296,E,1,8,1.65,497.6,M,48.0,M,,*55
$GPGSA,A,3,10,08,05,02,26,28,04,07,,,,,2.39,1.65,1.73*0E
$GPVTG,200.27,T,,M,0.02,N,0.04,K,A*3C
$SMGPS,-0.1 m,+0.25 m/s,5.67 VRx,0.00 km,2 m,204.8 °,1:-- (  0.0 km/h)*CE
$GPRMC,130856.000,A,4838.3212,N,00859.0296,E,0.23,200.27,090313,,,A*65
$GPGGA,130856.000,4838.3212,N,00859.0296,E,1,8,1.32,497.6,M,48.0,M,,*51
$GPGSA,A,3,10,08,05,02,26,28,04,07,,,,,1.58,1.32,0.87*02
$GPVTG,200.27,T,,M,0.06,N,0.11,K,A*3C
$SMGPS,-0.1 m,+0.11 m/s,5.67 VRx,0.00 km,2 m,204.8 °,1:-- (  0.0 km/h)*C9
$GPRMC,130856.500,A,4838.3212,N,00859.0296,E,0.08,200.27,090313,,,A*69
$GPGGA,130856.500,4838.3212,N,00859.0296,E,1,8,1.32,497.6,M,48.0,M,,*54
$GPGSA,A,3,10,08,05,02,26,28,04,07,,,,,1.58,1.32,0.87*02
$GPVTG,200.27,T,,M,0.08,N,0.15,K,A*36
$SMGPS,-0.1 m,+0.01 m/s,5.67 VRx,0.00 km,2 m,204.8 °,1:-- (  0.0 km/h)*C8
$GPRMC,130857.000,A,4838.3212,N,00859.0296,E,0.05,200.27,090313,,,A*60
$GPGGA,130857.000,4838.3212,N,00859.0296,E,1,8,1.32,497.6,M,48.0,M,,*50
$GPGSA,A,3,10,08,05,02,26,28,04,07,,,,,1.58,1.32,0.87*02
$GPVTG,200.27,T,,M,0.05,N,0.10,K,A*3E
$SMGPS,-0.1 m,-0.01 m/s,5.67 VRx,0.00 km,2 m,204.8 °,1:-- (  0.0 km/h)*CE
$GPRMC,130857.500,A,4838.3212,N,00859.0296,E,0.02,200.27,090313,,,A*62
$GPGGA,130857.500,4838.3212,N,00859.0296,E,1,8,1.65,497.6,M,48.0,M,,*57
$GPGSA,A,3,10,08,05,02,26,28,04,07,,,,,2.39,1.65,1.73*0E
$GPVTG,200.27,T,,M,0.02,N,0.04,K,A*3C
$SMGPS,-0.1 m,+0.00 m/s,5.67 VRx,0.00 km,2 m,204.8 °,1:-- (  0.0 km/h)*C9
$GPRMC,130858.000,A,4838.3212,N,00859.0296,E,0.30,200.27,090313,,,A*69
$GPGGA,130858.000,4838.3212,N,00859.0296,E,1,8,1.32,497.4,M,48.0,M,,*5D
$GPGSA,A,3,10,08,05,02,26,28,04,07,,,,,1.58,1.32,0.87*02
$GPVTG,200.27,T,,M,0.05,N,0.10,K,A*3E
$SMGPS,-0.3 m,-0.15 m/s,5.67 VRx,0.00 km,2 m,204.8 °,1:-- (  0.0 km/h)*C9
$GPRMC,130858.500,A,4838.3212,N,00859.0296,E,0.23,200.27,090313,,,A*6E
$GPGGA,130858.500,4838.3212,N,00859.0296,E,1,8,1.65,497.4,M,48.0,M,,*5A
$GPGSA,A,3,10,08,05,02,26,28,04,07,,,,,2.39,1.65,1.73*0E
$GPVTG,200.27,T,,M,0.02,N,0.04,K,A*3C
$SMGPS,-0.3 m,-0.12 m/s,5.67 VRx,0.00 km,2 m,204.8 °,1:-- (  0.0 km/h)*CE
$GPRMC,130859.000,A,4838.3212,N,00859.0296,E,0.44,200.27,090313,,,A*6B
$GPGGA,130859.000,4838.3212,N,00859.0296,E,1,8,1.65,497.6,M,48.0,M,,*5C
$GPGSA,A,3,10,08,05,02,26,28,04,07,,,,,2.39,1.65,1.74*09
$GPVTG,200.27,T,,M,0.04,N,0.07,K,A*39
$SMGPS,-0.1 m,+0.22 m/s,5.67 VRx,0.00 km,2 m,204.8 °,1:-- (  0.0 km/h)*C9
$GPRMC,130859.500,A,4838.3213,N,00859.0296,E,0.36,200.27,090313,,,A*6A
$GPGGA,130859.500,4838.3213,N,00859.0296,E,1,8,1.32,497.7,M,48.0,M,,*5B
$GPGSA,A,3,10,08,05,02,26,28,04,07,,,,,1.58,1.32,0.87*02
$GPVTG,200.27,T,,M,0.05,N,0.09,K,A*36
$SMGPS,-0.0 m,+0.18 m/s,5.67 VRx,0.00 km,2 m,204.8 °,1:-- (  0.0 km/h)*C1
$GPRMC,130900.000,A,4838.3213,N,00859.0296,E,0.25,200.27,090313,,,A*60
$GPGGA,130900.000,4838.3213,N,00859.0296,E,1,8,1.32,497.8,M,48.0,M,,*5C
$GPGSA,A,3,10,08,05,02,26,28,04,07,,,,,1.58,1.32,0.87*02
$GPVTG,200.27,T,,M,0.03,N,0.05,K,A*3C
$SMGPS,0.1 m,+0.13 m/s,5.67 VRx,0.00 km,2 m,204.8 °,1:-- (  0.0 km/h)*E6
$GPRMC,130900.500,A,4838.3213,N,00859.0296,E,0.07,200.27,090313,,,A*65
$GPGGA,130900.500,4838.3213,N,00859.0296,E,1,8,1.32,497.7,M,48.0,M,,*56
$GPGSA,A,3,10,08,05,02,26,28,04,07,,,,,1.58,1.32,0.87*02
$GPVTG,200.27,T,,M,0.04,N,0.07,K,A*39
$SMGPS,-0.0 m,-0.03 m/s,5.67 VRx,0.00 km,2 m,204.8 °,1:-- (  0.0 km/h)*CD
$GPRMC,130901.000,A,4838.3212,N,00859.0296,E,0.53,200.27,090313,,,A*61
$GPGGA,130901.000,4838.3212,N,00859.0296,E,1,8,1.32,497.5,M,48.0,M,,*51
$GPGSA,A,3,10,08,05,02,26,28,04,07,,,,,1.58,1.32,0.87*02
$GPVTG,200.27,T,,M,0.12,N,0.22,K,A*39
$SMGPS,-0.2 m,-0.26 m/s,5.67 VRx,0.00 km,2 m,204.8 °,1:-- (  0.0 km/h)*C8
$GPRMC,130901.500,A,4838.3212,N,00859.0296,E,0.41,200.27,090313,,,A*67
$GPGGA,130901.500,4838.3212,N,00859.0296,E,1,8,1.32,497.3,M,48.0,M,,*52
$GPGSA,A,3,10,08,05,02,26,28,04,07,,,,,1.58,1.32,0.87*02
$GPVTG,200.27,T,,M,0.08,N,0.15,K,A*36
$SMGPS,-0.4 m,-0.21 m/s,5.67 VRx,0.00 km,2 m,204.8 °,1:-- (  0.0 km/h)*C9
$GPRMC,130902.000,A,4838.3212,N,00859.0296,E,0.09,200.27,090313,,,A*6D
$GPGGA,130902.000,4838.3212,N,00859.0296,E,1,8,1.32,497.4,M,48.0,M,,*53
$GPGSA,A,3,10,08,05,02,26,28,04,07,,,,,1.58,1.32,0.87*02
$GPVTG,200.27,T,,M,0.08,N,0.15,K,A*36
$SMGPS,-0.3 m,+0.02 m/s,5.67 VRx,0.00 km,2 m,204.8 °,1:-- (  0.0 km/h)*C9
$GPRMC,130902.500,A,4838.3212,N,00859.0296,E,0.07,200.27,090313,,,A*66
$GPGGA,130902.500,4838.3212,N,00859.0296,E,1,8,1.32,497.5,M,48.0,M,,*57
$GPGSA,A,3,10,08,05,02,26,28,04,07,,,,,1.58,1.32,0.87*02
$GPVTG,200.27,T,,M,0.04,N,0.08,K,A*36
$SMGPS,-0.2 m,+0.03 m/s,5.67 VRx,0.00 km,2 m,204.8 °,1:-- (  0.0 km/h)*C9
$GPRMC,130903.000,A,4838.3212,N,00859.0296,E,0.44,200.27,090313,,,A*65
$GPGGA,130903.000,4838.3212,N,00859.0296,E,1,8,1.32,497.7,M,48.0,M,,*51
$GPGSA,A,3,10,08,05,02,26,28,04,07,,,,,1.58,1.32,0.87*02
$GPVTG,200.27,T,,M,0.02,N,0.04,K,A*3C
$SMGPS,-0.0 m,+0.22 m/s,5.67 VRx,0.00 km,2 m,204.8 °,1:-- (  0.0 km/h)*C8
$GPRMC,130903.500,A,4838.3212,N,00859.0296,E,0.40,200.27,090313,,,A*64
$GPGGA,130903.500,4838.3212,N,00859.0296,E,1,8,1.32,497.7,M,48.0,M,,*54
$GPGSA,A,3,10,08,05,02,26,28,04,07,,,,,1.58,1.32,0.87*02
$GPVTG,200.27,T,,M,0.18,N,0.33,K,A*33
$SMGPS,0.0 m,+0.18 m/s,5.67 VRx,0.00 km,2 m,204.8 °,1:-- (  0.0 km/h)*EC
$GPRMC,130904.000,A,4838.3212,N,00859.0296,E,0.34,200.27,090313,,,A*65
$GPGGA,130904.000,4838.3212,N,00859.0296,E,1,8,1.32,497.8,M,48.0,M,,*59
$GPGSA,A,3,10,08,05,02,26,28,04,07,,,,,1.58,1.32,0.87*02
$GPVTG,200.27,T,,M,0.16,N,0.30,K,A*3E
$SMGPS,0.1 m,+0.15 m/s,5.67 VRx,0.00 km,2 m,204.8 °,1:-- (  0.0 km/h)*E0
$GPRMC,130904.500,A,4838.3212,N,00859.0296,E,0.33,200.27,090313,,,A*67
$GPGGA,130904.500,4838.3212,N,00859.0296,E,1,8,1.32,497.9,M,48.0,M,,*5D
$GPGSA,A,3,10,08,05,02,26,28,04,07,,,,,1.58,1.32,0.87*02
$GPVTG,200.27,T,,M,0.15,N,0.27,K,A*3B
$SMGPS,0.2 m,+0.15 m/s,5.67 VRx,0.00 km,2 m,204.8 °,1:-- (  0.0 km/h)*E3
$GPRMC,130905.000,A,4838.3211,N,00859.0296,E,0.41,200.27,090313,,,A*65
$GPGGA,130905.000,4838.3211,N,00859.0296,E,1,8,1.32,497.9,M,48.0,M,,*5A
$GPGSA,A,3,10,08,05,02,26,28,04,07,,,,,1.58,1.32,0.87*02
$GPVTG,200.27,T,,M,0.34,N,0.63,K,A*38
$SMGPS,0.2 m,+0.12 m/s,5.67 VRx,0.00 km,2 m,204.8 °,1:-- (  0.0 km/h)*E4
$GPRMC,130905.500,A,4838.3211,N,00859.0296,E,0.74,200.27,090313,,,A*66
$GPGGA,130905.500,4838.3211,N,00859.0296,E,1,8,1.32,497.7,M,48.0,M,,*51
$GPGSA,A,3,10,08,05,02,26,28,04,07,,,,,1.58,1.32,0.87*02
$GPVTG,200.27,T,,M,0.62,N,1.16,K,A*38
$SMGPS,0.0 m,-0.21 m/s,5.67 VRx,0.00 km,2 m,204.8 °,1:-- (  0.0 km/h)*E0
$GPRMC,130906.000,A,4838.3210,N,00859.0296,E,0.84,200.27,090313,,,A*6E
$GPGGA,130906.000,4838.3210,N,00859.0296,E,1,8,1.32,497.9,M,48.0,M,,*58
$GPGSA,A,3,10,08,05,02,26,28,04,07,,,,,1.58,1.32,0.87*02
$GPVTG,200.27,T,,M,0.81,N,1.49,K,A*3F
$SMGPS,0.2 m,+0.11 m/s,5.67 VRx,0.00 km,2 m,204.8 °,1:-- (  0.0 km/h)*E7
$GPRMC,130906.500,A,4838.3209,N,00859.0296,E,1.51,200.27,090313,,,A*6A
$GPGGA,130906.500,4838.3209,N,00859.0296,E,1,8,1.32,498.0,M,48.0,M,,*53
$GPGSA,A,3,10,08,05,02,26,28,04,07,,,,,1.58,1.32,0.87*02
$GPVTG,200.27,T,,M,1.49,N,2.76,K,A*35
$SMGPS,0.3 m,+0.12 m/s,5.67 VRx,0.00 km,3 m,198.3 °,1:-- (  0.0 km/h)*E9
$GPRMC,130907.000,A,4838.3207,N,00859.0296,E,1.11,200.27,090313,,,A*64
$GPGGA,130907.000,4838.3207,N,00859.0296,E,1,8,1.32,498.2,M,48.0,M,,*5B
$GPGSA,A,3,10,08,05,02,26,28,04,07,,,,,1.58,1.32,0.87*02
$GPVTG,200.27,T,,M,1.00,N,1.85,K,A*37
$SMGPS,0.5 m,+0.25 m/s,5.67 VRx,0.00 km,3 m,198.3 °,1:-- (  0.0 km/h)*EB
$GPRMC,130907.500,A,4838.3206,N,00859.0296,E,1.28,200.27,090313,,,A*6A
$GPGGA,130907.500,4838.3206,N,00859.0296,E,1,8,1.32,497.7,M,48.0,M,,*55
$GPGSA,A,3,10,08,05,02,26,28,04,07,,,,,1.58,1.32,0.87*02
$GPVTG,200.27,T,,M,0.93,N,1.72,K,A*34
$SMGPS,0.0 m,-0.45 m/s,5.67 VRx,0.00 km,3 m,198.3 °,1:-- (  0.0 km/h)*EE
$GPRMC,130908.000,A,4838.3204,N,00859.0296,E,1.09,200.27,090313,,,A*61
$GPGGA,130908.000,4838.3204,N,00859.0296,E,1,8,1.32,497.8,M,48.0,M,,*52
$GPGSA,A,3,10,08,05,02,26,28,04,07,,,,,1.58,1.32,0.87*02
$GPVTG,200.27,T,,M,1.05,N,1.94,K,A*32
$SMGPS,0.1 m,-0.16 m/s,5.67 VRx,0.00 km,3 m,198.3 °,1:-- (  0.0 km/h)*E9
$GPRMC,130908.500,A,4838.3203,N,00859.0296,E,1.57,200.27,090313,,,A*68
$GPGGA,130908.500,4838.3203,N,00859.0296,E,1,8,1.32,497.7,M,48.0,M,,*5F
$GPGSA,A,3,10,08,05,02,26,28,04,07,,,,,1.58,1.32,0.87*02
$GPVTG,200.27,T,,M,1.56,N,2.90,K,A*33
$SMGPS,0.0 m,-0.10 m/s,5.67 VRx,0.00 km,4 m,194.4 °,1:-- (  0.0 km/h)*E2
$GPRMC,130909.000,A,4838.3201,N,00859.0295,E,1.17,200.27,090313,,,A*69
$GPGGA,130909.000,4838.3201,N,00859.0295,E,1,8,1.32,497.8,M,48.0,M,,*55
$GPGSA,A,3,10,08,05,02,26,28,04,07,,,,,1.58,1.32,0.87*02
$GPVTG,200.27,T,,M,1.17,N,2.18,K,A*36
$SMGPS,0.1 m,+0.04 m/s,5.67 VRx,0.00 km,4 m,194.4 °,1:-- (  0.0 km/h)*E0
$GPRMC,130909.500,A,4838.3199,N,00859.0295,E,1.50,200.27,090313,,,A*6D
$GPGGA,130909.500,4838.3199,N,00859.0295,E,1,8,1.32,497.6,M,48.0,M,,*5C
$GPGSA,A,3,10,08,05,02,26,28,04,07,,,,,1.58,1.32,0.87*02
$GPVTG,200.27,T,,M,1.42,N,2.64,K,A*3D
$SMGPS,-0.1 m,-0.24 m/s,5.67 VRx,0.00 km,4 m,196.4 °,1:-- (  0.0 km/h)*CB
$GPRMC,130910.000,A,4838.3197,N,00859.0295,E,1.83,200.27,090313,,,A*60
$GPGGA,130910.000,4838.3197,N,00859.0295,E,1,8,1.32,497.7,M,48.0,M,,*5E
$GPGSA,A,3,10,08,05,02,26,28,04,07,,,,,1.58,1.32,0.87*02
$GPVTG,200.27,T,,M,1.82,N,3.38,K,A*39
$SMGPS,0.0 m,+0.09 m/s,5.67 VRx,0.00 km,5 m,193.5 °,1:-- (  0.0 km/h)*EB
$GPRMC,130910.500,A,4838.3195,N,00859.0295,E,1.87,200.27,090313,,,A*63
$GPGGA,130910.500,4838.3195,N,00859.0295,E,1,8,1.32,498.1,M,48.0,M,,*50
$GPGSA,A,3,10,08,05,02,26,28,04,07,,,,,1.58,1.32,0.87*02
$GPVTG,200.27,T,,M,1.68,N,3.11,K,A*36
$SMGPS,0.4 m,+0.42 m/s,5.67 VRx,0.00 km,5 m,193.5 °,1:-- (  0.0 km/h)*E0
$GPRMC,130911.000,A,4838.3193,N,00859.0294,E,1.47,200.27,090313,,,A*6C
$GPGGA,130911.000,4838.3193,N,00859.0294,E,1,8,1.32,498.1,M,48.0,M,,*53
$GPGSA,A,3,10,08,05,02,26,28,04,07,,,,,1.58,1.32,0.87*02
$GPVTG,200.27,T,,M,1.44,N,2.67,K,A*38
$SMGPS,0.4 m,+0.14 m/s,5.67 VRx,0.01 km,6 m,191.5 °,1:-- (  0.0 km/h)*E3
$GPRMC,130911.500,A,4838.3191,N,00859.0294,E,1.54,200.27,090313,,,A*69
$GPGGA,130911.500,4838.3191,N,00859.0294,E,1,8,1.32,497.8,M,48.0,M,,*52
$GPGSA,A,3,10,08,05,02,26,28,04,07,,,,,1.58,1.32,0.87*02
$GPVTG,200.27,T,,M,1.48,N,2.75,K,A*37
$SMGPS,0.1 m,-0.22 m/s,5.67 VRx,0.01 km,6 m,192.2 °,1:-- (  0.0 km/h)*E1
$GPRMC,130912.000,A,4838.3189,N,00859.0293,E,1.97,200.27,090313,,,A*6E
$GPGGA,130912.000,4838.3189,N,00859.0293,E,1,8,1.32,498.0,M,48.0,M,,*5D
$GPGSA,A,3,10,08,05,02,26,28,04,07,,,,,1.58,1.32,0.87*02
$GPVTG,200.27,T,,M,1.97,N,3.65,K,A*35
$SMGPS,0.3 m,+0.05 m/s,5.67 VRx,0.01 km,6 m,192.2 °,1:-- (  0.0 km/h)*E0
$GPRMC,130912.500,A,4838.3186,N,00859.0292,E,1.56,192.24,090313,,,A*63
$GPGGA,130912.500,4838.3186,N,00859.0292,E,1,8,1.32,497.9,M,48.0,M,,*50
$GPGSA,A,3,10,08,05,02,26,28,04,07,,,,,1.58,1.32,0.87*02
$GPVTG,192.24,T,,M,1.56,N,2.90,K,A*38
$SMGPS,0.2 m,-0.04 m/s,5.67 VRx,0.01 km,7 m,191.8 °,1:-- (  0.0 km/h)*EE
$GPRMC,130913.000,A,4838.3184,N,00859.0292,E,1.60,191.73,090313,,,A*61
$GPGGA,130913.000,4838.3184,N,00859.0292,E,1,8,1.32,497.9,M,48.0,M,,*56
$GPGSA,A,3,10,08,05,02,26,28,04,07,,,,,1.58,1.32,0.87*02
$GPVTG,191.73,T,,M,1.59,N,2.95,K,A*33
$SMGPS,0.2 m,-0.09 m/s,5.67 VRx,0.01 km,8 m,190.9 °,1:-- (  0.0 km/h)*EC
$GPRMC,130913.500,A,4838.3182,N,00859.0291,E,1.67,194.22,090313,,,A*67
$GPGGA,130913.500,4838.3182,N,00859.0291,E,1,8,1.32,497.8,M,48.0,M,,*57
$GPGSA,A,3,10,08,05,02,26,28,04,07,,,,,1.58,1.32,0.87*02
$GPVTG,194.22,T,,M,1.66,N,3.08,K,A*3B
$SMGPS,0.1 m,-0.10 m/s,5.67 VRx,0.01 km,8 m,190.9 °,1:-- (  0.0 km/h)*E7
$GPRMC,130914.000,A,4838.3179,N,00859.0290,E,2.08,192.39,090313,,,A*66
$GPGGA,130914.000,4838.3179,N,00859.0290,E,1,8,1.32,497.8,M,48.0,M,,*50
$GPGSA,A,3,10,08,05,02,26,28,04,07,,,,,1.58,1.32,0.87*02
$GPVTG,192.39,T,,M,2.08,N,3.85,K,A*39
$SMGPS,0.1 m,-0.03 m/s,5.67 VRx,0.01 km,8 m,191.4 °,1:-- (  0.0 km/h)*E9
$GPRMC,130914.500,A,4838.3176,N,00859.0289,E,2.40,191.50,090313,,,A*64
$GPGGA,130914.500,4838.3176,N,00859.0289,E,1,8,1.32,497.6,M,48.0,M,,*5C
$GPGSA,A,3,10,08,05,02,26,28,04,07,,,,,1.58,1.32,0.87*02
$GPVTG,191.50,T,,M,2.37,N,4.39,K,A*39
$SMGPS,-0.1 m,-0.21 m/s,5.67 VRx,0.01 km,9 m,191.7 °,1:-- (  0.0 km/h)*C6
$GPRMC,130915.000,A,4838.3173,N,00859.0288,E,2.00,192.71,090313,,,A*60
$GPGGA,130915.000,4838.3173,N,00859.0288,E,1,8,1.32,497.3,M,48.0,M,,*59
$GPGSA,A,3,10,08,05,02,26,28,04,07,,,,,1.58,1.32,0.87*02
$GPVTG,192.71,T,,M,1.82,N,3.37,K,A*3D
$SMGPS,-0.4 m,-0.43 m/s,5.67 VRx,0.01 km,10 m,191.5 °,1:-- (  0.0 km/h)*FD
$GPRMC,130915.500,A,4838.3171,N,00859.0287,E,2.16,192.31,090313,,,A*6B
$GPGGA,130915.500,4838.3171,N,00859.0287,E,1,8,1.32,497.4,M,48.0,M,,*56
$GPGSA,A,3,10,08,05,02,26,28,04,07,,,,,1.58,1.32,0.87*02
$GPVTG,192.31,T,,M,2.15,N,3.99,K,A*30
$SMGPS,-0.3 m,-0.12 m/s,5.67 VRx,0.01 km,10 m,191.9 °,1:-- (  0.0 km/h)*F2
$GPRMC,130916.000,A,4838.3168,N,00859.0286,E,2.49,190.81,090313,,,A*67
$GPGGA,130916.000,4838.3168,N,00859.0286,E,1,8,1.32,497.5,M,48.0,M,,*58
$GPGSA,A,3,10,08,05,02,26,28,04,07,,,,,1.58,1.32,0.87*02
$GPVTG,190.81,T,,M,2.48,N,4.59,K,A*3A
$SMGPS,-0.2 m,+0.11 m/s,5.67 VRx,0.01 km,10 m,191.7 °,1:-- (  0.0 km/h)*F8
$GPRMC,130916.500,A,4838.3164,N,00859.0285,E,2.64,190.54,090313,,,A*6A
$GPGGA,130916.500,4838.3164,N,00859.0285,E,1,8,1.32,497.8,M,48.0,M,,*5F
$GPGSA,A,3,10,08,05,02,26,28,04,07,,,,,1.58,1.32,0.87*02
$GPVTG,190.54,T,,M,2.54,N,4.71,K,A*35
$SMGPS,0.1 m,+0.36 m/s,5.67 VRx,0.01 km,10 m,192.0 °,1:-- (  0.0 km/h)*D7
$GPRMC,130917.000,A,4838.3161,N,00859.0284,E,1.67,198.01,090313,,,A*62
$GPGGA,130917.000,4838.3161,N,00859.0284,E,1,8,1.32,497.7,M,48.0,M,,*50
$GPGSA,A,3,10,08,05,02,26,28,04,07,,,,,1.58,1.32,0.87*02
$GPVTG,198.01,T,,M,1.66,N,3.08,K,A*36
$SMGPS,-0.0 m,-0.07 m/s,5.67 VRx,0.01 km,11 m,191.8 °,1:-- (  0.0 km/h)*F5
$GPRMC,130917.500,A,4838.3159,N,00859.0283,E,1.86,201.43,090313,,,A*61
$GPGGA,130917.500,4838.3159,N,00859.0283,E,1,8,1.32,497.6,M,48.0,M,,*58
$GPGSA,A,3,10,08,05,02,26,28,04,07,,,,,1.58,1.32,0.87*02
$GPVTG,201.43,T,,M,1.85,N,3.43,K,A*31
$SMGPS,-0.1 m,-0.08 m/s,5.67 VRx,0.01 km,12 m,191.7 °,1:-- (  0.0 km/h)*F7
$GPRMC,130918.000,A,4838.3162,N,00859.0283,E,1.91,200.54,090313,,,A*62
$GPGGA,130918.000,4838.3162,N,00859.0283,E,1,8,1.32,497.6,M,48.0,M,,*5A
$GPGSA,A,3,10,08,05,02,26,28,04,07,,,,,1.58,1.32,0.87*02
$GPVTG,200.54,T,,M,1.90,N,3.53,K,A*33
$SMGPS,-0.1 m,-0.09 m/s,5.67 VRx,0.01 km,12 m,192.0 °,1:-- (  0.0 km/h)*F2
$GPRMC,130918.500,A,4838.3171,N,00859.0284,E,1.22,204.98,090313,,,A*6E
$GPGGA,130918.500,4838.3171,N,00859.0284,E,1,8,1.32,497.3,M,48.0,M,,*5F
$GPGSA,A,3,10,08,05,02,26,28,04,07,,,,,1.58,1.32,0.87*02
$GPVTG,204.98,T,,M,1.05,N,1.95,K,A*33
$SMGPS,-0.4 m,-0.32 m/s,5.67 VRx,0.01 km,11 m,192.9 °,1:-- (  0.0 km/h)*F5
$GPRMC,130919.000,A,4838.3175,N,00859.0284,E,1.12,208.93,090313,,,A*6A
$GPGGA,130919.000,4838.3175,N,00859.0284,E,1,8,1.32,497.1,M,48.0,M,,*5D
$GPGSA,A,3,10,08,05,02,26,28,04,07,,,,,1.58,1.32,0.87*02
$GPVTG,208.93,T,,M,0.98,N,1.82,K,A*37
$SMGPS,-0.6 m,-0.28 m/s,5.67 VRx,0.01 km,10 m,193.5 °,1:-- (  0.0 km/h)*F0
$GPRMC,130919.500,A,4838.3178,N,00859.0284,E,0.39,208.93,090313,,,A*6A
$GPGGA,130919.500,4838.3178,N,00859.0284,E,1,8,1.32,497.2,M,48.0,M,,*56
$GPGSA,A,3,10,08,05,02,26,28,04,07,,,,,1.58,1.32,0.87*02
$GPVTG,208.93,T,,M,0.39,N,0.72,K,A*32
$SMGPS,-0.5 m,+0.03 m/s,5.67 VRx,0.01 km,10 m,194.7 °,1:-- (  0.0 km/h)*F9
$GPRMC,130920.000,A,4838.3181,N,00859.0285,E,0.41,208.93,090313,,,A*6D
$GPGGA,130920.000,4838.3181,N,00859.0285,E,1,7,1.48,497.1,M,48.0,M,,*5F
$GPGSA,A,3,10,08,05,02,26,28,07,,,,,,1.72,1.48,0.87*03
$GPVTG,208.93,T,,M,0.37,N,0.68,K,A*37
$SMGPS,-0.6 m,-0.09 m/s,5.67 VRx,0.01 km,9 m,196.1 °,1:-- (  0.0 km/h)*CA
$GPRMC,130920.500,A,4838.3185,N,00859.0286,E,0.36,208.93,090313,,,A*6F
$GPGGA,130920.500,4838.3185,N,00859.0286,E,1,8,1.32,497.1,M,48.0,M,,*5F
$GPGSA,A,3,10,08,05,02,26,28,04,07,,,,,1.58,1.32,0.87*02
$GPVTG,208.93,T,,M,0.34,N,0.63,K,A*3F
$SMGPS,-0.6 m,-0.07 m/s,5.67 VRx,0.01 km,9 m,195.2 °,1:-- (  0.0 km/h)*C4
$GPRMC,130921.000,A,4838.3187,N,00859.0287,E,0.46,208.93,090313,,,A*6F
$GPGGA,130921.000,4838.3187,N,00859.0287,E,1,7,1.48,497.2,M,48.0,M,,*59
$GPGSA,A,3,10,08,05,02,26,28,07,,,,,,1.72,1.48,0.87*03
$GPVTG,208.93,T,,M,0.40,N,0.75,K,A*3B
$SMGPS,-0.5 m,+0.11 m/s,5.67 VRx,0.01 km,8 m,195.9 °,1:-- (  0.0 km/h)*CC
$GPRMC,130921.500,A,4838.3189,N,00859.0288,E,0.66,208.93,090313,,,A*69
$GPGGA,130921.500,4838.3189,N,00859.0288,E,1,7,1.48,497.0,M,48.0,M,,*5F
$GPGSA,A,3,10,08,05,02,26,28,07,,,,,,1.72,1.48,0.87*03
$GPVTG,208.93,T,,M,0.40,N,0.74,K,A*3A
$SMGPS,-0.7 m,-0.27 m/s,5.67 VRx,0.01 km,7 m,198.3 °,1:-- (  0.0 km/h)*C5
