$GPSSETUP,375B,2,2,1,0,4,0,1,0,0,1,3,0,0,0,0,1C,11,12C,C8,1F4,1E0,32,64,7C,64,7D0,5,0,0,A,0,0,0,0,0,0,8,B,9,7,A,F,10,10,10,10,10,10,10,10,E,0,77,0,0,0,0,0,0,0,0,0,0,0,0,0,0,0,0,0,0,0,0,0,0,0,0,0,0,0,0,0,0,0,0,0,0,0,0,0,0,0,20,1,C9AA*35
$GPRMC,115325.000,A,4845.2659,N,00942.1125,E,2.65,36.66,311017,,,A*53
$GPGGA,115325.000,4845.2659,N,00942.1125,E,1,10,0.90,432.1,M,48.0,M,,*60
$GPGSA,A,3,14,17,23,22,11,19,03,01,32,31,,,1.21,0.90,0.81*0B
$GPVTG,36.66,T,,M,2.63,N,4.87,K,A*04
$UL2,2012-01-01,0:00:00.0,0.41,12.439,0.000,0.62,0.07,0.00,0.0,5.602,0.1,0.1,,,,,,,,,,976.72,25.4,0.0,0.0,0,0,0*00
$SMGPS,0.1 m,+0.18 m/s,5.61 VRx,0.000 km,22 m,12.9 °,1:-- (  0.0 km/h)*DD
$GPRMC,115325.500,A,4845.2662,N,00942.1128,E,2.69,35.29,311017,,,A*57
$GPGGA,115325.500,4845.2662,N,00942.1128,E,1,10,0.90,432.2,M,48.0,M,,*63
$GPGSA,A,3,14,17,23,22,11,19,03,01,32,31,,,1.21,0.90,0.81*0B
$GPVTG,35.29,T,,M,2.64,N,4.88,K,A*04
$UL2,2012-01-01,0:00:00.0,0.88,12.439,0.000,0.70,0.04,0.00,0.0,5.602,0.1,0.1,,,,,,,,,,976.72,25.4,0.0,0.0,0,0,0*05
$SMGPS,0.2 m,+0.26 m/s,5.62 VRx,0.002 km,22 m,13.6 °,1:-- (  0.0 km/h)*DC
$GPRMC,115326.000,A,4845.2665,N,00942.1132,E,2.64,37.26,311017,,,A*5D
$GPGGA,115326.000,4845.2665,N,00942.1132,E,1,10,0.90,432.2,M,48.0,M,,*69
$GPGSA,A,3,14,17,23,22,11,19,03,01,32,31,,,1.21,0.90,0.81*0B
$GPVTG,37.26,T,,M,2.61,N,4.84,K,A*00
$UL2,2012-01-01,0:00:00.0,0.32,12.439,0.000,0.86,0.10,0.00,0.0,5.602,0.1,0.1,,,,,,,,,,976.71,25.4,0.0,0.0,0,0,0*0B
$SMGPS,0.2 m,+0.21 m/s,5.62 VRx,0.003 km,24 m,13.7 °,1:-- (  0.0 km/h)*DD
$GPRMC,115326.500,A,4845.2668,N,00942.1134,E,2.38,29.96,311017,,,A*5E
$GPGGA,115326.500,4845.2668,N,00942.1134,E,1,10,0.90,432.1,M,48.0,M,,*64
$GPGSA,A,3,14,17,23,22,11,19,03,01,32,31,,,1.21,0.90,0.81*0B
$GPVTG,29.96,T,,M,2.38,N,4.41,K,A*01
$UL2,2012-01-01,0:00:00.0,0.88,12.439,0.000,0.86,0.14,0.00,0.0,5.602,0.1,0.1,,,,,,,,,,976.70,25.4,0.0,0.0,0,0,0*0F
$SMGPS,0.1 m,+0.02 m/s,5.62 VRx,0.004 km,24 m,14.5 °,1:-- (  0.0 km/h)*DD
$GPRMC,115327.000,A,4845.2672,N,00942.1137,E,2.60,31.56,311017,,,A*5A
$GPGGA,115327.000,4845.2672,N,00942.1137,E,1,10,0.90,432.1,M,48.0,M,,*68
$GPGSA,A,3,14,17,23,22,11,19,03,01,32,31,,,1.21,0.90,0.81*0B
$GPVTG,31.56,T,,M,2.59,N,4.80,K,A*0E
$UL2,2012-01-01,0:00:00.0,0.33,12.439,0.000,0.90,0.12,0.00,0.0,5.602,0.1,0.1,,,,,,,,,,976.70,25.4,0.0,0.0,0,0,0*0E
$SMGPS,0.1 m,-0.12 m/s,5.62 VRx,0.004 km,25 m,15.3 °,1:-- (  0.0 km/h)*DC
$GPRMC,115327.500,A,4845.2675,N,00942.1139,E,2.38,33.28,311017,,,A*50
$GPGGA,115327.500,4845.2675,N,00942.1139,E,1,10,0.90,432.1,M,48.0,M,,*64
$GPGSA,A,3,14,17,23,22,11,19,03,01,32,31,,,1.21,0.90,0.81*0B
$GPVTG,33.28,T,,M,2.38,N,4.41,K,A*0F
$UL2,2012-01-01,0:00:00.0,0.89,12.439,0.000,0.99,0.11,0.00,0.0,5.602,0.1,0.1,,,,,,,,,,976.69,25.4,0.0,0.0,0,0,0*0D
$SMGPS,0.1 m,-0.06 m/s,5.62 VRx,0.005 km,25 m,15.8 °,1:-- (  0.0 km/h)*D3
$GPRMC,115328.000,A,4845.2678,N,00942.1141,E,2.42,27.01,311017,,,A*5B
$GPGGA,115328.000,4845.2678,N,00942.1141,E,1,10,0.90,432.1,M,48.0,M,,*6C
$GPGSA,A,3,14,17,23,22,11,19,03,01,32,31,,,1.21,0.90,0.81*0B
$GPVTG,27.01,T,,M,2.42,N,4.48,K,A*05
$UL2,2012-01-01,0:00:00.0,0.34,12.439,0.000,1.04,0.11,0.00,0.0,5.602,0.1,0.1,,,,,,,,,,976.68,25.5,0.0,0.0,0,0,0*0E
$SMGPS,0.1 m,-0.00 m/s,5.62 VRx,0.006 km,26 m,16.0 °,1:-- (  0.0 km/h)*DE
$GPRMC,115328.500,A,4845.2682,N,00942.1144,E,2.50,32.68,311017,,,A*56
$GPGGA,115328.500,4845.2682,N,00942.1144,E,1,10,0.90,432.1,M,48.0,M,,*69
$GPGSA,A,3,14,17,23,22,11,19,03,01,32,31,,,1.21,0.90,0.81*0B
$GPVTG,32.68,T,,M,2.49,N,4.61,K,A*0E
$UL2,2012-01-01,0:00:00.0,0.89,12.439,0.000,1.16,0.17,0.00,0.0,5.602,0.1,0.1,,,,,,,,,,976.67,25.4,0.0,0.0,0,0,0*03
$SMGPS,0.1 m,+0.09 m/s,5.62 VRx,0.006 km,27 m,16.1 °,1:-- (  0.0 km/h)*D1
$GPRMC,115329.000,A,4845.2685,N,00942.1146,E,2.67,27.43,311017,,,A*5E
$GPGGA,115329.000,4845.2685,N,00942.1146,E,1,10,0.90,432.1,M,48.0,M,,*68
$GPGSA,A,3,14,17,23,22,11,19,03,01,32,31,,,1.21,0.90,0.81*0B
$GPVTG,27.43,T,,M,2.66,N,4.93,K,A*03
$UL2,2012-01-01,0:00:00.0,0.35,12.439,0.000,1.15,0.13,0.00,0.0,5.602,0.1,0.1,,,,,,,,,,976.67,25.5,0.0,0.0,0,0,0*02
$SMGPS,0.1 m,+0.13 m/s,5.62 VRx,0.007 km,27 m,16.5 °,1:-- (  0.0 km/h)*DF
$GPRMC,115329.500,A,4845.2689,N,00942.1148,E,2.72,29.90,311017,,,A*5D
$GPGGA,115329.500,4845.2689,N,00942.1148,E,1,10,0.90,432.3,M,48.0,M,,*6D
$GPGSA,A,3,14,17,23,22,11,19,03,01,32,31,,,1.21,0.90,0.81*0B
$GPVTG,29.90,T,,M,2.69,N,4.98,K,A*07
$UL2,2012-01-01,0:00:00.0,0.90,12.439,0.000,1.16,0.11,0.00,0.0,5.602,0.1,0.1,,,,,,,,,,976.66,25.5,0.0,0.0,0,0,0*0D
$SMGPS,0.3 m,+0.22 m/s,5.61 VRx,0.008 km,28 m,16.7 °,1:-- (  0.0 km/h)*DE
$GPRMC,115330.000,A,4845.2692,N,00942.1151,E,2.75,25.83,311017,,,A*5B
$GPGGA,115330.000,4845.2692,N,00942.1151,E,1,10,0.90,432.5,M,48.0,M,,*64
$GPGSA,A,3,14,17,23,22,11,19,03,01,32,31,,,1.21,0.90,0.81*0B
$GPVTG,25.83,T,,M,2.65,N,4.91,K,A*0C
$UL2,2012-01-01,0:00:00.0,0.36,12.439,0.000,1.33,0.11,0.00,0.0,5.602,0.1,0.1,,,,,,,,,,976.66,25.5,0.0,0.0,0,0,0*06
$SMGPS,0.5 m,+0.37 m/s,5.62 VRx,0.009 km,29 m,16.8 °,1:-- (  0.0 km/h)*D0
$GPRMC,115330.500,A,4845.2696,N,00942.1153,E,2.78,28.29,311017,,,A*58
$GPGGA,115330.500,4845.2696,N,00942.1153,E,1,10,0.90,432.6,M,48.0,M,,*64
$GPGSA,A,3,14,17,23,22,11,19,03,01,32,31,,,1.21,0.90,0.81*0B
$GPVTG,28.29,T,,M,2.70,N,5.01,K,A*0D
$UL2,2012-01-01,0:00:00.0,0.90,12.439,0.000,1.41,0.18,0.00,0.0,5.602,0.1,0.1,,,,,,,,,,976.64,25.5,0.0,0.0,0,0,0*04
$SMGPS,0.6 m,+0.35 m/s,5.61 VRx,0.009 km,30 m,16.8 °,1:-- (  0.0 km/h)*DA
$GPRMC,115331.000,A,4845.2699,N,00942.1156,E,2.66,32.83,311017,,,A*52
$GPGGA,115331.000,4845.2699,N,00942.1156,E,1,10,0.90,432.6,M,48.0,M,,*6A
$GPGSA,A,3,14,17,23,22,11,19,03,01,32,31,,,1.21,0.90,0.81*0B
$GPVTG,32.83,T,,M,2.64,N,4.90,K,A*0A
$UL2,2012-01-01,0:00:00.0,0.36,12.439,0.000,1.45,0.15,0.00,0.0,5.602,0.1,0.1,,,,,,,,,,976.64,25.5,0.0,0.0,0,0,0*01
$SMGPS,0.6 m,+0.15 m/s,5.62 VRx,0.010 km,30 m,17.5 °,1:-- (  0.0 km/h)*DF
$GPRMC,115331.500,A,4845.2702,N,00942.1159,E,2.71,35.26,311017,,,A*55
$GPGGA,115331.500,4845.2702,N,00942.1159,E,1,10,0.90,432.5,M,48.0,M,,*60
$GPGSA,A,3,14,17,23,22,11,19,03,01,32,31,,,1.21,0.90,0.81*0B
$GPVTG,35.26,T,,M,2.71,N,5.02,K,A*0C
$UL2,2012-01-01,0:00:00.0,0.91,12.439,0.000,1.47,0.10,0.00,0.0,5.602,0.1,0.1,,,,,,,,,,976.63,25.5,0.0,0.0,0,0,0*0C
$SMGPS,0.5 m,-0.05 m/s,5.61 VRx,0.011 km,31 m,17.1 °,1:-- (  0.0 km/h)*DC
$GPRMC,115332.000,A,4845.2705,N,00942.1163,E,2.73,40.69,311017,,,A*56
$GPGGA,115332.000,4845.2705,N,00942.1163,E,1,10,0.90,432.4,M,48.0,M,,*69
$GPGSA,A,3,14,17,23,22,11,19,03,01,32,31,,,1.21,0.90,0.81*0B
$GPVTG,40.69,T,,M,2.73,N,5.06,K,A*03
$UL2,2012-01-01,0:00:00.0,0.37,12.439,0.000,1.65,0.08,0.00,0.0,5.602,0.1,0.1,,,,,,,,,,976.63,25.5,0.0,0.0,0,0,0*09
$SMGPS,0.4 m,-0.08 m/s,5.62 VRx,0.011 km,32 m,17.3 °,1:-- (  0.0 km/h)*D2
$GPRMC,115332.500,A,4845.2708,N,00942.1167,E,2.74,36.59,311017,,,A*5F
$GPGGA,115332.500,4845.2708,N,00942.1167,E,1,10,0.90,432.4,M,48.0,M,,*65
$GPGSA,A,3,14,17,23,22,11,19,03,01,32,31,,,1.21,0.90,0.81*0B
$GPVTG,36.59,T,,M,2.74,N,5.08,K,A*08
$UL2,2012-01-01,0:00:00.0,0.92,12.439,0.000,1.50,0.13,0.00,0.0,5.602,0.1,0.1,,,,,,,,,,976.62,25.5,0.0,0.0,0,0,0*0B
$SMGPS,0.4 m,-0.06 m/s,5.61 VRx,0.012 km,32 m,18.0 °,1:-- (  0.0 km/h)*D0
$GPRMC,115333.000,A,4845.2711,N,00942.1170,E,2.72,41.25,311017,,,A*58
$GPGGA,115333.000,4845.2711,N,00942.1170,E,1,10,0.90,432.5,M,48.0,M,,*6E
$GPGSA,A,3,14,17,23,22,11,19,03,01,32,31,,,1.21,0.90,0.81*0B
$GPVTG,41.25,T,,M,2.72,N,5.05,K,A*08
$UL2,2012-01-01,0:00:00.0,0.37,12.439,0.000,1.66,0.12,0.00,0.0,5.602,0.1,0.1,,,,,,,,,,976.61,25.5,0.0,0.0,0,0,0*03
$SMGPS,0.5 m,+0.03 m/s,5.62 VRx,0.013 km,33 m,18.2 °,1:-- (  0.0 km/h)*D3
$GPRMC,115333.500,A,4845.2714,N,00942.1173,E,2.45,39.18,311017,,,A*5E
$GPGGA,115333.500,4845.2714,N,00942.1173,E,1,10,0.90,432.4,M,48.0,M,,*6C
$GPGSA,A,3,14,17,23,22,11,19,03,01,32,31,,,1.21,0.90,0.81*0B
$GPVTG,39.18,T,,M,2.44,N,4.53,K,A*0E
$UL2,2012-01-01,0:00:00.0,0.82,12.439,0.000,1.87,0.20,0.00,0.0,5.602,0.1,0.1,,,,,,,,,,976.60,25.5,0.0,0.0,0,0,0*02
$SMGPS,0.4 m,+0.11 m/s,5.61 VRx,0.014 km,34 m,18.7 °,1:-- (  0.0 km/h)*D7
$GPRMC,115334.000,A,4845.2716,N,00942.1177,E,2.43,38.82,311017,,,A*5E
$GPGGA,115334.000,4845.2716,N,00942.1177,E,1,10,0.90,432.2,M,48.0,M,,*6E
$GPGSA,A,3,14,17,23,22,11,19,03,01,32,31,,,1.21,0.90,0.81*0B
$GPVTG,38.82,T,,M,2.43,N,4.50,K,A*08
$UL2,2012-01-01,0:00:00.0,0.37,12.439,0.000,1.66,0.14,0.00,0.0,5.602,0.1,0.1,,,,,,,,,,976.59,25.5,0.0,0.0,0,0,0*0E
$SMGPS,0.2 m,+0.05 m/s,5.62 VRx,0.015 km,34 m,19.3 °,1:-- (  0.0 km/h)*D3
$GPRMC,115334.500,A,4845.2719,N,00942.1180,E,2.48,41.45,311017,,,A*52
$GPGGA,115334.500,4845.2719,N,00942.1180,E,1,10,0.90,432.2,M,48.0,M,,*6C
$GPGSA,A,3,14,17,23,22,11,19,03,01,32,31,,,1.21,0.90,0.81*0B
$GPVTG,41.45,T,,M,2.48,N,4.60,K,A*05
$UL2,2012-01-01,0:00:00.0,0.83,12.439,0.000,1.79,0.07,0.00,0.0,5.602,0.1,0.1,,,,,,,,,,976.59,25.6,0.0,0.0,0,0,0*0E
$SMGPS,0.2 m,+0.05 m/s,5.61 VRx,0.015 km,35 m,19.3 °,1:-- (  0.0 km/h)*D1
$GPRMC,115335.000,A,4845.2722,N,00942.1183,E,2.69,35.76,311017,,,A*5D
$GPGGA,115335.000,4845.2722,N,00942.1183,E,1,10,0.90,432.2,M,48.0,M,,*63
$GPGSA,A,3,14,17,23,22,11,19,03,01,32,31,,,1.21,0.90,0.81*0B
$GPVTG,35.76,T,,M,2.68,N,4.96,K,A*0D
$UL2,2012-01-01,0:00:00.0,0.38,12.439,0.000,1.83,0.07,0.00,0.0,5.602,0.1,0.1,,,,,,,,,,976.59,25.6,0.0,0.0,0,0,0*0B
$SMGPS,0.2 m,+0.12 m/s,5.62 VRx,0.016 km,35 m,20.1 °,1:-- (  0.0 km/h)*DF
$GPRMC,115335.500,A,4845.2725,N,00942.1187,E,2.67,40.94,311017,,,A*5B
$GPGGA,115335.500,4845.2725,N,00942.1187,E,1,10,0.90,432.2,M,48.0,M,,*65
$GPGSA,A,3,14,17,23,22,11,19,03,01,32,31,,,1.21,0.90,0.81*0B
$GPVTG,40.94,T,,M,2.65,N,4.91,K,A*09
$UL2,2012-01-01,0:00:00.0,0.83,12.439,0.000,1.84,0.09,0.00,0.0,5.602,0.1,0.1,,,,,,,,,,976.58,25.6,0.0,0.0,0,0,0*03
$SMGPS,0.2 m,+0.16 m/s,5.61 VRx,0.016 km,36 m,20.2 °,1:-- (  0.0 km/h)*D8
$GPRMC,115336.000,A,4845.2728,N,00942.1190,E,2.62,34.61,311017,,,A*5A
$GPGGA,115336.000,4845.2728,N,00942.1190,E,1,10,0.90,432.2,M,48.0,M,,*68
$GPGSA,A,3,14,17,23,22,11,19,03,01,32,31,,,1.21,0.90,0.81*0B
$GPVTG,34.61,T,,M,2.59,N,4.80,K,A*0F
$UL2,2012-01-01,0:00:00.0,0.39,12.439,0.000,1.95,0.24,0.00,0.0,5.602,0.1,0.1,,,,,,,,,,976.56,25.5,0.0,0.0,0,0,0*00
$SMGPS,0.2 m,+0.21 m/s,5.62 VRx,0.017 km,36 m,20.7 °,1:-- (  0.0 km/h)*DB
$GPRMC,115336.500,A,4845.2731,N,00942.1193,E,2.61,38.26,311017,,,A*58
$GPGGA,115336.500,4845.2731,N,00942.1193,E,1,10,0.90,432.3,M,48.0,M,,*67
$GPGSA,A,3,14,17,23,22,11,19,03,01,32,31,,,1.21,0.90,0.81*0B
$GPVTG,38.26,T,,M,2.59,N,4.81,K,A*01
$UL2,2012-01-01,0:00:00.0,0.84,12.439,0.000,2.03,0.10,0.00,0.0,5.602,0.1,0.1,,,,,,,,,,976.56,25.6,0.0,0.0,0,0,0*0E
$SMGPS,0.3 m,+0.18 m/s,5.61 VRx,0.019 km,37 m,21.0 °,1:-- (  0.0 km/h)*DA
$GPRMC,115337.000,A,4845.2734,N,00942.1196,E,2.55,34.42,311017,,,A*55
$GPGGA,115337.000,4845.2734,N,00942.1196,E,1,10,0.90,432.4,M,48.0,M,,*64
$GPGSA,A,3,14,17,23,22,11,19,03,01,32,31,,,1.21,0.90,0.81*0B
$GPVTG,34.42,T,,M,2.53,N,4.68,K,A*02
$UL2,2012-01-01,0:00:00.0,0.41,12.439,0.000,2.11,0.10,0.00,0.0,5.602,0.1,0.1,,,,,,,,,,976.55,25.6,0.0,0.0,0,0,0*07
$SMGPS,0.4 m,+0.16 m/s,5.62 VRx,0.019 km,38 m,20.8 °,1:-- (  0.0 km/h)*D6
$GPRMC,115337.500,A,4845.2738,N,00942.1199,E,2.59,30.13,311017,,,A*5F
$GPGGA,115337.500,4845.2738,N,00942.1199,E,1,10,0.90,432.5,M,48.0,M,,*63
$GPGSA,A,3,14,17,23,22,11,19,03,01,32,31,,,1.21,0.90,0.81*0B
$GPVTG,30.13,T,,M,2.56,N,4.75,K,A*0B
$UL2,2012-01-01,0:00:00.0,0.84,12.439,0.000,2.27,0.13,0.00,0.0,5.602,0.1,0.1,,,,,,,,,,976.55,25.6,0.0,0.0,0,0,0*08
$SMGPS,0.5 m,+0.19 m/s,5.61 VRx,0.020 km,39 m,21.4 °,1:-- (  0.0 km/h)*DD
$GPRMC,115338.000,A,4845.2741,N,00942.1203,E,2.56,36.54,311017,,,A*51
$GPGGA,115338.000,4845.2741,N,00942.1203,E,1,10,0.90,432.5,M,48.0,M,,*67
$GPGSA,A,3,14,17,23,22,11,19,03,01,32,31,,,1.21,0.90,0.81*0B
$GPVTG,36.54,T,,M,2.55,N,4.72,K,A*0A
$UL2,2012-01-01,0:00:00.0,0.41,12.439,0.000,2.26,0.15,0.00,0.0,5.602,0.1,0.1,,,,,,,,,,976.54,25.6,0.0,0.0,0,0,0*07
$SMGPS,0.5 m,+0.12 m/s,5.62 VRx,0.021 km,40 m,21.4 °,1:-- (  0.0 km/h)*DA
$GPRMC,115338.500,A,4845.2745,N,00942.1206,E,2.58,33.94,311017,,,A*52
$GPGGA,115338.500,4845.2745,N,00942.1206,E,1,10,0.90,432.5,M,48.0,M,,*63
$GPGSA,A,3,14,17,23,22,11,19,03,01,32,31,,,1.21,0.90,0.81*0B
$GPVTG,33.94,T,,M,2.58,N,4.79,K,A*05
$UL2,2012-01-01,0:00:00.0,0.85,12.439,0.000,2.26,0.10,0.00,0.0,5.602,0.1,0.1,,,,,,,,,,976.53,25.6,0.0,0.0,0,0,0*0D
$SMGPS,0.5 m,-0.01 m/s,5.61 VRx,0.022 km,40 m,21.4 °,1:-- (  0.0 km/h)*DE
$GPRMC,115339.000,A,4845.2748,N,00942.1209,E,2.59,41.11,311017,,,A*5D
$GPGGA,115339.000,4845.2748,N,00942.1209,E,1,10,0.90,432.6,M,48.0,M,,*66
$GPGSA,A,3,14,17,23,22,11,19,03,01,32,31,,,1.21,0.90,0.81*0B
$GPVTG,41.11,T,,M,2.59,N,4.80,K,A*0A
$UL2,2012-01-01,0:00:00.0,0.31,12.439,0.000,2.39,0.11,0.00,0.0,5.602,0.1,0.1,,,,,,,,,,976.53,25.6,0.0,0.0,0,0,0*0D
$SMGPS,0.6 m,+0.05 m/s,5.62 VRx,0.023 km,41 m,22.1 °,1:-- (  0.0 km/h)*DA
$GPRMC,115339.500,A,4845.2751,N,00942.1212,E,2.60,33.99,311017,,,A*55
$GPGGA,115339.500,4845.2751,N,00942.1212,E,1,10,0.90,432.7,M,48.0,M,,*60
$GPGSA,A,3,14,17,23,22,11,19,03,01,32,31,,,1.21,0.90,0.81*0B
$GPVTG,33.99,T,,M,2.57,N,4.77,K,A*09
$UL2,2012-01-01,0:00:00.0,0.86,12.439,0.000,2.51,0.14,0.00,0.0,5.602,0.1,0.1,,,,,,,,,,976.52,25.6,0.0,0.0,0,0,0*0B
$SMGPS,0.7 m,+0.19 m/s,5.61 VRx,0.023 km,42 m,22.1 °,1:-- (  0.0 km/h)*D6
$GPRMC,115340.000,A,4845.2754,N,00942.1215,E,2.56,32.38,311017,,,A*53
$GPGGA,115340.000,4845.2754,N,00942.1215,E,1,10,0.90,432.6,M,48.0,M,,*68
$GPGSA,A,3,14,17,23,22,11,19,03,01,32,31,,,1.21,0.90,0.81*0B
$GPVTG,32.38,T,,M,2.54,N,4.71,K,A*06
$UL2,2012-01-01,0:00:00.0,0.31,12.439,0.000,2.51,0.16,0.00,0.0,5.602,0.1,0.1,,,,,,,,,,976.51,25.6,0.0,0.0,0,0,0*06
$SMGPS,0.6 m,+0.17 m/s,5.62 VRx,0.024 km,42 m,22.1 °,1:-- (  0.0 km/h)*DD
$GPRMC,115340.500,A,4845.2757,N,00942.1218,E,2.51,28.90,311017,,,A*56
$GPGGA,115340.500,4845.2757,N,00942.1218,E,1,10,0.90,432.4,M,48.0,M,,*61
$GPGSA,A,3,14,17,23,22,11,19,03,01,32,31,,,1.21,0.90,0.81*0B
$GPVTG,28.90,T,,M,2.51,N,4.65,K,A*0F
$UL2,2012-01-01,0:00:00.0,0.87,12.439,0.000,2.45,0.11,0.00,0.0,5.602,0.1,0.1,,,,,,,,,,976.50,25.6,0.0,0.0,0,0,0*08
$SMGPS,0.4 m,+0.03 m/s,5.61 VRx,0.025 km,43 m,22.7 °,1:-- (  0.0 km/h)*DF
$GPRMC,115341.000,A,4845.2760,N,00942.1221,E,2.53,21.06,311017,,,A*58
$GPGGA,115341.000,4845.2760,N,00942.1221,E,1,10,0.90,432.2,M,48.0,M,,*6D
$GPGSA,A,3,14,17,23,22,11,19,03,01,32,31,,,1.21,0.90,0.81*0B
$GPVTG,21.06,T,,M,2.53,N,4.68,K,A*06
$UL2,2012-01-01,0:00:00.0,0.31,12.439,0.000,2.46,0.01,0.00,0.0,5.602,0.1,0.1,,,,,,,,,,976.50,25.6,0.0,0.0,0,0,0*07
$SMGPS,0.2 m,-0.01 m/s,5.62 VRx,0.026 km,44 m,22.7 °,1:-- (  0.0 km/h)*DA
$GPRMC,115341.500,A,4845.2764,N,00942.1222,E,2.55,22.69,311017,,,A*56
$GPGGA,115341.500,4845.2764,N,00942.1222,E,1,10,0.90,432.1,M,48.0,M,,*6C
$GPGSA,A,3,14,17,23,22,11,19,03,01,32,31,,,1.21,0.90,0.81*0B
$GPVTG,22.69,T,,M,2.54,N,4.71,K,A*03
$UL2,2012-01-01,0:00:00.0,0.89,12.439,0.000,2.52,0.02,0.00,0.0,5.602,0.1,0.1,,,,,,,,,,976.50,25.6,0.0,0.0,0,0,0*02
$SMGPS,0.1 m,-0.08 m/s,5.61 VRx,0.026 km,44 m,22.6 °,1:-- (  0.0 km/h)*D2
$GPRMC,115342.000,A,4845.2766,N,00942.1224,E,2.58,21.21,311017,,,A*56
$GPGGA,115342.000,4845.2766,N,00942.1224,E,1,10,0.90,432.1,M,48.0,M,,*6E
$GPGSA,A,3,14,17,23,22,11,19,03,01,32,31,,,1.21,0.90,0.81*0B
$GPVTG,21.21,T,,M,2.58,N,4.77,K,A*06
$UL2,2012-01-01,0:00:00.0,0.32,12.439,0.000,2.68,0.12,0.00,0.0,5.602,0.1,0.1,,,,,,,,,,976.49,25.6,0.0,0.0,0,0,0*02
$SMGPS,0.1 m,-0.06 m/s,5.62 VRx,0.027 km,45 m,23.1 °,1:-- (  0.0 km/h)*D9
$GPRMC,115342.500,A,4845.2770,N,00942.1226,E,2.63,30.00,311017,,,A*5D
$GPGGA,115342.500,4845.2770,N,00942.1226,E,1,10,0.90,432.1,M,48.0,M,,*6E
$GPGSA,A,3,14,17,23,22,11,19,03,01,32,31,,,1.21,0.90,0.81*0B
$GPVTG,30.00,T,,M,2.62,N,4.86,K,A*02
$UL2,2012-01-01,0:00:00.0,0.89,12.439,0.000,2.73,0.14,0.00,0.0,5.602,0.1,0.1,,,,,,,,,,976.48,25.6,0.0,0.0,0,0,0*0F
$SMGPS,0.1 m,+0.11 m/s,5.61 VRx,0.027 km,45 m,22.8 °,1:-- (  0.0 km/h)*D2
$GPRMC,115343.000,A,4845.2773,N,00942.1228,E,2.65,25.19,311017,,,A*5E
$GPGGA,115343.000,4845.2773,N,00942.1228,E,1,10,0.90,432.1,M,48.0,M,,*67
$GPGSA,A,3,14,17,23,22,11,19,03,01,32,31,,,1.21,0.90,0.81*0B
$GPVTG,25.19,T,,M,2.63,N,4.87,K,A*0E
$UL2,2012-01-01,0:00:00.0,0.33,12.439,0.000,2.96,0.18,0.00,0.0,5.602,0.1,0.1,,,,,,,,,,976.47,25.6,0.0,0.0,0,0,0*06
$SMGPS,0.1 m,+0.18 m/s,5.61 VRx,0.028 km,46 m,23.1 °,1:-- (  0.0 km/h)*DF
$GPRMC,115343.500,A,4845.2776,N,00942.1230,E,2.61,29.24,311017,,,A*51
$GPGGA,115343.500,4845.2776,N,00942.1230,E,1,10,0.90,432.1,M,48.0,M,,*6E
$GPGSA,A,3,14,17,23,22,11,19,03,01,32,31,,,1.21,0.90,0.81*0B
$GPVTG,29.24,T,,M,2.61,N,4.83,K,A*0A
$UL2,2012-01-01,0:00:00.0,0.90,12.439,0.000,2.82,0.16,0.00,0.0,5.602,0.1,0.1,,,,,,,,,,976.47,25.7,0.0,0.0,0,0,0*05
$SMGPS,0.1 m,+0.07 m/s,5.61 VRx,0.029 km,47 m,22.8 °,1:-- (  0.0 km/h)*D9
$GPRMC,115344.000,A,4845.2779,N,00942.1232,E,2.41,29.02,311017,,,A*58
$GPGGA,115344.000,4845.2779,N,00942.1232,E,1,10,0.90,432.0,M,48.0,M,,*60
$GPGSA,A,3,14,17,23,22,11,19,03,01,32,31,,,1.21,0.90,0.81*0B
$GPVTG,29.02,T,,M,2.41,N,4.47,K,A*04
$UL2,2012-01-01,0:00:00.0,0.35,12.439,0.000,2.90,0.09,0.00,0.0,5.602,0.1,0.1,,,,,,,,,,976.46,25.7,0.0,0.0,0,0,0*06
$SMGPS,0.0 m,-0.04 m/s,5.62 VRx,0.030 km,48 m,22.6 °,1:-- (  0.0 km/h)*D7
$GPRMC,115344.500,A,4845.2781,N,00942.1234,E,2.67,30.02,311017,,,A*50
$GPGGA,115344.500,4845.2781,N,00942.1234,E,1,10,0.90,432.0,M,48.0,M,,*64
$GPGSA,A,3,14,17,23,22,11,19,03,01,32,31,,,1.21,0.90,0.81*0B
$GPVTG,30.02,T,,M,2.67,N,4.96,K,A*04
$UL2,2012-01-01,0:00:00.0,0.90,12.439,0.000,3.01,0.14,0.00,0.0,5.602,0.1,0.1,,,,,,,,,,976.45,25.7,0.0,0.0,0,0,0*0F
$SMGPS,0.0 m,-0.02 m/s,5.61 VRx,0.030 km,49 m,22.5 °,1:-- (  0.0 km/h)*D0
$GPRMC,115345.000,A,4845.2784,N,00942.1237,E,2.63,39.09,311017,,,A*54
$GPGGA,115345.000,4845.2784,N,00942.1237,E,1,10,0.90,432.1,M,48.0,M,,*67
$GPGSA,A,3,14,17,23,22,11,19,03,01,32,31,,,1.21,0.90,0.81*0B
$GPVTG,39.09,T,,M,2.62,N,4.86,K,A*02
$UL2,2012-01-01,0:00:00.0,0.36,12.439,0.000,3.07,0.12,0.00,0.0,5.602,0.1,0.1,,,,,,,,,,976.44,25.7,0.0,0.0,0,0,0*02
$SMGPS,0.1 m,+0.10 m/s,5.62 VRx,0.031 km,49 m,22.8 °,1:-- (  0.0 km/h)*DB
$GPRMC,115345.500,A,4845.2787,N,00942.1240,E,2.66,35.64,311017,,,A*50
$GPGGA,115345.500,4845.2787,N,00942.1240,E,1,10,0.90,432.2,M,48.0,M,,*62
$GPGSA,A,3,14,17,23,22,11,19,03,01,32,31,,,1.21,0.90,0.81*0B
$GPVTG,35.64,T,,M,2.63,N,4.87,K,A*05
$UL2,2012-01-01,0:00:00.0,0.91,12.439,0.000,3.10,0.10,0.00,0.0,5.602,0.1,0.1,,,,,,,,,,976.44,25.7,0.0,0.0,0,0,0*0B
$SMGPS,0.2 m,+0.21 m/s,5.61 VRx,0.032 km,50 m,22.7 °,1:-- (  0.0 km/h)*DD
$GPRMC,115346.000,A,4845.2789,N,00942.1244,E,2.69,48.64,311017,,,A*59
$GPGGA,115346.000,4845.2789,N,00942.1244,E,1,10,0.90,432.1,M,48.0,M,,*6D
$GPGSA,A,3,14,17,23,22,11,19,03,01,32,31,,,1.21,0.90,0.81*0B
$GPVTG,48.64,T,,M,2.68,N,4.96,K,A*04
$UL2,2012-01-01,0:00:00.0,0.37,12.439,0.000,3.21,0.14,0.00,0.0,5.602,0.1,0.1,,,,,,,,,,976.43,25.7,0.0,0.0,0,0,0*06
$SMGPS,0.1 m,+0.12 m/s,5.61 VRx,0.033 km,50 m,23.0 °,1:-- (  0.0 km/h)*D9
$GPRMC,115346.500,A,4845.2791,N,00942.1247,E,2.62,48.82,311017,,,A*55
$GPGGA,115346.500,4845.2791,N,00942.1247,E,1,10,0.90,432.1,M,48.0,M,,*62
$GPGSA,A,3,14,17,23,22,11,19,03,01,32,31,,,1.21,0.90,0.81*0B
$GPVTG,48.82,T,,M,2.62,N,4.86,K,A*07
$UL2,2012-01-01,0:00:00.0,0.80,12.439,0.000,3.36,0.21,0.00,0.0,5.602,0.1,0.1,,,,,,,,,,976.42,25.7,0.0,0.0,0,0,0*0B
$SMGPS,0.1 m,+0.02 m/s,5.61 VRx,0.033 km,51 m,23.1 °,1:-- (  0.0 km/h)*D8
$GPRMC,115347.000,A,4845.2793,N,00942.1251,E,2.60,54.43,311017,,,A*56
$GPGGA,115347.000,4845.2793,N,00942.1251,E,1,10,0.90,432.1,M,48.0,M,,*63
$GPGSA,A,3,14,17,23,22,11,19,03,01,32,31,,,1.21,0.90,0.81*0B
$GPVTG,54.43,T,,M,2.60,N,4.82,K,A*01
$UL2,2012-01-01,0:00:00.0,0.37,12.439,0.000,3.37,0.15,0.00,0.0,5.602,0.1,0.1,,,,,,,,,,976.41,25.7,0.0,0.0,0,0,0*02
$SMGPS,0.1 m,-0.01 m/s,5.62 VRx,0.034 km,51 m,23.5 °,1:-- (  0.0 km/h)*DD
$GPRMC,115347.500,A,4845.2794,N,00942.1255,E,2.39,56.36,311017,,,A*5C
$GPGGA,115347.500,4845.2794,N,00942.1255,E,1,10,0.90,432.2,M,48.0,M,,*66
$GPGSA,A,3,14,17,23,22,11,19,03,01,32,31,,,1.21,0.90,0.81*0B
$GPVTG,56.36,T,,M,2.39,N,4.42,K,A*01
$UL2,2012-01-01,0:00:00.0,0.81,12.439,0.000,3.32,0.07,0.00,0.0,5.602,0.1,0.1,,,,,,,,,,976.41,25.7,0.0,0.0,0,0,0*09
$SMGPS,0.2 m,+0.02 m/s,5.61 VRx,0.035 km,52 m,23.5 °,1:-- (  0.0 km/h)*DA
$GPRMC,115348.000,A,4845.2796,N,00942.1258,E,2.42,47.56,311017,,,A*53
$GPGGA,115348.000,4845.2796,N,00942.1258,E,1,10,0.90,432.2,M,48.0,M,,*63
$GPGSA,A,3,14,17,23,22,11,19,03,01,32,31,,,1.21,0.90,0.81*0B
$GPVTG,47.56,T,,M,2.42,N,4.49,K,A*00
$UL2,2012-01-01,0:00:00.0,0.37,12.439,0.000,3.52,0.14,0.00,0.0,5.602,0.1,0.1,,,,,,,,,,976.40,25.7,0.0,0.0,0,0,0*01
$SMGPS,0.2 m,+0.06 m/s,5.61 VRx,0.035 km,52 m,24.1 °,1:-- (  0.0 km/h)*DD
$GPRMC,115348.500,A,4845.2798,N,00942.1261,E,2.47,47.66,311017,,,A*54
$GPGGA,115348.500,4845.2798,N,00942.1261,E,1,10,0.90,432.4,M,48.0,M,,*64
$GPGSA,A,3,14,17,23,22,11,19,03,01,32,31,,,1.21,0.90,0.81*0B
$GPVTG,47.66,T,,M,2.43,N,4.50,K,A*0A
$UL2,2012-01-01,0:00:00.0,0.82,12.439,0.000,3.56,0.14,0.00,0.0,5.602,0.1,0.1,,,,,,,,,,976.39,25.7,0.0,0.0,0,0,0*05
$SMGPS,0.4 m,+0.24 m/s,5.61 VRx,0.036 km,52 m,24.5 °,1:-- (  0.0 km/h)*DC
$GPRMC,115349.000,A,4845.2801,N,00942.1265,E,2.55,38.40,311017,,,A*54
$GPGGA,115349.000,4845.2801,N,00942.1265,E,1,10,0.90,432.5,M,48.0,M,,*6A
$GPGSA,A,3,14,17,23,22,11,19,03,01,32,31,,,1.21,0.90,0.81*0B
$GPVTG,38.40,T,,M,2.45,N,4.53,K,A*03
$UL2,2012-01-01,0:00:00.0,0.38,12.439,0.000,3.44,0.08,0.00,0.0,5.602,0.1,0.1,,,,,,,,,,976.39,25.7,0.0,0.0,0,0,0*0A
$SMGPS,0.5 m,+0.36 m/s,5.62 VRx,0.036 km,53 m,24.5 °,1:-- (  0.0 km/h)*DC
$GPRMC,115349.500,A,4845.2803,N,00942.1268,E,2.50,37.41,311017,,,A*55
$GPGGA,115349.500,4845.2803,N,00942.1268,E,1,10,0.90,432.5,M,48.0,M,,*60
$GPGSA,A,3,14,17,23,22,11,19,03,01,32,31,,,1.21,0.90,0.81*0B
$GPVTG,37.41,T,,M,2.47,N,4.58,K,A*04
$UL2,2012-01-01,0:00:00.0,0.84,12.439,0.000,3.41,0.02,0.00,0.0,5.602,0.1,0.1,,,,,,,,,,976.38,25.7,0.0,0.0,0,0,0*03
$SMGPS,0.5 m,+0.20 m/s,5.61 VRx,0.038 km,53 m,24.9 °,1:-- (  0.0 km/h)*DA
$GPRMC,115350.000,A,4845.2806,N,00942.1270,E,2.27,30.47,311017,,,A*55
$GPGGA,115350.000,4845.2806,N,00942.1270,E,1,10,0.90,432.6,M,48.0,M,,*62
$GPGSA,A,3,14,17,23,22,11,19,03,01,32,31,,,1.21,0.90,0.81*0B
$GPVTG,30.47,T,,M,2.26,N,4.20,K,A*0D
$UL2,2012-01-01,0:00:00.0,0.39,12.439,0.000,3.59,0.02,0.00,0.0,5.602,0.1,0.1,,,,,,,,,,976.38,25.7,0.0,0.0,0,0,0*0C
$SMGPS,0.6 m,+0.09 m/s,5.62 VRx,0.038 km,55 m,24.8 °,1:-- (  0.0 km/h)*D6
$GPRMC,115350.500,A,4845.2809,N,00942.1273,E,2.66,30.91,311017,,,A*52
$GPGGA,115350.500,4845.2809,N,00942.1273,E,1,10,0.90,432.9,M,48.0,M,,*64
$GPGSA,A,3,14,17,23,22,11,19,03,01,32,31,,,1.21,0.90,0.81*0B
$GPVTG,30.91,T,,M,2.61,N,4.83,K,A*0C
$UL2,2012-01-01,0:00:00.0,0.84,12.439,0.000,3.61,0.08,0.00,0.0,5.602,0.1,0.1,,,,,,,,,,976.38,25.7,0.0,0.0,0,0,0*0B
$SMGPS,0.9 m,+0.27 m/s,5.61 VRx,0.039 km,55 m,25.1 °,1:-- (  0.0 km/h)*DF
$GPRMC,115351.000,A,4845.2812,N,00942.1276,E,2.73,34.56,311017,,,A*52
$GPGGA,115351.000,4845.2812,N,00942.1276,E,1,10,0.90,433.1,M,48.0,M,,*66
$GPGSA,A,3,14,17,23,22,11,19,03,01,32,31,,,1.21,0.90,0.81*0B
$GPVTG,34.56,T,,M,2.55,N,4.73,K,A*0B
$UL2,2012-01-01,0:00:00.0,0.40,12.439,0.000,3.64,0.08,0.00,0.0,5.602,0.1,0.1,,,,,,,,,,976.37,25.7,0.0,0.0,0,0,0*09
$SMGPS,1.1 m,+0.50 m/s,5.62 VRx,0.039 km,56 m,25.0 °,1:-- (  0.0 km/h)*D7
$GPRMC,115351.500,A,4845.2815,N,00942.1278,E,2.67,32.46,311017,,,A*5C
$GPGGA,115351.500,4845.2815,N,00942.1278,E,1,10,0.90,433.2,M,48.0,M,,*69
$GPGSA,A,3,14,17,23,22,11,19,03,01,32,31,,,1.21,0.90,0.81*0B
$GPVTG,32.46,T,,M,2.57,N,4.77,K,A*0A
$UL2,2012-01-01,0:00:00.0,0.84,12.439,0.000,2.42,0.09,0.00,0.0,5.602,0.1,0.1,,,,,,,,,,976.37,25.7,0.0,0.0,0,0,0*05
$SMGPS,1.2 m,+0.37 m/s,5.61 VRx,0.040 km,56 m,25.3 °,1:-- (  0.0 km/h)*DB
$GPRMC,115352.000,A,4845.2817,N,00942.1281,E,2.60,37.17,311017,,,A*58
$GPGGA,115352.000,4845.2817,N,00942.1281,E,1,10,0.90,433.3,M,48.0,M,,*6A
$GPGSA,A,3,14,17,23,22,11,19,03,01,32,31,,,1.21,0.90,0.81*0B
$GPVTG,37.17,T,,M,2.56,N,4.74,K,A*09
$UL2,2012-01-01,0:00:00.0,0.40,12.439,0.000,1.46,0.07,0.00,0.0,5.602,0.1,0.1,,,,,,,,,,976.36,25.7,0.0,0.0,0,0,0*05
$SMGPS,1.3 m,+0.25 m/s,5.61 VRx,0.041 km,57 m,25.4 °,1:-- (  0.0 km/h)*DE
$GPRMC,115352.500,A,4845.2820,N,00942.1284,E,2.60,31.79,311017,,,A*52
$GPGGA,115352.500,4845.2820,N,00942.1284,E,1,10,0.90,433.3,M,48.0,M,,*6E
$GPGSA,A,3,14,17,23,22,11,19,03,01,32,31,,,1.21,0.90,0.81*0B
$GPVTG,31.79,T,,M,2.58,N,4.78,K,A*05
$UL2,2012-01-01,0:00:00.0,0.85,12.439,0.000,1.00,0.07,0.00,0.0,5.602,0.1,0.1,,,,,,,,,,976.36,25.8,0.0,0.0,0,0,0*01
$SMGPS,1.3 m,+0.16 m/s,5.61 VRx,0.041 km,58 m,25.2 °,1:-- (  0.0 km/h)*D7
$GPRMC,115353.000,A,4845.2822,N,00942.1287,E,2.63,35.22,311017,,,A*5E
$GPGGA,115353.000,4845.2822,N,00942.1287,E,1,10,0.90,433.3,M,48.0,M,,*6B
$GPGSA,A,3,14,17,23,22,11,19,03,01,32,31,,,1.21,0.90,0.81*0B
$GPVTG,35.22,T,,M,2.63,N,4.86,K,A*06
$UL2,2012-01-01,0:00:00.0,0.40,12.439,0.000,0.52,0.05,0.00,0.0,5.602,0.1,0.1,,,,,,,,,,976.36,25.8,0.0,0.0,0,0,0*0C
$SMGPS,1.3 m,+0.01 m/s,5.61 VRx,0.042 km,58 m,25.5 °,1:-- (  0.0 km/h)*D5
$GPRMC,115353.500,A,4845.2825,N,00942.1290,E,2.59,32.77,311017,,,A*54
$GPGGA,115353.500,4845.2825,N,00942.1290,E,1,10,0.90,433.2,M,48.0,M,,*6E
$GPGSA,A,3,14,17,23,22,11,19,03,01,32,31,,,1.21,0.90,0.81*0B
$GPVTG,32.77,T,,M,2.59,N,4.80,K,A*0E
$UL2,2012-01-01,0:00:00.0,0.86,12.439,0.000,0.46,0.03,0.00,0.0,5.602,0.1,0.1,,,,,,,,,,976.36,25.7,0.0,0.0,0,0,0*0A
$SMGPS,1.2 m,-0.05 m/s,5.61 VRx,0.043 km,59 m,25.4 °,1:-- (  0.0 km/h)*D7
$GPRMC,115354.000,A,4845.2828,N,00942.1293,E,2.60,31.45,311017,,,A*50
$GPGGA,115354.000,4845.2828,N,00942.1293,E,1,10,0.90,433.2,M,48.0,M,,*62
$GPGSA,A,3,14,17,23,22,11,19,03,01,32,31,,,1.21,0.90,0.81*0B
$GPVTG,31.45,T,,M,2.59,N,4.80,K,A*0C
$UL2,2012-01-01,0:00:00.0,0.41,12.439,0.000,0.61,0.20,0.00,0.0,5.602,0.1,0.1,,,,,,,,,,976.34,25.8,0.0,0.0,0,0,0*08
$SMGPS,1.2 m,-0.10 m/s,5.61 VRx,0.044 km,59 m,25.8 °,1:-- (  0.0 km/h)*D8
$GPRMC,115354.500,A,4845.2832,N,00942.1296,E,2.62,36.12,311017,,,A*5C
$GPGGA,115354.500,4845.2832,N,00942.1296,E,1,10,0.90,432.9,M,48.0,M,,*63
$GPGSA,A,3,14,17,23,22,11,19,03,01,32,31,,,1.21,0.90,0.81*0B
$GPVTG,36.12,T,,M,2.60,N,4.82,K,A*01
$UL2,2012-01-01,0:00:00.0,0.87,12.439,0.000,0.45,0.11,0.00,0.0,5.602,0.1,0.1,,,,,,,,,,976.34,25.8,0.0,0.0,0,0,0*06
$SMGPS,0.9 m,-0.16 m/s,5.61 VRx,0.044 km,60 m,25.8 °,1:-- (  0.0 km/h)*DE
$GPRMC,115355.000,A,4845.2835,N,00942.1299,E,2.68,32.04,311017,,,A*59
$GPGGA,115355.000,4845.2835,N,00942.1299,E,1,10,0.90,432.5,M,48.0,M,,*63
$GPGSA,A,3,14,17,23,22,11,19,03,01,32,31,,,1.21,0.90,0.81*0B
$GPVTG,32.04,T,,M,2.64,N,4.89,K,A*0D
$UL2,2012-01-01,0:00:00.0,0.31,12.439,0.000,0.53,0.05,0.00,0.0,5.602,0.1,0.1,,,,,,,,,,976.34,25.8,0.0,0.0,0,0,0*09
$SMGPS,0.5 m,-0.23 m/s,5.61 VRx,0.045 km,60 m,26.0 °,1:-- (  0.0 km/h)*DE
$GPRMC,115355.500,A,4845.2838,N,00942.1302,E,2.70,38.59,311017,,,A*59
$GPGGA,115355.500,4845.2838,N,00942.1302,E,1,10,0.90,432.5,M,48.0,M,,*68
$GPGSA,A,3,14,17,23,22,11,19,03,01,32,31,,,1.21,0.90,0.81*0B
$GPVTG,38.59,T,,M,2.67,N,4.95,K,A*01
$UL2,2012-01-01,0:00:00.0,0.87,12.439,0.000,0.41,0.05,0.00,0.0,5.602,0.1,0.1,,,,,,,,,,976.34,25.8,0.0,0.0,0,0,0*07
$SMGPS,0.5 m,-0.21 m/s,5.61 VRx,0.046 km,61 m,26.0 °,1:-- (  0.0 km/h)*DE
$GPRMC,115356.000,A,4845.2841,N,00942.1305,E,2.71,36.94,311017,,,A*58
$GPGGA,115356.000,4845.2841,N,00942.1305,E,1,10,0.90,432.4,M,48.0,M,,*66
$GPGSA,A,3,14,17,23,22,11,19,03,01,32,31,,,1.21,0.90,0.81*0B
$GPVTG,36.94,T,,M,2.69,N,4.99,K,A*0C
$UL2,2012-01-01,0:00:00.0,0.32,12.439,0.000,0.56,0.03,0.00,0.0,5.602,0.1,0.1,,,,,,,,,,976.33,25.8,0.0,0.0,0,0,0*0E
$SMGPS,0.4 m,-0.16 m/s,5.61 VRx,0.046 km,62 m,26.0 °,1:-- (  0.0 km/h)*D8
$GPRMC,115356.500,A,4845.2843,N,00942.1308,E,2.72,38.91,311017,,,A*5A
$GPGGA,115356.500,4845.2843,N,00942.1308,E,1,10,0.90,432.4,M,48.0,M,,*6C
$GPGSA,A,3,14,17,23,22,11,19,03,01,32,31,,,1.21,0.90,0.81*0B
$GPVTG,38.91,T,,M,2.70,N,5.00,K,A*0E
$UL2,2012-01-01,0:00:00.0,0.88,12.439,0.000,0.52,0.06,0.00,0.0,5.602,0.1,0.1,,,,,,,,,,976.33,25.8,0.0,0.0,0,0,0*0E
$SMGPS,0.4 m,-0.15 m/s,5.61 VRx,0.047 km,62 m,26.3 °,1:-- (  0.0 km/h)*D9
$GPRMC,115357.000,A,4845.2846,N,00942.1312,E,2.47,36.93,311017,,,A*5A
$GPGGA,115357.000,4845.2846,N,00942.1312,E,1,10,0.90,432.5,M,48.0,M,,*67
$GPGSA,A,3,14,17,23,22,11,19,03,01,32,31,,,1.21,0.90,0.81*0B
$GPVTG,36.93,T,,M,2.47,N,4.57,K,A*05
$UL2,2012-01-01,0:00:00.0,0.33,12.439,0.000,0.49,0.05,0.00,0.0,5.602,0.1,0.1,,,,,,,,,,976.33,25.8,0.0,0.0,0,0,0*07
$SMGPS,0.5 m,+0.05 m/s,5.61 VRx,0.048 km,63 m,26.1 °,1:-- (  0.0 km/h)*D3
$GPRMC,115357.500,A,4845.2849,N,00942.1315,E,2.71,34.72,311017,,,A*5F
$GPGGA,115357.500,4845.2849,N,00942.1315,E,1,10,0.90,432.6,M,48.0,M,,*69
$GPGSA,A,3,14,17,23,22,11,19,03,01,32,31,,,1.21,0.90,0.81*0B
$GPVTG,34.72,T,,M,2.69,N,4.99,K,A*06
$UL2,2012-01-01,0:00:00.0,0.88,12.439,0.000,0.35,0.06,0.00,0.0,5.602,0.1,0.1,,,,,,,,,,976.32,25.8,0.0,0.0,0,0,0*0E
$SMGPS,0.6 m,+0.19 m/s,5.61 VRx,0.049 km,63 m,26.4 °,1:-- (  0.0 km/h)*D9
$GPRMC,115358.000,A,4845.2852,N,00942.1318,E,2.66,40.25,311017,,,A*55
$GPGGA,115358.000,4845.2852,N,00942.1318,E,1,10,0.90,432.6,M,48.0,M,,*64
$GPGSA,A,3,14,17,23,22,11,19,03,01,32,31,,,1.21,0.90,0.81*0B
$GPVTG,40.25,T,,M,2.66,N,4.93,K,A*02
$UL2,2012-01-01,0:00:00.0,0.34,12.439,0.000,0.24,0.07,0.00,0.0,5.602,0.1,0.1,,,,,,,,,,976.32,25.8,0.0,0.0,0,0,0*08
$SMGPS,0.6 m,+0.05 m/s,5.62 VRx,0.049 km,64 m,26.5 °,1:-- (  0.0 km/h)*D1
$GPRMC,115358.500,A,4845.2855,N,00942.1321,E,2.74,35.43,311017,,,A*5C
$GPGGA,115358.500,4845.2855,N,00942.1321,E,1,10,0.90,432.7,M,48.0,M,,*6D
$GPGSA,A,3,14,17,23,22,11,19,03,01,32,31,,,1.21,0.90,0.81*0B
$GPVTG,35.43,T,,M,2.74,N,5.07,K,A*0F
$UL2,2012-01-01,0:00:00.0,0.90,12.439,0.000,0.16,0.08,0.00,0.0,5.602,0.1,0.1,,,,,,,,,,976.32,25.8,0.0,0.0,0,0,0*08
$SMGPS,0.7 m,+0.04 m/s,5.61 VRx,0.050 km,64 m,26.7 °,1:-- (  0.0 km/h)*D8
$GPRMC,115359.000,A,4845.2857,N,00942.1325,E,2.76,46.56,311017,,,A*5C
$GPGGA,115359.000,4845.2857,N,00942.1325,E,1,10,0.90,432.8,M,48.0,M,,*60
$GPGSA,A,3,14,17,23,22,11,19,03,01,32,31,,,1.21,0.90,0.81*0B
$GPVTG,46.56,T,,M,2.73,N,5.06,K,A*09
$UL2,2012-01-01,0:00:00.0,0.33,12.439,0.000,0.37,0.10,0.00,0.0,5.602,0.1,0.1,,,,,,,,,,976.31,25.8,0.0,0.0,0,0,0*08
$SMGPS,0.8 m,+0.20 m/s,5.61 VRx,0.051 km,65 m,26.6 °,1:-- (  0.0 km/h)*D0
$GPRMC,115359.500,A,4845.2860,N,00942.1329,E,2.63,44.04,311017,,,A*50
$GPGGA,115359.500,4845.2860,N,00942.1329,E,1,10,0.90,433.0,M,48.0,M,,*64
$GPGSA,A,3,14,17,23,22,11,19,03,01,32,31,,,1.21,0.90,0.81*0B
$GPVTG,44.04,T,,M,2.56,N,4.75,K,A*0E
$UL2,2012-01-01,0:00:00.0,0.79,12.439,0.000,0.14,0.11,0.00,0.0,5.602,0.1,0.1,,,,,,,,,,976.31,25.8,0.0,0.0,0,0,0*06
$SMGPS,1.0 m,+0.31 m/s,5.61 VRx,0.052 km,66 m,26.6 °,1:-- (  0.0 km/h)*D9
$GPRMC,115400.000,A,4845.2862,N,00942.1333,E,2.58,49.37,311017,,,A*52
$GPGGA,115400.000,4845.2862,N,00942.1333,E,1,10,0.90,433.1,M,48.0,M,,*62
$GPGSA,A,3,14,17,23,22,11,19,03,01,32,31,,,1.21,0.90,0.81*0B
$GPVTG,49.37,T,,M,2.52,N,4.67,K,A*04
$UL2,2012-01-01,0:00:00.0,0.34,12.439,0.000,0.23,0.06,0.00,0.0,5.602,0.1,0.1,,,,,,,,,,976.30,25.8,0.0,0.0,0,0,0*0C
$SMGPS,1.1 m,+0.27 m/s,5.61 VRx,0.052 km,67 m,27.0 °,1:-- (  0.0 km/h)*D9
$GPRMC,115400.500,A,4845.2864,N,00942.1336,E,1.91,41.89,311017,,,A*5F
$GPGGA,115400.500,4845.2864,N,00942.1336,E,1,10,0.90,433.2,M,48.0,M,,*67
$GPGSA,A,3,14,17,23,22,11,19,03,01,32,31,,,1.21,0.90,0.81*0B
$GPVTG,41.89,T,,M,1.86,N,3.45,K,A*04
$UL2,2012-01-01,0:00:00.0,0.80,12.439,0.000,0.28,0.07,0.00,0.0,5.602,0.1,0.1,,,,,,,,,,976.30,25.8,0.0,0.0,0,0,0*09
$SMGPS,1.2 m,+0.22 m/s,5.61 VRx,0.053 km,68 m,27.0 °,1:-- (  0.0 km/h)*D1
$GPRMC,115401.000,A,4845.2867,N,00942.1338,E,1.88,36.34,311017,,,A*58
$GPGGA,115401.000,4845.2867,N,00942.1338,E,1,10,0.90,433.1,M,48.0,M,,*6D
$GPGSA,A,3,14,17,23,22,11,19,03,01,32,31,,,1.21,0.90,0.81*0B
$GPVTG,36.34,T,,M,1.88,N,3.49,K,A*00
$UL2,2012-01-01,0:00:00.0,0.35,12.439,0.000,0.17,0.01,0.00,0.0,5.602,0.1,0.1,,,,,,,,,,976.30,25.8,0.0,0.0,0,0,0*0D
$SMGPS,1.1 m,+0.06 m/s,5.61 VRx,0.054 km,68 m,27.4 °,1:-- (  0.0 km/h)*D7
$GPRMC,115401.500,A,4845.2869,N,00942.1340,E,1.17,43.12,311017,,,A*5C
$GPGGA,115401.500,4845.2869,N,00942.1340,E,1,10,0.90,433.1,M,48.0,M,,*69
$GPGSA,A,3,14,17,23,22,11,19,03,01,32,31,,,1.21,0.90,0.81*0B
$GPVTG,43.12,T,,M,1.16,N,2.15,K,A*09
$UL2,2012-01-01,0:00:00.0,0.81,12.439,0.000,0.16,0.04,0.00,0.0,5.602,0.1,0.1,,,,,,,,,,976.29,25.9,0.0,0.0,0,0,0*0F
$SMGPS,1.1 m,-0.07 m/s,5.61 VRx,0.054 km,69 m,27.4 °,1:-- (  0.0 km/h)*D1
$GPRMC,115402.000,A,4845.2870,N,00942.1342,E,1.42,38.07,311017,,,A*58
$GPGGA,115402.000,4845.2870,N,00942.1342,E,1,10,0.90,433.1,M,48.0,M,,*65
$GPGSA,A,3,14,17,23,22,11,19,03,01,32,31,,,1.21,0.90,0.81*0B
$GPVTG,38.07,T,,M,1.42,N,2.63,K,A*01
$UL2,2012-01-01,0:00:00.0,0.36,12.439,0.000,0.08,-0.05,0.00,0.0,5.602,0.1,0.1,,,,,,,,,,976.30,25.8,0.0,0.0,0,0,0*29
$SMGPS,1.1 m,-0.01 m/s,5.61 VRx,0.055 km,69 m,27.5 °,1:-- (  0.0 km/h)*D7
$GPRMC,115402.500,A,4845.2872,N,00942.1343,E,1.05,5.09,311017,,,A*6D
$GPGGA,115402.500,4845.2872,N,00942.1343,E,1,10,0.90,433.1,M,48.0,M,,*63
$GPGSA,A,3,14,17,23,22,11,19,03,01,32,31,,,1.21,0.90,0.81*0B
$GPVTG,5.09,T,,M,1.05,N,1.95,K,A*38
$UL2,2012-01-01,0:00:00.0,0.81,12.439,0.000,-0.07,-0.08,0.00,0.0,5.602,0.1,0.1,,,,,,,,,,976.30,25.9,0.0,0.0,0,0,0*0B
$SMGPS,1.1 m,+0.02 m/s,5.61 VRx,0.055 km,70 m,27.4 °,1:-- (  0.0 km/h)*DB
$GPRMC,115403.000,A,4845.2874,N,00942.1342,E,1.43,343.99,311017,,,A*64
$GPGGA,115403.000,4845.2874,N,00942.1342,E,1,10,0.93,432.7,M,48.0,M,,*64
$GPGSA,A,3,14,17,23,22,11,19,03,01,32,31,,,1.68,0.93,1.40*09
$GPVTG,343.99,T,,M,1.43,N,2.65,K,A*3E
$UL2,2012-01-01,0:00:00.0,0.38,12.439,0.000,-0.01,-0.11,0.00,0.0,5.602,0.1,0.1,,,,,,,,,,976.31,25.9,0.0,0.0,0,0,0*06
$SMGPS,0.7 m,-0.03 m/s,5.61 VRx,0.055 km,70 m,27.6 °,1:-- (  0.0 km/h)*D9
$GPRMC,115403.500,A,4845.2875,N,00942.1341,E,1.25,6.94,311017,,,A*6C
$GPGGA,115403.500,4845.2875,N,00942.1341,E,1,10,0.90,432.4,M,48.0,M,,*63
$GPGSA,A,3,14,17,23,22,11,19,03,01,32,31,,,1.21,0.90,0.81*0B
$GPVTG,6.94,T,,M,1.25,N,2.31,K,A*30
$UL2,2012-01-01,0:00:00.0,0.81,12.439,0.000,0.04,-0.03,0.00,0.0,5.602,0.1,0.1,,,,,,,,,,976.31,25.9,0.0,0.0,0,0,0*2F
$SMGPS,0.4 m,-0.04 m/s,5.61 VRx,0.057 km,70 m,27.7 °,1:-- (  0.0 km/h)*DE
$GPRMC,115404.000,A,4845.2877,N,00942.1342,E,0.66,21.69,311017,,,A*5E
$GPGGA,115404.000,4845.2877,N,00942.1342,E,1,10,0.93,432.2,M,48.0,M,,*65
$GPGSA,A,3,14,17,23,22,11,19,03,01,32,31,,,1.68,0.93,1.40*09
$GPVTG,21.69,T,,M,0.65,N,1.21,K,A*00
$UL2,2012-01-01,0:00:00.0,0.39,12.439,0.000,0.29,0.08,0.00,0.0,5.602,0.1,0.1,,,,,,,,,,976.30,25.9,0.0,0.0,0,0,0*04
$SMGPS,0.2 m,-0.05 m/s,5.61 VRx,0.057 km,71 m,27.1 °,1:-- (  0.0 km/h)*DE
$GPRMC,115404.500,A,4845.2878,N,00942.1343,E,1.07,45.55,311017,,,A*5E
$GPGGA,115404.500,4845.2878,N,00942.1343,E,1,10,0.90,432.3,M,48.0,M,,*6C
$GPGSA,A,3,14,17,23,22,11,19,03,01,32,31,,,1.21,0.90,0.81*0B
$GPVTG,45.55,T,,M,1.07,N,1.99,K,A*0B
$UL2,2012-01-01,0:00:00.0,0.82,12.439,0.000,0.29,0.20,0.00,0.0,5.602,0.1,0.1,,,,,,,,,,976.29,25.9,0.0,0.0,0,0,0*06
$SMGPS,0.3 m,+0.04 m/s,5.61 VRx,0.057 km,71 m,27.0 °,1:-- (  0.0 km/h)*D9
$GPRMC,115405.000,A,4845.2878,N,00942.1344,E,0.92,64.30,311017,,,A*50
$GPGGA,115405.000,4845.2878,N,00942.1344,E,1,10,0.90,432.3,M,48.0,M,,*6F
$GPGSA,A,3,14,17,23,22,11,19,03,01,32,31,,,1.21,0.90,0.81*0B
$GPVTG,64.30,T,,M,0.83,N,1.54,K,A*07
$UL2,2012-01-01,0:00:00.0,0.39,12.439,0.000,0.28,0.13,0.00,0.0,5.602,0.1,0.1,,,,,,,,,,976.28,25.9,0.0,0.0,0,0,0*06
$SMGPS,0.3 m,+0.21 m/s,5.61 VRx,0.057 km,71 m,27.1 °,1:-- (  0.0 km/h)*DF
$GPRMC,115405.500,A,4845.2878,N,00942.1346,E,0.54,64.30,311017,,,A*5D
$GPGGA,115405.500,4845.2878,N,00942.1346,E,1,10,0.90,432.2,M,48.0,M,,*69
$GPGSA,A,3,14,17,23,22,11,19,03,01,32,31,,,1.21,0.90,0.81*0B
$GPVTG,64.30,T,,M,0.50,N,0.93,K,A*03
$UL2,2012-01-01,0:00:00.0,0.83,12.439,0.000,0.15,0.03,0.00,0.0,5.602,0.1,0.1,,,,,,,,,,976.28,25.9,0.0,0.0,0,0,0*08
$SMGPS,0.2 m,+0.11 m/s,5.61 VRx,0.057 km,71 m,27.2 °,1:-- (  0.0 km/h)*DE
$GPRMC,115406.000,A,4845.2878,N,00942.1346,E,0.33,64.30,311017,,,A*5A
$GPGGA,115406.000,4845.2878,N,00942.1346,E,1,10,0.90,432.2,M,48.0,M,,*6F
$GPGSA,A,3,14,17,23,22,11,19,03,01,32,31,,,1.21,0.90,0.81*0B
$GPVTG,64.30,T,,M,0.32,N,0.59,K,A*01
$UL2,2012-01-01,0:00:00.0,0.39,12.439,0.000,0.11,-0.12,0.00,0.0,5.602,0.1,0.1,,,,,,,,,,976.29,25.9,0.0,0.0,0,0,0*21
$SMGPS,0.2 m,-0.05 m/s,5.61 VRx,0.057 km,71 m,27.3 °,1:-- (  0.0 km/h)*DC
$GPRMC,115406.500,A,4845.2877,N,00942.1346,E,0.31,64.30,311017,,,A*52
$GPGGA,115406.500,4845.2877,N,00942.1346,E,1,10,0.90,432.3,M,48.0,M,,*64
$GPGSA,A,3,14,17,23,22,11,19,03,01,32,31,,,1.21,0.90,0.81*0B
$GPVTG,64.30,T,,M,0.29,N,0.54,K,A*06
$UL2,2012-01-01,0:00:00.0,0.85,12.439,0.000,0.11,-0.10,0.00,0.0,5.602,0.1,0.1,,,,,,,,,,976.29,25.9,0.0,0.0,0,0,0*24
$SMGPS,0.3 m,+0.06 m/s,5.61 VRx,0.057 km,71 m,27.4 °,1:-- (  0.0 km/h)*DF
$GPRMC,115407.000,A,4845.2877,N,00942.1347,E,0.44,64.30,311017,,,A*55
$GPGGA,115407.000,4845.2877,N,00942.1347,E,1,10,0.90,432.4,M,48.0,M,,*66
$GPGSA,A,3,14,17,23,22,11,19,03,01,32,31,,,1.21,0.90,0.81*0B
$GPVTG,64.30,T,,M,0.26,N,0.49,K,A*05
$UL2,2012-01-01,0:00:00.0,0.40,12.439,0.056,0.18,-0.00,0.69,0.0,5.602,0.1,0.1,,,,,,,,,,976.29,25.9,0.0,0.0,0,0,0*29
$SMGPS,0.4 m,+0.18 m/s,5.61 VRx,0.057 km,71 m,27.4 °,1:-- (  0.0 km/h)*D7
$GPRMC,115407.500,A,4845.2877,N,00942.1347,E,0.32,64.30,311017,,,A*51
$GPGGA,115407.500,4845.2877,N,00942.1347,E,1,10,0.90,432.3,M,48.0,M,,*64
$GPGSA,A,3,14,17,23,22,11,19,03,01,32,31,,,1.21,0.90,0.81*0B
$GPVTG,64.30,T,,M,0.21,N,0.39,K,A*05
$UL2,2012-01-01,0:00:00.0,0.86,12.439,0.072,0.04,0.05,0.69,0.0,5.581,0.1,0.1,,,,,,,,,,976.29,25.9,0.0,0.0,0,0,0*08
$SMGPS,0.3 m,+0.12 m/s,5.60 VRx,0.057 km,71 m,27.4 °,1:-- (  0.0 km/h)*DB
$GPRMC,115408.000,A,4845.2877,N,00942.1347,E,0.22,64.30,311017,,,A*5A
$GPGGA,115408.000,4845.2877,N,00942.1347,E,1,10,0.90,432.2,M,48.0,M,,*6F
$GPGSA,A,3,14,17,23,22,11,19,03,01,32,31,,,1.21,0.90,0.81*0B
$GPVTG,64.30,T,,M,0.18,N,0.33,K,A*05
$UL2,2012-01-01,0:00:00.0,0.29,12.439,0.073,0.28,0.05,0.90,0.0,5.580,0.1,0.1,,,,,,,,,,976.29,25.8,0.0,0.0,0,0,0*04
$SMGPS,0.2 m,+0.06 m/s,5.60 VRx,0.057 km,71 m,27.5 °,1:-- (  0.0 km/h)*DE
$GPRMC,115408.500,A,4845.2877,N,00942.1347,E,0.23,64.30,311017,,,A*5E
$GPGGA,115408.500,4845.2877,N,00942.1347,E,1,10,0.90,432.2,M,48.0,M,,*6A
$GPGSA,A,3,14,17,23,22,11,19,03,01,32,31,,,1.21,0.90,0.81*0B
$GPVTG,64.30,T,,M,0.11,N,0.21,K,A*0F
$UL2,2012-01-01,0:00:00.0,0.87,12.417,0.000,0.13,0.07,0.00,0.0,5.588,0.1,0.1,,,,,,,,,,976.28,25.9,0.0,0.0,0,0,0*03
$SMGPS,0.2 m,+0.11 m/s,5.60 VRx,0.057 km,71 m,27.5 °,1:-- (  0.0 km/h)*D8
$GPRMC,115409.000,A,4845.2877,N,00942.1347,E,0.22,64.30,311017,,,A*5B
$GPGGA,115409.000,4845.2877,N,00942.1347,E,1,10,0.90,432.1,M,48.0,M,,*6D
$GPGSA,A,3,14,17,23,22,11,19,03,01,32,31,,,1.21,0.90,0.81*0B
$GPVTG,64.30,T,,M,0.16,N,0.29,K,A*00
$UL2,2012-01-01,0:00:00.0,0.30,12.417,0.000,0.31,0.05,0.00,0.0,5.590,0.1,0.1,,,,,,,,,,976.28,25.9,0.0,0.0,0,0,0*04
$SMGPS,0.1 m,+0.08 m/s,5.61 VRx,0.057 km,71 m,27.5 °,1:-- (  0.0 km/h)*D2
$GPRMC,115409.500,A,4845.2877,N,00942.1347,E,0.49,64.30,311017,,,A*53
$GPGGA,115409.500,4845.2877,N,00942.1347,E,1,10,0.90,432.0,M,48.0,M,,*69
$GPGSA,A,3,14,17,23,22,11,19,03,01,32,31,,,1.21,0.90,0.81*0B
$GPVTG,64.30,T,,M,0.49,N,0.91,K,A*09
$UL2,2012-01-01,0:00:00.0,0.87,12.417,0.055,0.44,0.23,0.68,0.0,5.590,0.1,0.1,,,,,,,,,,976.26,25.9,0.0,0.0,0,0,0*0E
$SMGPS,0.0 m,-0.01 m/s,5.61 VRx,0.057 km,71 m,27.5 °,1:-- (  0.0 km/h)*DC
$GPRMC,115410.000,A,4845.2877,N,00942.1346,E,0.33,64.30,311017,,,A*52
$GPGGA,115410.000,4845.2877,N,00942.1346,E,1,10,0.90,432.1,M,48.0,M,,*64
$GPGSA,A,3,14,17,23,22,11,19,03,01,32,31,,,1.21,0.90,0.81*0B
$GPVTG,64.30,T,,M,0.30,N,0.55,K,A*0F
$UL2,2012-01-01,0:00:00.0,0.32,12.417,0.000,0.51,0.17,0.00,0.0,5.590,0.1,0.1,,,,,,,,,,976.26,25.9,0.0,0.0,0,0,0*0D
$SMGPS,0.1 m,+0.06 m/s,5.61 VRx,0.057 km,71 m,27.5 °,1:-- (  0.0 km/h)*DC
$GPRMC,115410.500,A,4845.2877,N,00942.1345,E,0.23,64.30,311017,,,A*55
$GPGGA,115410.500,4845.2877,N,00942.1345,E,1,10,0.90,432.1,M,48.0,M,,*62
$GPGSA,A,3,14,17,23,22,11,19,03,01,32,31,,,1.21,0.90,0.81*0B
$GPVTG,64.30,T,,M,0.15,N,0.28,K,A*02
$UL2,2012-01-01,0:00:00.0,0.87,12.417,0.000,0.51,0.16,0.00,0.0,5.590,0.1,0.1,,,,,,,,,,976.25,25.9,0.0,0.0,0,0,0*01
$SMGPS,0.1 m,+0.09 m/s,5.61 VRx,0.057 km,71 m,27.5 °,1:-- (  0.0 km/h)*D3
$GPRMC,115411.000,A,4845.2877,N,00942.1345,E,0.22,64.30,311017,,,A*50
$GPGGA,115411.000,4845.2877,N,00942.1345,E,1,10,0.93,432.1,M,48.0,M,,*65
$GPGSA,A,3,14,17,23,22,11,19,03,01,32,31,,,1.68,0.93,1.40*09
$GPVTG,64.30,T,,M,0.12,N,0.23,K,A*0E
$UL2,2012-01-01,0:00:00.0,0.33,12.417,0.000,0.55,0.07,0.00,0.0,5.590,0.1,0.1,,,,,,,,,,976.24,25.9,0.0,0.0,0,0,0*0B
$SMGPS,0.1 m,+0.10 m/s,5.61 VRx,0.057 km,71 m,27.4 °,1:-- (  0.0 km/h)*DA
$GPRMC,115411.500,A,4845.2877,N,00942.1345,E,0.20,64.30,311017,,,A*57
$GPGGA,115411.500,4845.2877,N,00942.1345,E,1,10,0.90,432.0,M,48.0,M,,*62
$GPGSA,A,3,14,17,23,22,11,19,03,01,32,31,,,1.21,0.90,0.81*0B
$GPVTG,64.30,T,,M,0.18,N,0.34,K,A*02
$UL2,2012-01-01,0:00:00.0,0.88,12.417,0.000,0.41,0.04,0.00,0.0,5.590,0.1,0.1,,,,,,,,,,976.24,25.9,0.0,0.0,0,0,0*0D
$SMGPS,0.0 m,+0.04 m/s,5.61 VRx,0.057 km,71 m,27.4 °,1:-- (  0.0 km/h)*DE
$GPRMC,115412.000,A,4845.2877,N,00942.1345,E,0.14,64.30,311017,,,A*56
$GPGGA,115412.000,4845.2877,N,00942.1345,E,1,10,0.90,432.0,M,48.0,M,,*64
$GPGSA,A,3,14,17,23,22,11,19,03,01,32,31,,,1.21,0.90,0.81*0B
$GPVTG,64.30,T,,M,0.13,N,0.24,K,A*08
$UL2,2012-01-01,0:00:00.0,0.34,12.417,0.000,0.36,-0.01,0.00,0.0,5.590,0.1,0.1,,,,,,,,,,976.24,26.0,0.0,0.0,0,0,0*28
$SMGPS,0.0 m,+0.02 m/s,5.61 VRx,0.057 km,71 m,27.4 °,1:-- (  0.0 km/h)*D8
$GPRMC,115412.500,A,4845.2878,N,00942.1345,E,0.15,64.30,311017,,,A*5D
$GPGGA,115412.500,4845.2878,N,00942.1345,E,1,10,0.93,432.1,M,48.0,M,,*6C
$GPGSA,A,3,14,17,23,22,11,19,03,01,32,31,,,1.68,0.93,1.40*09
$GPVTG,64.30,T,,M,0.07,N,0.12,K,A*08
$UL2,2012-01-01,0:00:00.0,0.89,12.417,0.000,0.36,-0.07,0.00,0.0,5.590,0.1,0.1,,,,,,,,,,976.25,25.9,0.0,0.0,0,0,0*23
$SMGPS,0.1 m,+0.07 m/s,5.61 VRx,0.057 km,71 m,27.4 °,1:-- (  0.0 km/h)*DC
$GPRMC,115413.000,A,4845.2877,N,00942.1346,E,0.49,64.30,311017,,,A*5C
$GPGGA,115413.000,4845.2877,N,00942.1346,E,1,10,0.90,431.9,M,48.0,M,,*6C
$GPGSA,A,3,14,17,23,22,11,19,03,01,32,31,,,1.21,0.90,0.81*0B
$GPVTG,64.30,T,,M,0.48,N,0.89,K,A*01
$UL2,2012-01-01,0:00:00.0,0.34,12.417,0.000,0.28,-0.01,0.00,0.0,5.590,0.1,0.1,,,,,,,,,,976.25,26.0,0.0,0.0,0,0,0*26
$SMGPS,-0.1 m,-0.05 m/s,5.61 VRx,0.057 km,71 m,27.4 °,1:-- (  0.0 km/h)*F5
$GPRMC,115413.500,A,4845.2877,N,00942.1347,E,0.75,74.04,311017,,,A*51
$GPGGA,115413.500,4845.2877,N,00942.1347,E,1,10,0.90,431.7,M,48.0,M,,*66
$GPGSA,A,3,14,17,23,22,11,19,03,01,32,31,,,1.21,0.90,0.81*0B
$GPVTG,74.04,T,,M,0.43,N,0.80,K,A*05
$UL2,2012-01-01,0:00:00.0,0.89,12.417,0.000,0.11,-0.05,0.00,0.0,5.590,0.1,0.1,,,,,,,,,,976.25,25.9,0.0,0.0,0,0,0*24
$SMGPS,-0.3 m,-0.31 m/s,5.61 VRx,0.057 km,71 m,27.4 °,1:-- (  0.0 km/h)*F0
$GPRMC,115414.000,A,4845.2877,N,00942.1347,E,0.77,56.66,311017,,,A*55
$GPGGA,115414.000,4845.2877,N,00942.1347,E,1,10,0.90,431.8,M,48.0,M,,*6B
$GPGSA,A,3,14,17,23,22,11,19,03,01,32,31,,,1.21,0.90,0.81*0B
$GPVTG,56.66,T,,M,0.65,N,1.20,K,A*0E
$UL2,2012-01-01,0:00:00.0,0.35,12.417,0.000,0.09,0.03,0.00,0.0,5.590,0.1,0.1,,,,,,,,,,976.25,26.0,0.0,0.0,0,0,0*0B
$SMGPS,-0.2 m,-0.21 m/s,5.61 VRx,0.057 km,71 m,27.4 °,1:-- (  0.0 km/h)*F0
$GPRMC,115414.500,A,4845.2878,N,00942.1348,E,0.70,47.32,311017,,,A*56
$GPGGA,115414.500,4845.2878,N,00942.1348,E,1,10,0.90,431.8,M,48.0,M,,*6E
$GPGSA,A,3,14,17,23,22,11,19,03,01,32,31,,,1.21,0.90,0.81*0B
$GPVTG,47.32,T,,M,0.70,N,1.30,K,A*0A
$UL2,2012-01-01,0:00:00.0,0.80,12.417,0.050,0.07,0.01,0.63,0.0,5.590,0.1,0.1,,,,,,,,,,976.25,26.0,0.0,0.0,0,0,0*09
$SMGPS,-0.2 m,+0.04 m/s,5.61 VRx,0.057 km,71 m,27.5 °,1:-- (  0.0 km/h)*F0
$GPRMC,115415.000,A,4845.2879,N,00942.1349,E,0.32,47.03,311017,,,A*56
$GPGGA,115415.000,4845.2879,N,00942.1349,E,1,10,0.90,431.8,M,48.0,M,,*6A
$GPGSA,A,3,14,17,23,22,11,19,03,01,32,31,,,1.21,0.90,0.81*0B
$GPVTG,47.03,T,,M,0.32,N,0.59,K,A*00
$UL2,2012-01-01,0:00:00.0,0.35,12.417,0.000,0.06,-0.00,0.00,0.0,5.590,0.1,0.1,,,,,,,,,,976.25,26.0,0.0,0.0,0,0,0*2A
$SMGPS,-0.2 m,+0.02 m/s,5.61 VRx,0.057 km,71 m,27.5 °,1:-- (  0.0 km/h)*F6
$GPRMC,115415.500,A,4845.2879,N,00942.1349,E,0.25,48.80,311017,,,A*51
$GPGGA,115415.500,4845.2879,N,00942.1349,E,1,10,0.90,431.8,M,48.0,M,,*6F
$GPGSA,A,3,14,17,23,22,11,19,03,01,32,31,,,1.21,0.90,0.81*0B
$GPVTG,48.80,T,,M,0.25,N,0.47,K,A*0D
$UL2,2012-01-01,0:00:00.0,0.81,12.417,0.000,0.09,0.03,0.00,0.0,5.590,0.1,0.1,,,,,,,,,,976.25,26.0,0.0,0.0,0,0,0*04
$SMGPS,-0.2 m,+0.01 m/s,5.61 VRx,0.057 km,71 m,27.6 °,1:-- (  0.0 km/h)*F6
$GPRMC,115416.000,A,4845.2879,N,00942.1349,E,0.23,50.29,311017,,,A*5B
$GPGGA,115416.000,4845.2879,N,00942.1349,E,1,10,0.90,431.8,M,48.0,M,,*69
$GPGSA,A,3,14,17,23,22,11,19,03,01,32,31,,,1.21,0.90,0.81*0B
$GPVTG,50.29,T,,M,0.23,N,0.43,K,A*05
$UL2,2012-01-01,0:00:00.0,0.36,12.417,0.000,0.07,0.04,0.00,0.0,5.590,0.1,0.1,,,,,,,,,,976.25,26.0,0.0,0.0,0,0,0*01
$SMGPS,-0.2 m,+0.01 m/s,5.61 VRx,0.057 km,72 m,27.4 °,1:-- (  0.0 km/h)*F7
$GPRMC,115416.500,A,4845.2879,N,00942.1349,E,0.18,47.19,311017,,,A*53
$GPGGA,115416.500,4845.2879,N,00942.1349,E,1,10,0.90,431.9,M,48.0,M,,*6D
$GPGSA,A,3,14,17,23,22,11,19,03,01,32,31,,,1.21,0.90,0.81*0B
$GPVTG,47.19,T,,M,0.18,N,0.34,K,A*08
$UL2,2012-01-01,0:00:00.0,0.80,12.366,1.972,0.08,0.05,24.38,0.1,5.590,0.2,0.1,,,,,,,,,,976.24,26.0,0.0,0.0,0,0,0*30
$SMGPS,-0.1 m,+0.02 m/s,5.61 VRx,0.057 km,72 m,27.4 °,1:-- (  0.0 km/h)*F7
$GPRMC,115417.000,A,4845.2879,N,00942.1349,E,0.67,47.19,311017,,,A*5F
$GPGGA,115417.000,4845.2879,N,00942.1349,E,1,10,0.90,432.0,M,48.0,M,,*63
$GPGSA,A,3,14,17,23,22,11,19,03,01,32,31,,,1.21,0.90,0.81*0B
$GPVTG,47.19,T,,M,0.67,N,1.24,K,A*00
$UL2,2012-01-01,0:00:00.0,0.36,12.052,8.848,-0.43,0.11,106.64,3090.6,5.590,1.0,0.7,,,,,,,,,,976.24,26.0,0.0,0.0,0,0,0*1F
$SMGPS,-0.0 m,+0.00 m/s,5.61 VRx,0.057 km,72 m,27.4 °,1:-- (  0.0 km/h)*F4
$GPRMC,115417.500,A,4845.2878,N,00942.1345,E,3.01,247.28,311017,,,A*64
$GPGGA,115417.500,4845.2878,N,00942.1345,E,1,10,0.90,432.2,M,48.0,M,,*69
$GPGSA,A,3,14,17,23,22,11,19,03,01,32,31,,,1.21,0.90,0.81*0B
$GPVTG,247.28,T,,M,2.99,N,5.54,K,A*30
$UL2,2012-01-01,0:00:00.0,0.81,11.429,24.147,-0.43,-0.11,275.98,4921.1,5.591,3.4,2.4,,,,,,,,,,976.24,26.0,0.0,0.0,0,0,0*0C
$SMGPS,0.2 m,+0.18 m/s,5.61 VRx,0.057 km,72 m,27.4 °,1:-- (  0.0 km/h)*D2
$GPRMC,115418.000,A,4845.2875,N,00942.1338,E,5.46,242.89,311017,,,A*62
$GPGGA,115418.000,4845.2875,N,00942.1338,E,1,10,0.90,432.7,M,48.0,M,,*61
$GPGSA,A,3,14,17,23,22,11,19,03,01,32,31,,,1.21,0.90,0.81*0B
$GPVTG,242.89,T,,M,5.33,N,9.87,K,A*3B
$UL2,2012-01-01,0:00:00.0,1.37,10.596,46.706,-0.96,-0.39,494.92,6204.7,5.591,8.6,5.8,,,,,,,,,,976.27,26.0,0.0,0.0,0,0,0*0B
$SMGPS,0.7 m,+0.61 m/s,5.60 VRx,0.058 km,72 m,27.4 °,1:-- (  0.0 km/h)*D7
$GPRMC,115418.500,A,4845.2870,N,00942.1320,E,12.58,249.85,311017,,,A*55
$GPGGA,115418.500,4845.2870,N,00942.1320,E,1,10,0.93,433.4,M,48.0,M,,*69
$GPGSA,A,3,14,17,23,22,11,19,03,01,32,31,,,1.68,0.93,1.40*09
$GPVTG,249.85,T,,M,12.41,N,23.00,K,A*38
$UL2,2012-01-01,0:00:00.0,1.82,10.518,45.240,-0.96,-0.39,475.83,6194.4,5.591,14.8,9.7,,,,,,,,,,976.29,26.0,0.0,0.0,0,0,0*3F
$SMGPS,1.4 m,+1.06 m/s,5.60 VRx,0.059 km,71 m,27.4 °,1:-- (  0.0 km/h)*D7
$GPRMC,115419.000,A,4845.2862,N,00942.1289,E,20.07,245.79,311017,,,A*54
$GPGGA,115419.000,4845.2862,N,00942.1289,E,1,10,0.93,434.0,M,48.0,M,,*6F
$GPGSA,A,3,14,17,23,22,11,19,03,01,32,31,,,1.68,0.93,1.40*09
$GPVTG,245.79,T,,M,19.95,N,36.97,K,A*3F
$UL2,2012-01-01,0:00:00.0,2.38,10.465,44.320,0.41,0.28,463.82,6190.6,5.591,20.9,13.6,,,,,,,,,,976.26,26.0,0.0,0.0,0,0,0*09
$SMGPS,2.0 m,+1.14 m/s,5.61 VRx,0.061 km,71 m,26.7 °,1:-- (  0.0 km/h)*DB
$GPRMC,115419.500,A,4845.2848,N,00942.1249,E,22.49,241.48,311017,,,A*5B
$GPGGA,115419.500,4845.2848,N,00942.1249,E,1,10,0.90,434.6,M,48.0,M,,*6B
$GPGSA,A,3,14,17,23,22,11,19,03,01,32,31,,,1.21,0.90,0.81*0B
$GPVTG,241.48,T,,M,22.38,N,41.47,K,A*3B
$UL2,2012-01-01,0:00:00.0,2.83,10.439,42.891,3.29,1.52,447.75,6206.6,5.591,26.9,17.3,,,,,,,,,,976.17,26.0,0.0,0.0,0,0,0*01
$SMGPS,2.6 m,+1.14 m/s,5.60 VRx,0.065 km,69 m,25.6 °,1:-- (  0.0 km/h)*D3
$GPRMC,115420.000,A,4845.2831,N,00942.1205,E,24.50,238.30,311017,,,A*5D
$GPGGA,115420.000,4845.2831,N,00942.1205,E,1,10,0.93,435.7,M,48.0,M,,*61
$GPGSA,A,3,14,17,23,22,11,19,03,01,32,31,,,1.68,0.93,1.40*09
$GPVTG,238.30,T,,M,24.33,N,45.09,K,A*39
$UL2,2012-01-01,0:00:00.0,3.38,10.419,41.874,6.66,3.31,436.28,6218.3,5.591,32.7,20.9,,,,,,,,,,975.95,26.0,0.0,0.0,0,0,0*0B
$SMGPS,3.7 m,+1.48 m/s,5.61 VRx,0.071 km,66 m,23.2 °,1:-- (  0.0 km/h)*D3
$GPRMC,115420.500,A,4845.2810,N,00942.1162,E,25.70,233.19,311017,,,A*5A
$GPGGA,115420.500,4845.2810,N,00942.1162,E,1,10,0.93,437.5,M,48.0,M,,*65
$GPGSA,A,3,14,17,23,22,11,19,03,01,32,31,,,1.68,0.93,1.40*09
$GPVTG,233.19,T,,M,25.26,N,46.81,K,A*3F
$UL2,2012-01-01,0:00:00.0,3.83,10.386,41.512,9.13,4.26,431.25,6166.3,5.591,38.4,24.5,,,,,,,,,,975.72,26.0,0.0,0.0,0,0,0*03
$SMGPS,5.5 m,+2.44 m/s,5.60 VRx,0.077 km,62 m,19.9 °,1:-- (  0.0 km/h)*D9
$GPRMC,115421.000,A,4845.2789,N,00942.1119,E,26.33,232.89,311017,,,A*51
$GPGGA,115421.000,4845.2789,N,00942.1119,E,1,10,0.93,440.1,M,48.0,M,,*66
$GPGSA,A,3,14,17,23,22,11,19,03,01,32,31,,,1.68,0.93,1.40*09
$GPVTG,232.89,T,,M,25.26,N,46.80,K,A*36
$UL2,2012-01-01,0:00:00.0,4.28,10.364,40.837,12.11,5.11,423.23,6218.1,5.561,42.9,27.3,,,,,,,,,,975.44,26.0,0.0,0.0,0,0,0*3D
$SMGPS,8.1 m,+3.83 m/s,5.58 VRx,0.084 km,58 m,15.8 °,1:-- (  0.0 km/h)*D9
$GPRMC,115421.500,A,4845.2766,N,00942.1075,E,27.98,229.34,311017,,,A*52
$GPGGA,115421.500,4845.2766,N,00942.1075,E,1,10,0.93,443.1,M,48.0,M,,*6A
$GPGSA,A,3,14,17,23,22,11,19,03,01,32,31,,,1.68,0.93,1.40*09
$GPVTG,229.34,T,,M,26.21,N,48.56,K,A*3B
$UL2,2012-01-01,0:00:00.0,4.84,10.326,40.832,17.01,6.22,421.64,6186.8,5.587,49.7,31.5,,,,,,,,,,975.03,26.0,0.0,0.0,0,0,0*3C
$SMGPS,11.1 m,+5.04 m/s,5.60 VRx,0.090 km,53 m,11.4 °,1:-- (  0.0 km/h)*E5
$GPRMC,115422.000,A,4845.2745,N,00942.1035,E,26.02,228.12,311017,,,A*56
$GPGGA,115422.000,4845.2745,N,00942.1035,E,1,10,0.93,446.2,M,48.0,M,,*6F
$GPGSA,A,3,14,17,23,22,11,19,03,01,32,31,,,1.68,0.93,1.40*09
$GPVTG,228.12,T,,M,23.40,N,43.35,K,A*32
$UL2,2012-01-01,0:00:00.0,5.29,10.305,40.660,19.91,6.89,419.01,6185.2,5.587,54.1,34.3,,,,,,,,,,974.67,26.0,0.0,0.0,0,0,0*3F
$SMGPS,14.2 m,+5.86 m/s,5.60 VRx,0.097 km,50 m,6.0 °,1:-- (  0.0 km/h)*DF
$GPRMC,115422.500,A,4845.2724,N,00942.0994,E,27.67,233.78,311017,,,A*53
$GPGGA,115422.500,4845.2724,N,00942.0994,E,1,10,0.90,450.3,M,48.0,M,,*6B
$GPGSA,A,3,14,17,23,22,11,19,03,01,32,31,,,1.21,0.90,0.81*0B
$GPVTG,233.78,T,,M,24.39,N,45.20,K,A*3F
$UL2,2012-01-01,0:00:00.0,5.84,10.282,40.018,24.76,7.19,411.49,6180.5,5.589,60.8,38.4,,,,,,,,,,974.20,26.0,0.0,0.0,0,0,0*3E
$SMGPS,18.3 m,+6.72 m/s,5.60 VRx,0.103 km,47 m,359.3 °,1:-- (  0.0 km/h)*DA
$GPRMC,115423.000,A,4845.2704,N,00942.0951,E,28.27,237.92,311017,,,A*57
$GPGGA,115423.000,4845.2704,N,00942.0951,E,1,10,0.93,453.7,M,48.0,M,,*60
$GPGSA,A,3,14,17,23,22,11,19,03,01,32,31,,,1.68,0.93,1.40*09
$GPVTG,237.92,T,,M,24.62,N,45.61,K,A*34
$UL2,2012-01-01,0:00:00.0,6.30,10.260,40.136,27.09,7.32,411.80,6619.3,5.591,66.3,41.8,,,,,,,,,,973.83,26.0,0.0,0.0,0,0,0*3D
$SMGPS,21.7 m,+7.15 m/s,5.61 VRx,0.110 km,46 m,352.0 °,1:-- (  0.0 km/h)*DE
$GPRMC,115423.500,A,4845.2684,N,00942.0905,E,29.13,239.85,311017,,,A*54
$GPGGA,115423.500,4845.2684,N,00942.0905,E,1,10,0.93,458.0,M,48.0,M,,*61
$GPGSA,A,3,14,17,23,22,11,19,03,01,32,31,,,1.68,0.93,1.40*09
$GPVTG,239.85,T,,M,25.33,N,46.94,K,A*30
$UL2,2012-01-01,0:00:00.0,6.86,10.241,39.652,32.89,7.70,406.06,6162.5,5.591,71.7,45.1,,,,,,,,,,973.33,26.0,0.0,0.0,0,0,0*33
$SMGPS,26.0 m,+7.40 m/s,5.60 VRx,0.116 km,46 m,343.2 °,1:-- (  0.0 km/h)*DB
$GPRMC,115424.000,A,4845.2665,N,00942.0857,E,29.68,242.11,311017,,,A*52
$GPGGA,115424.000,4845.2665,N,00942.0857,E,1,10,0.93,461.7,M,48.0,M,,*67
$GPGSA,A,3,14,17,23,22,11,19,03,01,32,31,,,1.68,0.93,1.40*09
$GPVTG,242.11,T,,M,25.63,N,47.48,K,A*34
$UL2,2012-01-01,0:00:00.0,7.31,10.222,39.507,35.65,7.86,403.82,6560.3,5.591,77.2,48.4,,,,,,,,,,972.93,26.0,0.0,0.0,0,0,0*3D
$SMGPS,29.7 m,+7.70 m/s,5.60 VRx,0.123 km,48 m,333.2 °,1:-- (  0.0 km/h)*DF
$GPRMC,115424.500,A,4845.2649,N,00942.0810,E,28.24,244.44,311017,,,A*55
$GPGGA,115424.500,4845.2649,N,00942.0810,E,1,10,0.93,466.2,M,48.0,M,,*6D
$GPGSA,A,3,14,17,23,22,11,19,03,01,32,31,,,1.68,0.93,1.40*09
$GPVTG,244.44,T,,M,23.69,N,43.89,K,A*37
$UL2,2012-01-01,0:00:00.0,7.87,10.206,39.229,41.64,8.01,400.36,6144.6,5.591,82.5,51.8,,,,,,,,,,972.39,26.0,0.0,0.0,0,0,0*3D
$SMGPS,34.2 m,+7.91 m/s,5.60 VRx,0.129 km,51 m,321.9 °,1:-- (  0.0 km/h)*D3
$GPRMC,115425.000,A,4845.2624,N,00942.0754,E,31.59,246.96,311017,,,A*5A
$GPGGA,115425.000,4845.2624,N,00942.0754,E,1,10,0.93,469.6,M,48.0,M,,*66
$GPGSA,A,3,14,17,23,22,11,19,03,01,32,31,,,1.68,0.93,1.40*09
$GPVTG,246.96,T,,M,27.71,N,51.35,K,A*33
$UL2,2012-01-01,0:00:00.0,8.31,10.187,39.520,43.91,8.28,402.58,6134.4,5.591,87.9,55.1,,,,,,,,,,971.98,26.0,0.0,0.0,0,0,0*3B
$SMGPS,37.6 m,+7.81 m/s,5.60 VRx,0.136 km,55 m,311.2 °,1:-- (  0.0 km/h)*D7
$GPRMC,115425.500,A,4845.2610,N,00942.0698,E,32.22,250.32,311017,,,A*5F
$GPGGA,115425.500,4845.2610,N,00942.0698,E,1,10,0.93,474.3,M,48.0,M,,*6C
$GPGSA,A,3,14,17,23,22,11,19,03,01,32,31,,,1.68,0.93,1.40*09
$GPVTG,250.32,T,,M,28.35,N,52.54,K,A*31
$UL2,2012-01-01,0:00:00.0,8.88,10.168,39.118,49.37,8.21,397.80,6129.5,5.591,93.3,58.3,,,,,,,,,,971.44,26.0,0.0,0.0,0,0,0*3A
$SMGPS,42.3 m,+7.88 m/s,5.60 VRx,0.144 km,59 m,302.3 °,1:-- (  0.0 km/h)*D3
$GPRMC,115426.000,A,4845.2598,N,00942.0641,E,31.93,256.57,311017,,,A*52
$GPGGA,115426.000,4845.2598,N,00942.0641,E,1,10,0.93,478.2,M,48.0,M,,*60
$GPGSA,A,3,14,17,23,22,11,19,03,01,32,31,,,1.68,0.93,1.40*09
$GPVTG,256.57,T,,M,27.64,N,51.21,K,A*3E
$UL2,2012-01-01,0:00:00.0,9.32,10.159,38.914,52.97,8.37,395.34,6124.9,5.593,98.7,61.6,,,,,,,,,,971.00,26.0,0.0,0.0,0,0,0*34
$SMGPS,46.2 m,+8.23 m/s,5.60 VRx,0.152 km,65 m,291.6 °,1:-- (  0.0 km/h)*DE
$GPRMC,115426.500,A,4845.2591,N,00942.0584,E,31.39,260.21,311017,,,A*50
$GPGGA,115426.500,4845.2591,N,00942.0584,E,1,10,0.93,482.9,M,48.0,M,,*68
$GPGSA,A,3,14,17,23,22,11,19,03,01,32,31,,,1.68,0.93,1.40*09
$GPVTG,260.21,T,,M,26.80,N,49.66,K,A*3B
$UL2,2012-01-01,0:00:00.0,9.89,10.151,38.585,58.87,8.64,391.69,6173.4,5.593,104.0,64.8,,,,,,,,,,970.44,26.0,0.0,0.0,0,0,0*0F
$SMGPS,50.9 m,+8.41 m/s,5.60 VRx,0.159 km,72 m,286.3 °,1:-- (  0.0 km/h)*D8
$GPRMC,115427.000,A,4845.2585,N,00942.0528,E,30.82,263.55,311017,,,A*56
$GPGGA,115427.000,4845.2585,N,00942.0528,E,1,10,0.93,486.9,M,48.0,M,,*6B
$GPGSA,A,3,14,17,23,22,11,19,03,01,32,31,,,1.68,0.93,1.40*09
$GPVTG,263.55,T,,M,26.02,N,48.21,K,A*33
$UL2,2012-01-01,0:00:00.0,10.32,10.134,38.734,61.47,8.85,392.68,6109.2,5.594,109.3,68.0,,,,,,,,,,970.00,26.0,0.0,0.0,0,0,0*31
$SMGPS,54.9 m,+8.50 m/s,5.61 VRx,0.166 km,80 m,281.6 °,1:-- (  0.0 km/h)*DE
$GPRMC,115427.500,A,4845.2581,N,00942.0474,E,30.41,265.20,311017,,,A*54
$GPGGA,115427.500,4845.2581,N,00942.0474,E,1,10,0.93,492.2,M,48.0,M,,*6C
$GPGSA,A,3,14,17,23,22,11,19,03,01,32,31,,,1.68,0.93,1.40*09
$GPVTG,265.20,T,,M,25.01,N,46.35,K,A*3C
$UL2,2012-01-01,0:00:00.0,10.78,10.126,38.464,66.20,8.55,389.48,6113.9,5.595,113.5,70.6,,,,,,,,,,969.54,26.0,0.0,0.0,0,0,0*33
$SMGPS,60.2 m,+8.90 m/s,5.60 VRx,0.173 km,87 m,279.6 °,1:-- (  0.0 km/h)*DB
$GPRMC,115428.000,A,4845.2579,N,00942.0422,E,29.53,266.77,311017,,,A*50
$GPGGA,115428.000,4845.2579,N,00942.0422,E,1,10,0.93,496.1,M,48.0,M,,*65
$GPGSA,A,3,14,17,23,22,11,19,03,01,32,31,,,1.68,0.93,1.40*09
$GPVTG,266.77,T,,M,23.78,N,44.07,K,A*36
$UL2,2012-01-01,0:00:00.0,11.33,10.103,38.954,70.67,8.79,393.56,6087.4,5.595,119.9,74.5,,,,,,,,,,968.97,26.0,0.0,0.0,0,0,0*34
$SMGPS,64.1 m,+9.01 m/s,5.60 VRx,0.180 km,96 m,277.2 °,1:-- (  0.0 km/h)*D3
$GPRMC,115428.500,A,4845.2576,N,00942.0371,E,29.66,266.35,311017,,,A*5B
$GPGGA,115428.500,4845.2576,N,00942.0371,E,1,10,0.93,499.9,M,48.0,M,,*69
$GPGSA,A,3,14,17,23,22,11,19,03,01,32,31,,,1.68,0.93,1.40*09
$GPVTG,266.35,T,,M,24.31,N,45.04,K,A*38
$UL2,2012-01-01,0:00:00.0,11.79,10.086,39.029,75.20,8.68,393.63,6061.5,5.595,124.2,77.1,,,,,,,,,,968.53,26.0,0.0,0.0,0,0,0*37
$SMGPS,67.9 m,+8.74 m/s,5.60 VRx,0.186 km,103 m,276.5 °,1:-- (  0.0 km/h)*E6
$GPRMC,115429.000,A,4845.2575,N,00942.0320,E,28.71,267.98,311017,,,A*59
$GPGGA,115429.000,4845.2575,N,00942.0320,E,1,10,0.93,504.4,M,48.0,M,,*62
$GPGSA,A,3,14,17,23,22,11,19,03,01,32,31,,,1.68,0.93,1.40*09
$GPVTG,267.98,T,,M,23.85,N,44.19,K,A*3B
$UL2,2012-01-01,0:00:00.0,12.34,10.077,39.013,78.62,8.52,393.15,6067.7,5.595,130.6,81.0,,,,,,,,,,967.98,26.1,0.0,0.0,0,0,0*3D
$SMGPS,72.4 m,+8.22 m/s,5.60 VRx,0.192 km,110 m,275.1 °,1:-- (  0.0 km/h)*EC
$GPRMC,115429.500,A,4845.2576,N,00942.0269,E,29.24,275.48,311017,,,A*5C
$GPGGA,115429.500,4845.2576,N,00942.0269,E,1,10,0.93,509.2,M,48.0,M,,*63
$GPGSA,A,3,14,17,23,22,11,19,03,01,32,31,,,1.68,0.93,1.40*09
$GPVTG,275.48,T,,M,24.48,N,45.36,K,A*3F
$UL2,2012-01-01,0:00:00.0,12.79,10.063,39.151,83.13,8.43,393.99,6050.2,5.595,134.9,83.6,,,,,,,,,,967.55,26.0,0.0,0.0,0,0,0*3E
$SMGPS,77.2 m,+8.23 m/s,5.59 VRx,0.199 km,118 m,274.8 °,1:-- (  0.0 km/h)*EF
$GPRMC,115430.000,A,4845.2579,N,00942.0218,E,29.08,278.90,311017,,,A*5E
$GPGGA,115430.000,4845.2579,N,00942.0218,E,1,10,0.93,513.1,M,48.0,M,,*6F
$GPGSA,A,3,14,17,23,22,11,19,03,01,32,31,,,1.68,0.93,1.40*09
$GPVTG,278.90,T,,M,23.99,N,44.46,K,A*3A
$UL2,2012-01-01,0:00:00.0,13.36,10.048,39.202,86.19,7.94,393.91,6032.9,5.595,141.3,87.5,,,,,,,,,,967.04,26.1,0.0,0.0,0,0,0*3F
$SMGPS,81.1 m,+8.46 m/s,5.60 VRx,0.205 km,126 m,273.9 °,1:-- (  0.0 km/h)*E1
$GPRMC,115430.500,A,4845.2581,N,00942.0171,E,27.06,279.11,311017,,,A*58
$GPGGA,115430.500,4845.2581,N,00942.0171,E,1,10,0.93,516.9,M,48.0,M,,*6C
$GPGSA,A,3,14,17,23,22,11,19,03,01,32,31,,,1.68,0.93,1.40*09
$GPVTG,279.11,T,,M,21.45,N,39.75,K,A*3B
$UL2,2012-01-01,0:00:00.0,13.79,10.032,39.602,91.30,8.32,397.31,6461.6,5.595,145.7,90.1,,,,,,,,,,966.61,26.1,0.0,0.0,0,0,0*30
$SMGPS,84.9 m,+8.49 m/s,5.60 VRx,0.211 km,133 m,274.2 °,1:-- (  0.0 km/h)*EE
$GPRMC,115431.000,A,4845.2583,N,00942.0125,E,28.18,268.63,311017,,,A*5A
$GPGGA,115431.000,4845.2583,N,00942.0125,E,1,10,0.93,521.7,M,48.0,M,,*61
$GPGSA,A,3,14,17,23,22,11,19,03,01,32,31,,,1.68,0.93,1.40*09
$GPVTG,268.63,T,,M,22.84,N,42.32,K,A*3F
$UL2,2012-01-01,0:00:00.0,14.37,10.025,39.554,94.91,8.28,396.57,6005.4,5.595,152.2,94.0,,,,,,,,,,966.09,26.1,0.0,0.0,0,0,0*33
$SMGPS,89.7 m,+8.49 m/s,5.60 VRx,0.217 km,140 m,273.9 °,1:-- (  0.0 km/h)*E3
$GPRMC,115431.500,A,4845.2584,N,00942.0078,E,27.47,272.62,311017,,,A*5E
$GPGGA,115431.500,4845.2584,N,00942.0078,E,1,10,0.93,525.6,M,48.0,M,,*6F
$GPGSA,A,3,14,17,23,22,11,19,03,01,32,31,,,1.68,0.93,1.40*09
$GPVTG,272.62,T,,M,21.93,N,40.64,K,A*31
$UL2,2012-01-01,0:00:00.0,14.80,10.013,39.483,99.85,8.24,395.34,5993.2,5.595,157.6,97.2,,,,,,,,,,965.65,26.1,0.0,0.0,0,0,0*39
$SMGPS,93.6 m,+8.51 m/s,5.60 VRx,0.223 km,148 m,274.4 °,1:-- (  0.0 km/h)*E5
$GPRMC,115432.000,A,4845.2595,N,00942.0035,E,30.28,305.23,311017,,,A*5A
$GPGGA,115432.000,4845.2595,N,00942.0035,E,1,10,0.93,530.6,M,48.0,M,,*64
$GPGSA,A,3,14,17,23,22,11,19,03,01,32,31,,,1.68,0.93,1.40*09
$GPVTG,305.23,T,,M,25.14,N,46.58,K,A*37
$UL2,2012-01-01,0:00:00.0,15.37,9.994,39.902,103.61,8.49,398.80,6021.7,5.574,163.0,100.5,,,,,,,,,,965.11,26.0,0.0,0.0,0,0,0*0D
$SMGPS,98.6 m,+8.68 m/s,5.59 VRx,0.229 km,154 m,274.2 °,1:-- (  0.0 km/h)*EF
$GPRMC,115432.500,A,4845.2616,N,00941.9993,E,31.63,310.66,311017,,,A*53
$GPGGA,115432.500,4845.2616,N,00941.9993,E,1,10,0.93,534.5,M,48.0,M,,*61
$GPGSA,A,3,14,17,23,22,11,19,03,01,32,31,,,1.68,0.93,1.40*09
$GPVTG,310.66,T,,M,26.80,N,49.67,K,A*3F
$UL2,2012-01-01,0:00:00.0,15.81,9.994,39.841,107.98,8.54,398.19,5972.0,5.574,168.5,103.8,,,,,,,,,,964.66,26.1,0.0,0.0,0,0,0*03
